timestamp,longitude,latitude,altitude,roll,pitch,yaw,u,v,heading,air_speed,engine_0,engine_1,temperature_in,humidity_in,pressure_in,heart_rate,oxygen_mask
1306893621.61,3.016743,5.5767575,-1.0,-1.0,2.0,-1.0,298787.0,-49925.12,-1.0,41.36980881519973,4295705.335457829,4295705.335457829,23.32724467616955,7.078118801739367,25173.473942367935,86.10000000000001,30.219947227409733
1306893624.34,3.0156858,5.5759625,-1.0,-1.0,1.9,-1.0,298708.5,-50018.59,-1.0,41.36980881519973,3398294.6944495123,3398294.6944495123,22.09057865355164,7.184679756697967,24441.09009743989,86.10000000000001,30.200985066429855
1306893626.45,3.0147038,5.575224,-1.0,-1.0,1.8,-1.0,298635.56,-50105.43,-1.0,50.403251517092144,2546820.9010321447,2546820.9010321447,20.99719345503293,7.102262288924772,24072.35132239844,85.9,30.182022905449976
1306893628.97,3.0133433,5.5742009,-1.0,-1.0,1.7,-1.0,298534.53,-50225.73,-1.0,58.99244588363753,1783391.4228477473,1783391.4228477473,20.51240775264609,7.0254293188675305,23682.901547730315,85.7,30.16306839976319
1306893631.91,3.011488,5.5728056,23.66,-1.0,2.2,-1.0,298396.78,-50389.8,-1.0,70.02160333525305,1218149.6084753368,1218149.6084753368,19.5180899496529,6.856457455725229,23334.68621615834,86.2,30.163007157418484
1306893632.33,3.011199,5.5725882,23.71,-1.0,4.8,-1.0,298375.31,-50415.36,-1.0,76.12781394202852,1218149.608475337,1218149.608475337,19.5180899496529,6.85645745572523,23334.68621615834,86.2,30.16300715741848
1306893632.75,3.0109056,5.5723675,23.74,-1.0,6.5,-1.0,298353.5,-50441.31,-1.0,77.35960574963447,1783391.4228477473,1783391.4228477473,20.51240775264609,7.025429318867532,23682.90154773031,85.69999999999999,30.163068399763187
1306893633.17,3.0106078,5.5721436,23.76,-1.0,7.6,-1.0,298331.41,-50467.64,-1.0,78.47983862085287,2546820.9010321447,2546820.9010321447,20.997193455032935,7.1022622889247735,24072.35132239844,85.9,30.182022905449976
1306893633.59,3.0103,5.5719121,23.77,-1.0,8.4,-1.0,298308.53,-50494.87,-1.0,81.33111089943529,3398294.6944495123,3398294.6944495123,22.09057865355164,7.184679756697967,24441.09009743989,86.10000000000001,30.20098506642985
1306893634.01,3.0099959,5.5716834,23.77,-1.0,8.8,-1.0,298285.97,-50521.75,-1.0,80.2023111776678,4295705.335457829,4295705.335457829,23.32724467616955,7.078118801739367,25173.47394236794,86.10000000000001,30.219947227409726
1306893634.43,3.0096766,5.5714432,23.79,-1.0,9.2,-1.0,298262.25,-50550.0,-1.0,84.47616810404388,4709977.183147214,4709977.183147214,24.582279223719453,7.210529166710554,25033.524482182107,87.4,30.23892469897578
1306893634.85,3.0093561,5.5712022,23.85,-1.0,9.5,-1.0,298238.44,-50578.34,-1.0,84.77859588237874,4909571.688778706,4909571.688778706,24.745047086774747,7.117207161535261,24843.629739830263,90.8,30.25794810230036
1306893635.27,3.0090283,5.5709556,24.07,-1.0,10.0,-1.0,298214.09,-50607.33,-1.0,86.7915921118556,5003769.587201293,5003769.587201293,25.87978501830712,7.138702511021812,25434.247366646538,93.0,30.277139922072887
1306893635.69,3.0086922,5.5707027,24.53,-1.0,10.3,-1.0,298189.16,-50637.06,-1.0,89.0327576950145,5011423.412342837,5011423.412342837,26.729917446687022,7.274993067130369,25625.755487186463,94.5,30.296683885327486
1306893636.11,3.0083541,5.5704483,25.3,-1.0,10.5,-1.0,298164.03,-50666.98,-1.0,89.69845014000383,5115259.164674375,5115259.164674375,25.31755876918058,7.467172796063218,26018.293648009403,91.1,30.297939353393975
1306893640.73,3.0041807,5.5672813,57.59,-1.0,10.8,-1.0,297854.25,-51039.15,-1.0,101.69215494075546,5408616.327147197,5408616.327147197,23.917756026766515,7.507681225868229,25674.36154274363,93.1,30.323875486377354
1306893641.57,3.0032986,5.5666018,69.15,0.4,10.7,-1.0,297788.84,-51118.94,-1.0,120.24660637288103,5682221.050023141,5682221.050023141,22.378753189282275,7.496777213767863,25718.85849504469,90.19999999999999,30.35863817229162
1306893641.99,3.002843,5.5662483,75.69,0.5,10.7,-1.0,297755.06,-51160.44,-1.0,125.00416883473669,6839893.162604545,6839893.162604545,22.49379259705057,7.617632872514019,25590.512870022696,89.6,30.398392109299497
1306893642.41,3.0023762,5.5658825,82.78,0.6,10.7,-1.0,297720.5,-51203.34,-1.0,128.89340506480391,8604122.407874726,8604122.407874726,22.713311591388607,7.521063695212863,25536.238995055326,90.8,30.443565993813927
1306893643.25,3.0014249,5.5651261,98.22,0.9,10.7,-1.0,297650.13,-51292.01,-1.0,132.6514928383893,10834653.215679163,10834653.215679163,22.54933689408911,7.5970849685479385,25208.152651733115,94.30000000000001,30.500559650856797
1306893643.67,3.0009289,5.5647285,106.63,1.1,10.3,-1.0,297613.44,-51338.59,-1.0,139.22992188923695,13693300.243728282,13693300.243728282,22.76207143047287,7.5010997982299665,24667.370824504695,91.40000000000002,30.563976098800804
1306893644.09,3.0004289,5.5643261,115.15,1.4,10.1,-1.0,297576.47,-51385.73,-1.0,140.71017278069925,16556047.361220397,16556047.361220397,22.351363892137407,7.5462963807388626,25124.15816382857,90.9,30.633868924697566
1306893644.51,2.9999151,5.563911,123.82,1.7,9.8,-1.0,297538.5,-51434.35,-1.0,144.95732360004178,18574109.393013716,18574109.393013716,24.03710906982096,7.45825540271338,24743.384413380587,90.30000000000001,30.710230473253997
1306893644.93,2.9993971,5.5634909,132.35,2.0,9.6,223.9,297500.25,-51483.55,-1.0,146.39201468585958,20343256.485880934,20343256.485880934,23.531633421365868,7.270323152913033,24806.39461060439,88.7,30.79276984333274
1306893645.35,2.9988622,5.5630555,140.89,2.4,9.4,223.9,297460.72,-51534.52,-1.0,151.54295833376128,21650233.49187014,21650233.49187014,23.612000917413173,7.163227055905952,24439.763641838774,89.00000000000001,30.881257376141136
1306893645.77,2.9983199,5.562613,149.2,2.8,9.4,224.0,297420.66,-51586.32,-1.0,153.7840721324096,22657582.57220925,22657582.57220925,25.058664715231977,7.0515586492610955,24724.60061298747,86.80000000000001,30.95138751612364
1306893646.19,2.9977603,5.562156,157.42,3.2,9.4,224.0,297379.34,-51639.8,-1.0,158.71605213906656,23838900.081569538,23838900.081569538,25.41763569420722,7.0508130402538285,24065.952576448,88.70000000000002,31.018960788214624
1306893646.61,2.9971898,5.5616918,165.41,3.6,9.4,224.0,297337.19,-51694.15,-1.0,161.47909676803025,25390790.9674546,25390790.9674546,25.70760750557291,7.024438155793285,24031.8919131269,88.8,31.087644077803425
1306893647.03,2.9966083,5.5612203,173.19,3.9,9.4,224.2,297294.22,-51749.37,-1.0,164.23790389512308,27052270.10294136,27052270.10294136,25.306440749089948,7.004188063010221,24448.86109029844,90.6,31.156855582615325
1306893647.46,2.9960012,5.56073,180.99,4.3,9.2,224.3,297249.34,-51806.79,-1.0,167.0718928842833,28560904.718643647,28560904.718643647,25.756690497437468,7.000121814192931,24675.161204913285,89.19999999999999,31.220218443507715
1306893647.88,2.9953868,5.5602362,188.75,4.5,9.4,224.4,297203.94,-51864.63,-1.0,172.66400025336975,30254792.88796095,30254792.88796095,24.808310096307146,6.946229320705511,24652.462457556274,89.5,31.28308371034936
1306893648.3,2.9947611,5.5597358,196.7,4.5,9.6,224.5,297157.66,-51923.27,-1.0,175.49229020335736,32019476.460054483,32019476.460054483,26.40607463600585,7.118512618034294,25110.78074188589,88.0,31.345512625484965
1306893648.72,2.9941217,5.5592267,205.1,2.7,12.4,224.6,297110.34,-51982.93,-1.0,179.03283774229374,33739119.70612749,33739119.70612749,26.375979788214668,7.290854808056308,25257.011048119934,89.0,31.407734847707186
1306893649.14,2.9934823,5.5587181,214.77,-17.4,13.2,224.4,297063.0,-52042.55,-1.0,179.3518175516642,35455353.24207846,35455353.24207846,26.387073793751007,7.462133068316396,25729.766263559217,88.0,31.47082977334148
1306893649.56,2.9928368,5.5581919,226.09,-35.6,14.7,223.2,297015.31,-52104.14,-1.0,184.04280296596215,37102599.41343448,37102599.41343448,27.318072815291803,7.504887827463787,25738.163376547254,89.0,31.53605287045435
1306893649.98,2.9922174,5.5576606,238.43,-39.5,14.7,221.6,296969.75,-52166.17,-1.0,182.1967416711724,38649190.75074476,38649190.75074476,26.81616071709152,7.46254510336508,25524.71435318298,90.10000000000001,31.60436105068182
1306893650.4,2.9916123,5.5571124,251.61,-44.5,15.4,220.1,296925.41,-52230.02,-1.0,184.3135441599178,39593749.20711798,39593749.20711798,27.90943213201306,7.477757691227401,25757.398631531345,90.80000000000001,31.676466256281117
1306893650.82,2.9910385,5.556559,265.23,-51.1,16.5,218.1,296883.63,-52294.29,-1.0,181.93703620593175,40477401.01442557,40477401.01442557,27.49458998037194,7.497093030275246,26058.513925869935,90.10000000000001,31.752881391889165
1306893656.92,2.9840568,5.5468816,406.99,-51.1,5.5,202.3,296394.84,-53403.25,-1.0,196.46354583326388,41194612.01115531,41194612.01115531,28.21537114749397,7.755667668707758,25187.189087850966,88.1,31.93186214429512
1306893657.13,2.9838476,5.5464768,409.28,-51.1,5.4,201.6,296381.0,-53449.24,-1.0,225.36728340735493,43058566.80303583,43058566.80303583,28.820527516525292,7.687358595436885,24544.020961711045,89.39999999999999,32.10662483020938
1306893657.34,2.9836451,5.546071,411.44,-51.1,5.3,200.9,296367.66,-53495.3,-1.0,224.98593763869462,61877834.30861059,61877834.30861059,29.19462059503439,8.00358449906403,24833.77264467589,91.5,32.27710055199415
1306893657.55,2.9834474,5.54566,413.5,-51.1,5.2,200.3,296354.75,-53541.91,-1.0,226.92674543195156,84697161.71681157,84697161.71681157,28.880201972362553,7.870614464264242,24119.85138963301,92.69999999999999,32.443067306149885
1306893657.76,2.9832609,5.545257,415.41,-51.1,5.1,199.5,296342.69,-53587.59,-1.0,221.57247377897164,112033013.37317021,112033013.37317021,28.918744288979568,7.684999042246669,23925.500593526835,91.3,32.604065775091264
1306893657.97,2.9830724,5.5448327,417.31,-51.1,5.1,198.8,296330.59,-53635.64,-1.0,232.54096237028236,139367435.16820684,139367435.16820684,30.680276374229443,7.514874889105815,23720.989219200335,93.69999999999999,32.759116081302984
1306893658.18,2.9829011,5.5444301,419.01,-51.1,5.0,198.1,296319.72,-53681.19,-1.0,219.560916044324,156907539.19214088,156907539.19214088,31.027468961801244,7.690888647018795,23641.93555818,94.00000000000001,32.90680199556371
1306893658.39,2.9827262,5.5440003,420.72,-51.1,4.9,197.4,296308.75,-53729.79,-1.0,233.8135520828322,152324134.83503738,152324134.83503738,29.041526771473748,7.576510318841355,23134.63920890096,94.60000000000002,33.0463503332715
1306893658.6,2.9825652,5.5435845,422.29,-51.1,4.9,196.6,296298.78,-53776.76,-1.0,225.20051089343136,149808350.02744547,149808350.02744547,28.01587620023802,7.388223868368647,23250.243667478462,93.5,33.177010875703694
1306893658.81,2.9824115,5.5431672,423.78,-51.1,4.8,195.8,296289.41,-53823.86,-1.0,225.22491103101612,141677919.86228368,141677919.86228368,27.726760857246695,7.210089935040195,23364.907510050485,93.89999999999999,33.2983855476197
1306893659.02,2.9822653,5.5427484,425.19,-51.1,4.8,195.0,296280.63,-53871.1,-1.0,225.34355238946446,128647566.0789728,128647566.0789728,28.11549725416429,7.144619856276381,23563.37222816885,94.2,33.312318181040524
1306893659.23,2.9821234,5.542318,426.57,-51.1,4.7,194.3,296272.28,-53919.6,-1.0,230.88993339025103,129383892.53905606,129383892.53905606,26.29275400839706,7.145088691510176,23939.60279755451,93.1,33.325554182790306
1306893659.44,2.9819963,5.5419083,427.81,-51.1,4.7,193.4,296264.97,-53965.73,-1.0,218.94165470304765,131401632.32584085,131401632.32584085,25.170657795253135,6.996969142909208,23656.34239222213,90.5,33.338085897575965
1306893659.65,2.981872,5.5414811,429.04,-51.1,4.6,192.7,296257.97,-54013.78,-1.0,227.7627023108013,126397945.76980649,126397945.76980649,24.22979693105033,6.7501190211956335,24234.45794338561,87.6,33.349982223035276
1306893659.86,2.9817569,5.5410567,430.2,-51.1,4.6,191.8,296251.72,-54061.48,-1.0,225.6249896298208,125852214.22003807,125852214.22003807,23.862362216226146,6.739193499308251,24597.63358101661,87.6,33.36130440151297
1306893660.07,2.9816467,5.5406189,431.34,-51.1,4.6,191.1,296245.94,-54110.66,-1.0,232.34848787833516,129075220.98898003,129075220.98898003,23.27064510858156,7.082953499654334,24865.51417149433,86.5,33.372044777715935
1306893660.28,2.981547,5.540188,432.41,-60.1,4.5,190.2,296240.94,-54159.01,-1.0,228.0168232187575,127816941.83215837,127816941.83215837,21.915101037292303,6.9941633381154205,25150.004521786486,85.00000000000001,33.382302870454346
1306893660.49,2.9814569,5.5397622,433.41,-60.1,4.5,189.4,296236.69,-54206.75,-1.0,224.78899614774747,133410182.9268261,133410182.9268261,23.02097300070835,7.218300464800066,25696.699472554003,83.40000000000002,33.39201743738348
1306893660.7,2.9813732,5.5393251,434.4,-60.1,4.5,188.5,296233.0,-54255.71,-1.0,230.3706872225163,135833665.3453603,135833665.3453603,23.66621750802352,7.53773258918346,25213.469643807253,83.5,33.40128799731349
1306893660.91,2.9813004,5.5389015,435.31,-60.1,4.4,187.7,296230.09,-54303.12,-1.0,222.76061493612036,138030031.81471515,138030031.81471515,23.887586697050853,7.570282895532307,25449.5218014629,85.30000000000001,33.41011455024437
1306893661.12,2.9812356,5.538475,436.18,-60.1,4.4,186.8,296227.84,-54350.8,-1.0,223.88471481055325,134637932.81388324,134637932.81388324,22.345369124441348,7.6056847521991005,26042.62815321816,86.70000000000002,33.41852771734848
1306893661.33,2.9811773,5.5380334,437.05,-60.1,4.4,186.0,296226.22,-54400.15,-1.0,231.72445197073037,132256302.3123104,132256302.3123104,21.496028368322488,7.652637664157822,26433.085454222484,87.6,33.42655046450509
1306893661.54,2.9811293,5.5376035,437.86,-60.1,4.4,185.1,296225.31,-54448.14,-1.0,225.17407844924296,131284506.69370803,131284506.69370803,22.46000833255517,7.4899028507775345,27189.777864598258,89.0,33.4342440340589
1306893661.75,2.9810888,5.5371606,438.66,-60.1,4.3,184.3,296225.09,-54497.54,-1.0,231.86446528147255,129896734.39800377,129896734.39800377,23.73889499284683,7.766741771256088,26845.91800094252,90.7,33.44160842600991
1306893661.96,2.9810584,5.5367338,439.4,-60.1,4.3,183.4,296225.59,-54545.09,-1.0,223.07975073318678,131351039.50369671,131351039.50369671,22.028963869290926,7.837902673399219,27162.423335961226,90.5,33.448651295651196
1306893662.17,2.9810363,5.5363024,440.12,-60.1,4.3,182.6,296226.75,-54593.12,-1.0,225.43488373227777,135213202.50671792,135213202.50671792,21.17606185995846,7.48345672580516,26564.72205035178,91.3,33.45537264298278
1306893662.38,2.9810227,5.5358563,440.84,-60.1,4.3,181.7,296228.72,-54642.74,-1.0,233.14496278965208,134523063.6175141,134523063.6175141,22.18950483968368,7.292716501124201,26803.94504861145,92.80000000000001,33.46182605505628
1306893662.59,2.9810182,5.5354266,441.5,-60.1,4.3,180.8,296231.28,-54690.5,-1.0,224.44406635972132,135090661.49257103,135090661.49257103,22.622519918781755,7.321040135285374,26341.858308383835,91.50000000000001,33.46801918716476
1306893662.8,2.9810226,5.5349968,442.14,-60.1,4.3,179.9,296234.53,-54738.22,-1.0,224.47212822014455,134105129.10817978,134105129.10817978,22.035406419522758,7.055407721502089,26812.47855777656,92.50000000000001,33.47394438401515
1306893663.01,2.981036,5.5345566,442.78,-60.1,4.2,179.1,296238.59,-54787.05,-1.0,230.05482002396406,130193081.62463985,130193081.62463985,21.654596723727675,7.2958153891651705,26034.989590509438,90.80000000000001,33.47966288795216
1306893663.22,2.9810588,5.5341124,443.4,-60.1,4.2,178.1,296243.41,-54836.29,-1.0,232.34593800418858,131684945.48343176,131684945.48343176,23.331534176736234,7.208882111932944,26093.812830898445,88.60000000000001,33.48519000956196
1306893663.43,2.9810903,5.5336766,443.99,-60.1,4.2,177.3,296248.88,-54884.54,-1.0,228.0050205971575,133592356.47082809,133592356.47082809,23.346247275536196,7.349371711168411,25388.921041131558,86.40000000000002,33.49050278296528
1306893663.64,2.9811313,5.5332371,444.56,-60.1,4.2,176.4,296255.13,-54933.17,-1.0,230.2699195862451,131092309.45731896,131092309.45731896,24.905514787484616,7.461885802072214,25195.886324695857,88.20000000000002,33.495631829334485
1306893663.85,2.9811796,5.5328125,445.1,-60.1,4.3,175.5,296261.84,-54980.11,-1.0,222.61241196183377,136453309.08680066,136453309.08680066,24.333305157416028,7.539548274613302,25322.44745446073,89.00000000000003,33.50056183808339
1306893664.06,2.9812385,5.5323802,445.67,-59.7,5.8,174.4,296269.47,-55027.84,-1.0,227.01682692230804,132633141.07688668,132633141.07688668,25.176690048936855,7.555102365603551,24552.190958865678,88.60000000000001,33.5053617068498
1306893664.27,2.9813113,5.5319432,446.42,-58.5,8.4,172.9,296278.22,-55076.02,-1.0,230.07523459193015,127336794.14365871,127336794.14365871,26.566189569194417,7.913035832689893,25325.238884640017,87.0,33.51018454149547
1306893664.48,2.9814017,5.5315157,447.66,-56.7,12.3,170.6,296288.28,-55123.07,-1.0,226.111957270621,127053784.69140087,127053784.69140087,28.058099538046832,8.059521153152437,24866.31102851742,87.30000000000001,33.51540545138173
1306893664.69,2.981517,5.5310904,449.78,-55.1,16.3,167.9,296300.34,-55169.76,-1.0,226.8603543378954,121657653.83191156,121657653.83191156,28.256576474642888,7.900981160023327,25662.31963981721,87.10000000000001,33.5217440340589
1306893664.9,2.9816625,5.5306719,453.2,-53.7,20.0,164.5,296314.75,-55215.54,-1.0,226.24566679790544,117422090.52039889,117422090.52039889,29.441068058341948,8.059467142937667,26126.941713026452,86.2,33.53021078821463
1306893665.11,2.9818302,5.5302834,457.85,-52.8,22.6,161.2,296330.72,-55257.88,-1.0,213.87418683528247,115326684.74911936,115326684.74911936,29.291127912082626,7.953219091410693,26672.51932484135,86.10000000000001,33.54174731489879
1306893665.32,2.9820353,5.52989,464.26,-52.0,24.7,157.6,296349.69,-55300.59,-1.0,222.02567268132108,104831466.97546275,104831466.97546275,27.73514124856665,7.769087283713403,25975.558833694973,86.1,33.55771625628112
1306893665.53,2.9822538,5.5295327,471.69,-51.2,27.3,154.5,296369.47,-55339.22,-1.0,207.2275597606416,93085672.32347357,93085672.32347357,28.47758062347264,7.760574401522999,25983.33019489328,88.30000000000001,33.578921418135884
1306893665.74,2.9824933,5.5291923,480.39,-50.5,29.4,151.1,296390.81,-55375.87,-1.0,203.87267856569468,76994395.35520752,76994395.35520752,27.638556932517254,7.656437515321162,25537.337208756748,87.19999999999999,33.60635033327149
1306893665.95,2.9827492,5.5288706,490.22,-49.8,31.2,148.1,296413.34,-55410.36,-1.0,203.7057706809149,55188844.63630524,55188844.63630524,27.629775252804926,7.564916886209301,25258.986059028663,85.39999999999999,33.640891015686194
1306893666.16,2.9830257,5.5285611,501.37,-49.3,33.2,144.9,296437.41,-55443.39,-1.0,203.56219520161596,38404695.32945254,38404695.32945254,27.003547729906497,7.661109943036593,25288.61297801656,84.8,33.68353099818838
1306893666.37,2.9833084,5.5282767,513.28,-48.9,35.0,142.0,296461.81,-55473.62,-1.0,195.1348105822152,25658052.82594081,25658052.82594081,24.984528886487837,7.681017741158139,24412.811067526065,83.3,33.73471428777718
1306893666.58,2.9835974,5.5280139,525.94,-48.7,36.9,138.9,296486.56,-55501.41,-1.0,188.6367599043405,14525218.076040167,14525218.076040167,24.607413587877723,7.751266171233106,23963.829809820163,81.7,33.794639922072896
1306893666.79,2.9838989,5.5277646,539.64,-49.1,38.6,136.2,296512.22,-55527.64,-1.0,187.78735276328842,10508160.54239543,10508160.54239543,22.884432909857424,7.910546085887432,23696.86494166455,85.60000000000002,33.86343038576493
1306893667.0,2.9842019,5.5275369,553.84,-50.7,40.3,133.1,296537.84,-55551.46,-1.0,180.87368995565,9783579.862608688,9783579.862608688,22.662042533442747,7.9507134739643845,22929.69503787997,87.10000000000002,33.940473255406225
1306893667.21,2.9845244,5.5273165,569.38,-52.6,41.7,130.3,296564.97,-55574.37,-1.0,185.47833997646424,14488653.187107382,14488653.187107382,24.825094239812945,7.850259194575092,23052.841987448017,86.3,34.02585273922075
1306893667.42,2.9848333,5.5271255,584.57,-54.9,43.2,127.1,296590.81,-55594.08,-1.0,171.54432705746166,15327458.692658847,15327458.692658847,27.137503920805877,8.07248802746,23564.60386572167,86.9,34.11795357036686
1306893667.63,2.985147,5.5269496,600.24,-56.6,44.3,124.1,296616.94,-55612.1,-1.0,169.1006507052816,18743950.121688303,18743950.121688303,26.700245309315033,7.798049300995244,23951.82511484895,84.4,34.21636236301778
1306893667.84,2.9854697,5.5267867,616.57,-58.3,45.5,120.9,296643.69,-55628.63,-1.0,169.07702248234193,21581355.957236078,21581355.957236078,26.742575074296436,7.7775683550987145,23843.908113702833,83.6,34.32061214429512
1306893668.26,2.9861259,5.5265067,650.3,-61.8,47.4,114.5,296697.72,-55656.54,-1.0,165.64448279910795,23478968.7991785,23478968.7991785,25.477582160586273,7.5361650072884645,23842.45081056557,85.6,34.44315807605364
1306893668.68,2.9867715,5.5262932,683.99,-66.0,48.8,108.0,296750.47,-55677.12,-1.0,156.57733222272606,24414906.887598787,24414906.887598787,27.209014424340634,7.579857843841192,24435.918083791927,88.2,34.58295903843335
1306893669.1,2.9874312,5.5261342,718.73,-70.7,49.7,101.3,296803.97,-55691.57,-1.0,155.06297650657052,25825987.938913632,25825987.938913632,27.79200354306208,7.443867474411562,24820.528375070506,91.60000000000001,34.74023703493379
1306893669.52,2.9880792,5.526034,752.96,-75.0,50.1,94.5,296856.16,-55699.55,-1.0,148.78239254350277,25509509.28265584,25509509.28265584,26.22505373434152,7.4976332608110585,24999.166888581076,94.30000000000001,34.91402749862582
1306893669.94,2.9887297,5.5259883,787.31,-77.8,50.1,87.7,296908.16,-55701.46,-1.0,147.05784100322194,25096216.592664126,25096216.592664126,28.171483940964055,7.478551966370947,25182.537832257214,91.60000000000001,35.10362614254534
1306893670.36,2.9893572,5.5259963,820.54,-74.0,48.2,81.2,296957.97,-55697.53,-1.0,141.12890555629693,25668771.67132792,25668771.67132792,27.165272860688106,7.451634450924133,25845.010615594878,89.6,35.307792809212
1306893670.79,2.989992,5.5260506,854.66,-71.5,42.8,76.5,297008.06,-55688.4,-1.0,140.50806081900737,24701393.99445032,24701393.99445032,25.450965525389844,7.682911366475509,25898.115439107823,88.9,35.52618301043685
1306893671.21,2.9906082,5.5261345,887.92,-70.7,39.8,73.6,297056.44,-55676.09,-1.0,140.6077984145048,25350373.4965558,25350373.4965558,22.97162286916165,7.7090364321806115,25967.477679376934,88.7,35.75840632627237
1306893671.63,2.9912262,5.5262421,921.08,-68.5,38.6,71.1,297104.81,-55661.12,-1.0,141.7477357948246,25690295.9018629,25690295.9018629,24.318366085619854,7.818300584733117,26042.2882613132,88.4,36.00401874971944
1306893672.05,2.9918326,5.526369,953.46,-62.8,36.9,69.0,297152.16,-55644.08,-1.0,139.9918368050824,25114448.32800378,25114448.32800378,22.59056435845574,8.008644209097127,26698.35627535805,89.9,36.26191791857333
1306893672.47,2.9924537,5.5265168,986.4,-52.9,34.6,67.6,297200.5,-55624.64,-1.0,144.17940874896334,24256510.75796181,24256510.75796181,24.89883547921748,8.375567811429912,26930.768018133807,89.39999999999999,36.519212319273244
1306893672.89,2.9930649,5.5266744,1018.35,-43.2,32.8,66.7,297248.0,-55604.16,-1.0,142.09789562191264,22986928.92522658,22986928.92522658,23.630708052353608,8.197644855219634,26861.913893006487,89.7,36.77517469897578
1306893673.31,2.9936959,5.5268452,1050.55,-35.4,29.1,66.4,297296.97,-55582.11,-1.0,146.37179054162888,21628505.88602049,21628505.88602049,24.64567085642609,8.011540534123291,27161.44730185491,88.5,37.02919263423387
1306893673.73,2.9943202,5.527016,1080.6,-29.5,24.2,66.9,297345.44,-55560.09,-1.0,142.78391989061717,20329769.39572105,20329769.39572105,24.54769944228441,7.815754844045903,27864.015218864977,86.8,37.28001065698103
1306893674.15,2.9949758,5.5271917,1109.07,-26.4,21.0,67.6,297396.34,-55537.38,-1.0,146.19595237111736,19211426.740005158,19211426.740005158,24.77588812319612,7.84738734852294,27002.633096579102,86.4,37.52632736739223
1306893674.57,2.9956689,5.5273726,1135.62,-26.5,18.2,68.3,297450.19,-55513.91,-1.0,150.6175297967947,18398847.322107695,18398847.322107695,25.48214691939541,7.856979829365832,26793.881441869446,86.60000000000001,37.7675303420204
1306893674.99,2.9963822,5.5275535,1159.36,-28.0,15.6,69.0,297505.63,-55490.34,-1.0,151.26261907703537,17543138.63637245,17543138.63637245,25.893078398592763,7.828852835583811,26057.16342341317,87.0,38.00078712242285
1306893675.41,2.9971098,5.5277321,1180.14,-30.4,13.7,69.7,297562.22,-55466.96,-1.0,151.01722704986778,16978360.398421105,16978360.398421105,27.311866198653835,7.611599270021151,26051.45101959649,89.00000000000001,38.22449009705102
1306893675.83,2.9978636,5.527912,1198.59,-33.8,12.6,70.3,297620.91,-55443.3,-1.0,153.98548653222326,16620231.506452953,16620231.506452953,27.871808942129746,7.650902262256138,26225.9409445723,89.5,38.43693213554621
1306893676.25,2.9986307,5.5280915,1214.81,-37.3,11.8,70.6,297680.66,-55419.62,-1.0,154.85643455552272,16413101.092457,16413101.092457,28.164706778370707,7.506876357233385,25869.11199149282,89.30000000000001,38.6370032204106
1306893676.67,2.9994392,5.5282793,1229.73,-40.1,11.1,70.8,297743.59,-55394.82,-1.0,161.9338198598659,16662056.064786784,16662056.064786784,28.372828641163956,7.179852058602022,26281.383681372306,88.9,38.82327946712976
1306893677.09,3.0002459,5.5284672,1242.81,-42.2,10.4,70.7,297806.44,-55370.01,-1.0,160.86278315467695,17252503.56563226,17252503.56563226,29.50744263187937,7.498298998114365,25931.890159138977,86.60000000000001,38.99511017579118
1306893677.51,3.0010766,5.5286631,1254.72,-43.3,9.7,70.5,297871.09,-55344.2,-1.0,165.1228620566759,18196013.194188155,18196013.194188155,28.282938832619756,7.70447557345072,25810.345419669546,84.60000000000001,39.15140829477631
1306893677.93,3.0019105,5.5288635,1265.31,-43.3,8.9,70.2,297936.0,-55317.88,-1.0,165.61295474166837,19816282.26517198,19816282.26517198,28.303582131769684,7.9008358612752705,25182.584756607048,85.5,39.29280921341148
1306893678.35,3.0027756,5.5290758,1275.0,-42.8,8.0,69.9,298003.28,-55290.07,-1.0,171.78577581581942,21840958.62830956,21840958.62830956,28.068897164483378,7.896619387460033,25304.30853207906,84.8,39.419833491626704
1306893678.77,3.0036534,5.5292965,1283.6,-41.4,7.3,69.6,298071.56,-55261.27,-1.0,174.52022041044216,23822505.67861791,23822505.67861791,28.410217484830792,7.6406931589719,25526.428764600445,83.89999999999999,39.53311651874831
1306893679.19,3.004546,5.5295263,1291.18,-39.5,6.5,69.2,298140.91,-55231.39,-1.0,177.56538538126864,26090995.19300277,26090995.19300277,27.79268589029699,7.424962014727389,26181.550411897842,83.79999999999998,39.63402859223912
1306893679.61,3.0054466,5.5297639,1297.77,-37.2,5.9,68.8,298210.84,-55200.61,-1.0,179.43394709602254,28300271.15771831,28300271.15771831,28.762832907084114,7.7615961462913985,25870.30430846459,84.50000000000001,39.72407780483754
1306893680.25,3.006841,5.5301427,1306.1,-33.2,5.0,68.2,298319.06,-55151.71,-1.0,182.8242528617028,30420372.612658802,30420372.612658802,26.65705182248083,7.654664082174278,25284.019075714066,86.0,39.80637986083055
1306893680.67,3.0077888,5.5304077,1310.65,-30.4,4.5,67.8,298392.56,-55117.64,-1.0,189.97556208475592,32823022.175452787,32823022.175452787,27.456735746083034,7.772491719776294,25774.696763331085,84.7,39.87974818978943
1306893681.09,3.0087397,5.5306795,1314.46,-27.6,4.0,67.4,298466.28,-55082.81,-1.0,191.10445645885218,34659940.81795655,34659940.81795655,27.37910031147366,7.997882168825392,25529.77552056913,86.7,39.944611488127144
1306893681.51,3.0097141,5.5309637,1317.68,-24.7,3.6,67.0,298541.75,-55046.48,-1.0,196.3179970785028,37115637.22066893,37115637.22066893,26.729762169931668,7.8266079143219915,25577.594006652336,89.7,40.00192666747972
1306893681.94,3.0107151,5.5312613,1320.39,-21.8,3.2,66.7,298619.28,-55008.53,-1.0,197.56931950370165,39104614.07496455,39104614.07496455,26.269837914501846,7.705545886228688,25826.588982883808,90.50000000000001,40.05219897719101
1306893682.36,3.011705,5.5315607,1322.58,-19.2,3.0,66.4,298695.88,-54970.44,-1.0,200.46217358170728,41417978.42794968,41417978.42794968,28.317969502019267,7.463386871173692,25832.957609741545,88.99999999999999,40.09604084070806
1306893682.79,3.0127484,5.5318812,1324.45,-16.6,2.7,66.1,298776.59,-54929.73,-1.0,206.96319480602045,43766974.87431496,43766974.87431496,28.675454658417326,7.390714127349903,25774.039152789373,88.99999999999999,40.133896265030025
1306893683.21,3.013771,5.5321996,1325.94,-14.3,2.5,65.9,298855.69,-54889.36,-1.0,208.15647418984287,45996100.44169612,45996100.44169612,26.46730875481274,7.710357221582327,25124.099992998454,91.69999999999999,40.16630877596616
1306893683.63,3.014814,5.5325282,1327.16,-12.2,2.5,65.7,298936.31,-54847.76,-1.0,212.69179311586282,48477786.821169354,48477786.821169354,28.854234617116855,7.673364683961475,24658.44846964512,91.89999999999999,40.19385252049809
1306893684.05,3.0158829,5.5328684,1328.18,-12.3,2.5,65.5,299018.91,-54804.74,-1.0,218.41736092122883,50923913.58105603,50923913.58105603,27.13438715534402,7.480103457422302,24414.878460362263,89.4,40.2171322667798
1306893684.47,3.0169575,5.5332141,1329.04,-16.0,2.5,65.2,299101.94,-54761.09,-1.0,220.00645134004495,53010492.535960056,53010492.535960056,29.054393033434614,7.47187806960243,24893.056690915535,87.7,40.23469350912451
1306893684.89,3.0180289,5.5335635,1329.81,-20.9,2.5,64.9,299184.69,-54717.04,-1.0,219.84821322370112,55404444.5783477,55404444.5783477,28.612009516909865,7.612006036638021,24990.669370574244,90.0,40.24936105068182
1306893685.31,3.019143,5.5339333,1330.57,-25.7,2.5,64.5,299270.66,-54670.5,-1.0,229.38968156418534,58656529.424894586,58656529.424894586,27.00369361316593,7.633714734168886,24906.758479671123,86.3,40.261693727847174
1306893685.74,3.0202757,5.5343182,1331.37,-31.1,2.5,63.9,299358.03,-54622.2,-1.0,228.7770146662456,60926186.84817467,60926186.84817467,25.32044595511684,7.754701511671499,25161.56240075829,82.9,40.27217382408515
1306893686.16,3.0214177,5.5347172,1332.22,-36.1,2.5,63.3,299446.06,-54572.29,-1.0,237.52430195896227,64536342.67241091,64536342.67241091,25.424582808401972,7.882660299064121,25169.58145863071,81.8,40.281230035808676
1306893686.58,3.022562,5.5351304,1333.15,-40.2,2.5,62.5,299534.13,-54520.78,-1.0,239.4790458235185,67596994.9651001,67596994.9651001,22.81865925332643,7.960083022593984,25783.458940633147,82.20000000000002,40.28932168060308
1306893687.0,3.0237013,5.5355572,1334.16,-43.6,2.5,61.6,299621.72,-54467.79,-1.0,240.26698714013074,70081710.96515772,70081710.96515772,21.398201496796727,7.928363801974484,26134.001203115607,83.4,40.296754970191884
1306893687.42,3.0248642,5.5360105,1335.26,-46.3,2.5,60.7,299711.03,-54411.74,-1.0,247.54181327385228,73671469.35888408,73671469.35888408,22.620097503226383,7.9758313334025495,26212.408091487465,80.30000000000001,40.30388970335023
1306893687.84,3.0260278,5.5364831,1336.41,-48.2,2.5,59.7,299800.25,-54353.54,-1.0,250.0846506207117,76870511.24210843,76870511.24210843,21.755815661842433,7.955721731385476,26530.9471588963,80.10000000000001,40.31097084945697
1306893688.26,3.0271771,5.5369697,1337.54,-49.3,2.5,58.7,299888.22,-54293.86,-1.0,249.52093666614823,80028429.73163177,80028429.73163177,21.914330605426255,8.055506518450127,26498.321520542217,81.80000000000001,40.31813620378768
1306893688.68,3.0283391,5.5374819,1338.66,-49.9,2.4,57.7,299977.03,-54231.26,-1.0,255.08440277559006,84017484.36247607,84017484.36247607,20.912195438757838,8.061805270472824,25848.802710499815,81.30000000000001,40.32550059573869
1306893689.1,3.0295246,5.5380258,1339.76,-49.9,2.4,56.7,300067.5,-54165.03,-1.0,263.30195351746113,87021877.46789859,87021877.46789859,22.1716456348859,8.074950643269425,25160.509877631754,77.9,40.33311761236161
1306893689.52,3.0307131,5.5385934,1340.85,-49.7,2.4,55.7,300158.03,-54096.14,-1.0,267.17002091825003,88475782.409394,88475782.409394,21.818485293724663,7.96019831165861,25516.501421159075,81.5,40.34098725365645
1306893689.94,3.0318985,5.539182,1341.95,-49.0,2.4,54.7,300248.16,-54024.95,-1.0,269.7408392858422,90577937.53444019,90577937.53444019,24.392960495810243,7.662609514564587,25748.765056938362,82.0,40.34908655374394
1306893690.36,3.0330718,5.5397866,1343.07,-48.1,2.4,53.7,300337.25,-53952.02,-1.0,270.37805303758006,91373692.93561675,91373692.93561675,24.28863075668223,7.548753835930896,25335.19338485776,83.80000000000001,40.35739254674481
1306893690.78,3.0342583,5.5404198,1344.24,-47.0,2.1,52.8,300427.16,-53875.86,-1.0,276.77279456037957,92661184.8703908,92661184.8703908,24.3419591912977,7.732568025868764,24665.222712839346,83.80000000000001,40.365882266779806
1306893691.2,3.0354268,5.5410643,1345.43,-45.8,2.1,51.9,300515.56,-53798.53,-1.0,275.8408021727435,94836510.6399198,94836510.6399198,24.88900768094946,7.7084045161821395,24847.028991463536,85.8,40.3745097820904
1306893691.62,3.0366311,5.5417496,1346.7,-44.6,2.1,51.1,300606.53,-53716.49,-1.0,287.8416287529655,97482683.19045885,97482683.19045885,23.46930229899611,7.639008800732545,25218.529471383732,89.00000000000001,40.38326743738348
1306893692.04,3.0378061,5.5424382,1348.0,-43.4,2.1,50.3,300695.16,-53634.22,-1.0,284.0805105410303,98937239.14027426,98937239.14027426,23.59411050729706,7.648145975306643,25279.982301322023,91.0,40.39213992207289
1306893692.46,3.0390143,5.5431661,1349.38,-42.3,2.1,49.6,300786.16,-53547.42,-1.0,295.5637337087274,101355643.45511189,101355643.45511189,24.741588176194675,7.509906950438278,25344.00897843978,90.60000000000001,40.401203789089514
1306893692.88,3.0402017,5.5439005,1350.79,-41.2,2.1,48.9,300875.44,-53460.01,-1.0,293.6113787824799,102543423.05691552,102543423.05691552,25.175110115647158,7.6653605515311245,25968.735861059533,93.7,40.410489659605695
1306893693.3,3.0413761,5.544645,1352.24,-40.1,1.7,48.2,300963.63,-53371.54,-1.0,293.5299668208029,104135031.05487524,104135031.05487524,23.478002617665084,7.53650150069998,26237.140392408488,95.20000000000002,40.420043465379976
1306893693.73,3.0425999,5.5454392,1353.8,-39.1,1.7,47.6,301055.38,-53277.3,-1.0,301.96916769860627,107147090.86951785,107147090.86951785,24.12043452599953,7.498834137563905,26170.505037524777,91.60000000000001,40.42995706992941
1306893694.15,3.0438187,5.5462484,1355.41,-38.1,1.7,47.0,301146.63,-53181.41,-1.0,311.2447292624155,110098580.81814547,110098580.81814547,23.052572924095227,7.821500366011056,26188.26924759196,92.80000000000001,40.44026109442635
1306893694.57,3.0450091,5.547056,1357.04,-37.0,1.7,46.4,301235.63,-53085.84,-1.0,307.00641337658783,113191450.37493646,113191450.37493646,23.61751187381073,7.783223713372127,25777.881644197987,92.30000000000001,40.450955538870794
1306893694.99,3.0461938,5.547876,1358.72,-36.0,1.7,45.9,301324.09,-52988.92,-1.0,308.48807301202555,117693628.30043687,117693628.30043687,23.28153149069439,7.475854928142291,25758.290080762352,91.7,40.46204040326275
1306893695.41,3.0473837,5.5487157,1360.47,-34.9,1.7,45.3,301412.84,-52889.79,-1.0,312.8459589238215,121944977.27322479,121944977.27322479,22.126315518242098,7.476436301772836,25797.97895016923,89.30000000000001,40.47355396406765
1306893695.83,3.0485928,5.5495849,1362.31,-33.8,1.7,44.8,301502.91,-52787.29,-1.0,320.92687937807125,125458742.31669122,125458742.31669122,22.92633447219339,7.219689177659267,25509.276113461932,86.10000000000002,40.485503876578576
1306893696.25,3.0497753,5.5504501,1364.17,-32.8,1.7,44.3,301590.88,-52685.35,-1.0,316.62957402652364,131131850.06362483,131131850.06362483,21.057244076138794,7.321568137343091,25785.38612392561,86.90000000000002,40.49788248550246
1306893696.68,3.0510162,5.5513737,1366.19,-31.6,1.5,43.9,301683.09,-52576.64,-1.0,327.5419252798574,136404475.14621857,136404475.14621857,19.290324911016032,7.173839196550242,26134.510101944776,87.10000000000001,40.510751033184
1306893697.1,3.0521989,5.5522684,1368.18,-30.6,1.5,43.4,301770.88,-52471.43,-1.0,322.27693418576575,140174094.87148324,140174094.87148324,18.73285708594537,7.312007973347729,25533.529258725124,85.90000000000002,40.52406358786467
1306893697.52,3.0533971,5.5531888,1370.27,-29.5,1.5,43.0,301859.72,-52363.29,-1.0,329.2403629142165,145994414.51669395,145994414.51669395,18.659995361986088,7.4583835119611095,25330.439278849837,87.0,40.53786608130299
1306893697.94,3.0545742,5.5541062,1372.38,-28.4,1.5,42.6,301946.88,-52255.57,-1.0,325.9322506425393,151405872.00883114,151405872.00883114,18.72639977339677,7.418235996433078,25221.34496568584,86.8,40.55208961586117
1306893698.36,3.0557501,5.5550353,1374.57,-27.5,1.5,42.2,302033.88,-52146.57,-1.0,328.0664275048534,156648898.4333009,156648898.4333009,17.30755095176492,7.262494872925079,25052.5198135118,86.7,40.56675715741847
1306893698.79,3.0569897,5.556028,1376.94,-26.5,1.5,41.9,302125.47,-52030.18,-1.0,340.44067617737363,163023833.10502997,163023833.10502997,17.098309620541265,7.3033880300655065,25276.7456080656,88.4,40.58199119066432
1306893699.21,3.0581689,5.5569847,1379.27,-25.6,1.5,41.5,302212.53,-51918.09,-1.0,333.92902117763725,167882416.2741621,167882416.2741621,18.06435182114676,7.432674347814567,25653.836265359078,90.70000000000002,40.5977228179609
1306893699.63,3.0593527,5.5579567,1381.69,-24.7,1.5,41.2,302299.84,-51804.27,-1.0,337.5518637427447,173412740.91284227,173412740.91284227,19.094681301282936,7.215019086488984,25367.503523161784,90.2,40.61396734989441
1306893700.05,3.0605186,5.5589252,1384.13,-23.9,1.5,40.9,302385.78,-51690.94,-1.0,334.64336045540614,177769228.52001584,177769228.52001584,19.598426728313115,7.418555266207137,25013.457607217013,91.50000000000001,40.63067119941322
1306893700.47,3.0617145,5.5599296,1386.72,-23.1,1.5,40.6,302473.81,-51573.45,-1.0,345.54836322526893,183215016.16577914,183215016.16577914,21.30070617376163,7.2822032461289385,24884.00117326376,89.10000000000001,40.64793388532748
1306893700.89,3.062887,5.5609251,1389.33,-22.4,1.5,40.3,302560.06,-51457.09,-1.0,340.85657483723526,187656525.1864122,187656525.1864122,20.99695060514636,7.6480750655695715,24945.820663653176,86.4,40.665648233533965
1306893701.31,3.0640811,5.5619493,1392.06,-21.7,1.8,40.0,302647.81,-51337.41,-1.0,349.33898166621356,194418245.9864473,194418245.9864473,19.891842584829188,7.5130988619945045,25275.901958332182,87.4,40.68392907342898
1306893701.73,3.0652547,5.562966,1394.83,-21.1,1.8,39.8,302734.0,-51218.67,-1.0,345.3409749496912,198094406.23963618,198094406.23963618,21.92363543508098,7.462300913462179,25250.529198434248,88.39999999999999,40.70273047325399
1306893702.15,3.066433,5.5639967,1397.68,-20.4,1.8,39.5,302820.47,-51098.36,-1.0,348.7616567555547,203454994.61456597,203454994.61456597,22.90625361066044,7.5206738836685165,24564.53183186889,90.49999999999999,40.722098364767554
1306893702.57,3.0676077,5.5650336,1400.6,-19.9,1.8,39.3,302906.59,-50977.37,-1.0,349.59419897413994,209149462.78600022,209149462.78600022,23.776452525750177,7.517267965737689,24285.798142719457,90.3,40.74202509267656
1306893703.0,3.0688123,5.5661067,1403.68,-19.3,1.8,39.0,302994.84,-50852.21,-1.0,352.1485440579661,213853511.26522765,213853511.26522765,23.48706247939206,7.60156380428341,24280.81322525682,90.5,40.76249534639485
1306893703.42,3.0699797,5.5671556,1406.74,-18.8,1.8,38.8,303080.28,-50729.92,-1.0,351.1916803082104,219851182.2900653,219851182.2900653,23.12832913505151,7.592677036785076,24018.19000160964,89.3,40.783524436508586
1306893703.84,3.0711741,5.568238,1409.96,-18.3,1.8,38.6,303167.66,-50603.78,-1.0,361.35808061555326,225742331.42354786,225742331.42354786,22.45976770497502,7.697450722746254,24609.319067244305,89.5,40.805165950069394
1306893704.26,3.0723425,5.5693054,1413.19,-17.8,1.9,38.3,303253.03,-50479.43,-1.0,355.1320736872877,230125227.42669663,230125227.42669663,21.341699901648973,7.829477341136057,24837.014945616687,89.8,40.82741223178418
1306893704.68,3.0734961,5.5703676,1416.46,-17.3,1.9,38.1,303337.28,-50355.73,-1.0,352.35012512843525,234761836.3582249,234761836.3582249,21.899890144779132,7.963637470888978,24969.14063789042,91.1,40.85017907342897
1306893705.1,3.0746795,5.5714655,1419.9,-16.9,1.9,37.9,303423.66,-50227.91,-1.0,363.3196438485566,240901064.14534584,240901064.14534584,21.874376846645305,7.88491932045531,24945.697570358017,94.39999999999999,40.873581304400105
1306893705.52,3.0758593,5.5725684,1423.41,-16.4,1.9,37.7,303509.72,-50099.55,-1.0,363.9623547757184,244019800.4368652,244019800.4368652,22.203054473760375,7.832654611503504,25149.300560087606,94.4,40.89758064823213
1306893705.94,3.0770105,5.5736523,1426.93,-16.0,1.9,37.5,303593.59,-49973.45,-1.0,356.5924582333126,249661501.25287318,249661501.25287318,22.70755707153745,7.715977812527505,25669.592681282207,91.00000000000001,40.92215413904578
1306893706.36,3.0781804,5.5747615,1430.58,-15.6,1.9,37.4,303678.81,-49844.44,-1.0,364.1473515978881,255945738.36168438,255945738.36168438,22.990984205113335,7.761790976520205,26121.276034634597,92.60000000000001,40.9473400533065
1306893706.78,3.0793747,5.5759017,1434.41,-15.2,1.9,37.2,303765.75,-49711.87,-1.0,373.4849580490022,258974534.4308201,258974534.4308201,21.835628070304868,7.764519115950912,26254.556639017224,90.9,40.973222599238255
1306893707.2,3.0805211,5.5770034,1438.17,-14.8,1.9,37.0,303849.13,-49583.81,-1.0,359.85780002403715,262309648.86235857,262309648.86235857,21.50148891233361,7.689841593452069,26087.950413844326,89.0,40.999625705100016
1306893707.62,3.0816862,5.5781303,1442.08,-14.5,1.9,36.8,303933.81,-49452.84,-1.0,367.36028941867085,269869738.4440229,269869738.4440229,21.00453367805126,7.878866714914665,26092.172489060078,89.3,41.026679510874295
1306893708.04,3.0828619,5.5792747,1446.11,-14.1,1.9,36.7,304019.22,-49319.9,-1.0,372.24872589676943,272724929.4940499,272724929.4940499,21.603476596526775,7.909333572700847,25447.144722637957,92.30000000000001,41.05435339538873
1306893708.46,3.084023,5.5804118,1450.19,-13.8,1.9,36.5,304103.53,-49187.82,-1.0,369.114921649766,276687570.27855265,276687570.27855265,21.360432712808617,7.881286225961275,25655.436942763044,93.6,41.08267797981568
1306893708.88,3.0851947,5.5815662,1454.4,-13.5,1.9,36.5,304188.53,-49053.78,-1.0,373.9394671011435,284148449.4288109,284148449.4288109,18.970525384855343,7.936942020984887,25405.565244692523,92.20000000000002,41.11172216179293
1306893709.3,3.0863519,5.582713,1458.65,-13.2,1.9,36.2,304272.47,-48920.65,-1.0,370.76231355478455,287443992.9303752,287443992.9303752,19.71793650729264,7.726415049530836,25009.045430126494,90.00000000000001,41.141386422510344
1306893709.73,3.0875446,5.5839018,1463.12,-12.9,1.9,36.2,304358.91,-48782.67,-1.0,374.6960414415629,290858548.04866767,290858548.04866767,20.892679022632784,7.795594798353671,24473.427726169764,88.9,41.171785591364234
1306893710.15,3.0887146,5.5850745,1467.61,-12.7,1.9,35.9,304443.63,-48646.59,-1.0,377.7113216253516,296993096.009517,296993096.009517,19.3837986624238,7.682566368074632,24643.502028666226,88.80000000000001,41.202927323647685
1306893710.57,3.0898951,5.5862643,1472.23,-12.4,1.9,35.9,304529.09,-48508.57,-1.0,382.5711023318359,301138926.8357194,301138926.8357194,19.19652494935453,7.491400367018611,24370.660546748775,87.60000000000001,41.23481161936073
1306893710.99,3.091039,5.5874234,1476.81,-12.1,1.9,35.6,304611.84,-48374.13,-1.0,371.9291955478315,303909862.56318325,303909862.56318325,20.915808595945958,7.450310171510856,23946.98914800229,89.60000000000001,41.26727006205539
1306893711.41,3.0922073,5.5886134,1481.58,-11.9,1.9,35.5,304696.31,-48236.14,-1.0,381.28357989515234,311233504.8018,311233504.8018,23.675454552930614,7.540515468721329,24408.146435981354,91.60000000000001,41.30050168935198
1306893711.83,3.0933779,5.5898118,1486.46,-11.6,1.9,35.5,304780.91,-48097.2,-1.0,383.381806652676,315047794.5458344,315047794.5458344,25.462732177582637,7.2931012344072075,24669.43738978125,92.20000000000002,41.334475880078145
1306893712.25,3.0945369,5.5910042,1491.39,-11.4,1.9,35.2,304864.63,-47958.98,-1.0,380.8328603404993,319279916.9911055,319279916.9911055,24.575382445434034,7.164181069028724,24892.761868490616,90.6,41.369139047182266
1306893712.67,3.0956898,5.5921962,1496.39,-11.2,1.9,35.1,304947.84,-47820.84,-1.0,380.04682429873026,325505235.0726135,325505235.0726135,25.69312661351726,7.00468459095006,24702.45925067732,87.5,41.4045065012505
1306893713.09,3.0968532,5.5934049,1501.54,-11.0,1.9,35.0,305031.78,-47680.79,-1.0,384.84855407614634,329277735.4944405,329277735.4944405,27.287982424611535,6.827367970040308,24280.794543729397,89.3,41.44059355286905
1306893713.51,3.0980272,5.5946302,1506.84,-10.7,1.9,35.0,305116.44,-47538.84,-1.0,389.61919746884104,332676709.0633113,332676709.0633113,27.18507917760939,7.009857574692481,24843.311165928575,90.50000000000001,41.47748441026187
1306893713.93,3.0991703,5.5958288,1512.1,-10.5,1.9,35.0,305198.84,-47400.02,-1.0,380.4645001240983,336753533.0926765,336753533.0926765,26.589584876850502,7.106568271613259,25199.007456974607,89.39999999999999,41.514980035808684
1306893714.35,3.1003377,5.5970583,1517.58,-10.3,1.9,34.6,305282.94,-47257.62,-1.0,389.87312626116733,341442722.7964547,341442722.7964547,25.444914436685224,7.240924077440319,24455.7486922979,92.39999999999999,41.55323353537124
1306893714.77,3.1015018,5.5982899,1523.14,-10.1,2.5,34.5,305366.75,-47115.02,-1.0,389.9385355848101,343234547.0322462,343234547.0322462,23.34922713528539,7.516175632637386,24603.839490881393,91.2,41.59220663248409
1306893715.19,3.1026407,5.5994998,1528.69,-9.9,2.5,34.4,305448.72,-46974.95,-1.0,382.5292034224449,348248679.622936,348248679.622936,22.64393714469593,7.570430979476221,25314.032593280284,90.60000000000001,41.63192229302652
1306893715.61,3.1038176,5.6007554,1534.53,-9.7,2.5,34.3,305533.38,-46829.61,-1.0,396.6096987274315,353752108.50071067,353752108.50071067,21.060944478657635,7.5431584213231435,24833.313613679973,87.10000000000001,41.67245706992941
1306893716.03,3.104972,5.6019921,1540.37,-9.5,2.6,34.2,305616.38,-46686.48,-1.0,390.07772333027617,355339618.3970117,355339618.3970117,22.028337381557034,7.720907985538825,24771.55279250744,88.1,41.713726754968775
1306893716.45,3.1061149,5.6032215,1546.25,-9.3,2.6,34.1,305698.5,-46544.23,-1.0,387.2196951937796,359451669.46159804,359451669.46159804,24.08867777573135,7.941810584207998,25154.289419722092,86.19999999999999,41.75572369285155
1306893716.87,3.1072683,5.604467,1552.3,-9.3,2.6,34.0,305781.38,-46400.13,-1.0,391.9511272816208,365159170.97636354,365159170.97636354,24.304672352325394,7.892386579602813,25766.32540434047,87.5,41.798524436508586
1306893717.29,3.1084267,5.6057228,1558.48,-9.0,2.6,33.9,305864.53,-46254.86,-1.0,394.69622233755496,367148304.960543,367148304.960543,22.88705457726945,8.195751633381418,26170.92095922095,87.9,41.84211367535373
1306893717.71,3.109582,5.6069799,1564.76,-8.8,2.6,33.8,305947.44,-46109.45,-1.0,394.71081633034004,369700951.4032,369700951.4032,24.62936251697125,7.973120294012344,26204.344694363263,86.9,41.88645313292153
1306893718.13,3.1107423,5.6082472,1571.18,-8.6,2.6,33.7,306030.69,-45962.89,-1.0,397.50131631462784,374921420.0203579,374921420.0203579,26.40553408348459,7.727347496708202,25955.656630601516,86.1,41.93168060448759
1306893718.55,3.1119049,5.6095217,1577.72,-8.6,2.6,33.6,306114.06,-45815.52,-1.0,399.3295743007843,375999830.2477264,375999830.2477264,27.797680499982,7.845840550168479,26248.397054393674,82.80000000000001,41.97771953712101
1306893718.97,3.1130451,5.6107761,1584.25,-8.3,2.8,33.6,306195.78,-45670.49,-1.0,392.5503069737191,378536521.8959802,378536521.8959802,28.949971864682595,7.698311166281733,26550.681331849442,81.6,42.024501033184
1306893719.39,3.1142152,5.6120678,1591.06,-8.1,2.8,33.6,306279.59,-45521.16,-1.0,403.93054754897935,385018786.6582887,385018786.6582887,29.767156641567837,7.620924329185878,25871.033552118017,80.39999999999999,42.07224709617613
1306893719.81,3.1153684,5.6133453,1597.89,-8.0,2.8,33.6,306362.19,-45373.51,-1.0,399.03867471960893,387106196.1386009,387106196.1386009,29.444865571030764,7.442806761962553,26559.870115126043,84.2,42.12075103318401
1306893720.23,3.116513,5.6146174,1604.79,-7.8,2.9,33.6,306444.13,-45226.48,-1.0,396.991787824184,392474695.5944698,392474695.5944698,27.9994017965269,7.506753566474488,26066.808503249333,82.4,42.170066431259244
1306893720.65,3.1176627,5.6158995,1611.83,-7.7,2.9,33.2,306526.38,-45078.32,-1.0,399.71308601031336,398459327.3048462,398459327.3048462,27.872411394856382,7.477164290481476,25586.148956848734,83.80000000000001,42.22026984333274
1306893721.07,3.118812,5.6171852,1618.99,-7.7,2.9,33.1,306608.59,-44929.75,-1.0,400.5321177363723,401137170.7126596,401137170.7126596,28.092755325243676,7.664279938830619,25616.76789281657,84.9,42.271322992939034
1306893721.49,3.1199748,5.6184901,1626.35,-7.4,3.0,33.1,306691.72,-44779.0,-1.0,406.1494783880219,403937556.4181851,403937556.4181851,28.728259928990486,7.454611945771397,25914.678003571753,83.80000000000001,42.32327946712976
1306893721.91,3.121129,5.6197894,1633.78,-7.3,3.0,33.1,306774.22,-44628.91,-1.0,404.05849946012177,406641683.0328473,406641683.0328473,28.18267296479535,7.725263888776058,25879.617503098325,83.10000000000001,42.37611630002565
1306893722.33,3.1222636,5.6210705,1641.2,-7.2,3.0,33.1,306855.28,-44480.92,-1.0,398.03057600997977,408154658.2949245,408154658.2949245,25.538539753180018,7.926327999445473,26117.048247786144,83.80000000000001,42.42971866223038
1306893722.75,3.1234117,5.6223707,1648.83,-7.1,3.1,32.8,306937.25,-44330.75,-1.0,403.640534334227,411060506.5543342,411060506.5543342,25.30936443897563,7.759804197862761,26122.752769115985,86.30000000000001,42.48415545138173
1306893723.17,3.1245785,5.6236961,1656.72,-7.1,3.1,32.8,307020.56,-44177.69,-1.0,411.2293509316327,414544253.8015573,414544253.8015573,24.961245532097852,7.793846518261348,25783.797369906137,89.2,42.539633360393104
1306893723.59,3.1257287,5.6250063,1664.61,-7.1,3.1,32.8,307102.63,-44026.4,-1.0,406.1223000495218,415922152.7565456,415922152.7565456,23.294780159198854,7.88912839691183,25831.17318594126,90.5,42.59593804105802
1306893724.01,3.126873,5.6263135,1672.6,-6.7,3.2,32.8,307184.25,-43875.46,-1.0,404.8913585768187,420178930.39992607,420178930.39992607,24.698192680037785,8.19279855846332,25304.08174338221,87.7,42.653130735721184
1306893724.43,3.1280253,5.6276335,1680.76,-6.6,3.2,32.5,307266.44,-43723.06,-1.0,408.6097951478736,423078464.39406246,423078464.39406246,24.154739985655997,8.201606293304758,25287.30813342125,87.10000000000001,42.71128799731349
1306893724.85,3.129169,5.6289473,1688.99,-6.5,3.2,32.5,307347.97,-43571.4,-1.0,406.32420509649046,425166206.83060825,425166206.83060825,23.077512607322706,8.137992578475256,25724.29203613173,88.4,42.7703562387833
1306893725.27,3.1303179,5.6302707,1697.39,-6.4,3.3,32.5,307429.81,-43418.65,-1.0,408.9761577044603,429999248.005297,429999248.005297,22.829710870313413,7.971188452274543,25330.051977677882,86.6,42.83037373659607
1306893725.69,3.1314748,5.6316066,1705.98,-6.3,3.3,32.3,307512.22,-43264.45,-1.0,412.6781556022808,432867881.09566134,432867881.09566134,24.3129454157063,8.08021977887795,24767.912793617517,86.1,42.891332835458726
1306893726.11,3.1326095,5.6329204,1714.53,-6.3,3.3,32.3,307593.03,-43112.84,-1.0,405.44852320365095,434450242.0081771,434450242.0081771,23.23938826102674,7.803282688627206,24907.50632954357,86.6,42.95314932714726
1306893727.37,3.1360639,5.63694,1741.36,-6.3,3.3,32.3,307838.84,-42649.02,-1.0,413.0453691491439,438729673.24940443,438729673.24940443,23.267147702700218,7.571093222311508,25007.32563975099,85.8,43.02982474272031
1306893727.79,3.1372113,5.6382815,1750.54,-6.3,3.3,32.0,307920.44,-42494.25,-1.0,413.043839809314,441439201.7677341,441439201.7677341,22.999155170240506,7.571255795385317,24766.12010455703,86.4,43.10768672872206
1306893728.22,3.1383747,5.6396451,1759.99,-6.3,3.3,32.0,308003.13,-42336.93,-1.0,409.79520690398766,443566602.3554349,443566602.3554349,21.878398902175835,7.413412170345527,24727.57096994072,84.10000000000001,43.1867429404456
1306893728.64,3.1395325,5.6410053,1769.53,-6.3,3.6,32.0,308085.41,-42180.04,-1.0,418.3033080161175,448803764.1191916,448803764.1191916,24.434418398389226,7.277904959909784,25376.988282798036,84.50000000000001,43.267062275528716
1306893729.49,3.1418583,5.6437468,1789.13,-6.3,3.6,32.0,308250.63,-41863.83,-1.0,416.2558977157986,451827497.03429043,451827497.03429043,22.945691309405074,7.301850880758234,25443.919688883547,86.70000000000002,43.35626940588742
1306893729.91,3.1429909,5.6450863,1798.88,-6.3,3.6,31.7,308331.03,-41709.36,-1.0,411.16218038317515,453862927.70521605,453862927.70521605,24.34944129456813,7.048408267447187,26323.254186567938,87.80000000000001,43.44669372784717
1306893730.33,3.144156,5.6464671,1809.06,-6.3,3.6,31.7,308413.72,-41550.13,-1.0,423.77088361296626,457255302.1701217,457255302.1701217,24.090935459770442,7.136354799478621,25690.448191240353,85.2,43.53861083195915
1306893730.75,3.1452827,5.6478052,1819.04,-6.3,3.8,31.6,308493.66,-41395.82,-1.0,410.3519925046088,457060692.9453068,457060692.9453068,23.24743302116603,7.312870243601918,25639.695190602582,86.10000000000001,43.6317374723791
1306893731.17,3.146442,5.6491848,1829.46,-6.3,3.8,31.6,308575.91,-41236.75,-1.0,422.98483379085417,460258713.2302168,460258713.2302168,23.51623004536483,7.347885805258507,25977.488389175443,86.80000000000001,43.726265031434224
1306893731.59,3.1475765,5.6505377,1839.8,-4.9,3.8,31.5,308656.34,-41080.77,-1.0,414.4634204162582,462907986.78145784,462907986.78145784,25.0206018983737,7.418402686945839,25466.727847246726,87.50000000000001,43.82216288795216
1306893732.01,3.14873,5.6519158,1850.46,-4.8,3.8,31.5,308738.13,-40921.89,-1.0,422.1161318555121,465533961.9453783,465533961.9453783,26.193610872752547,7.656134100769783,25062.07102933296,87.30000000000001,43.90568213554621
1306893732.43,3.1498669,5.6532768,1861.11,-4.8,3.8,31.4,308818.69,-40765.0,-1.0,416.57199239881766,468140970.95375896,468140970.95375896,27.489071102792987,7.747233911380874,25033.04414030736,87.70000000000002,43.99032671122425
1306893732.85,3.1510282,5.6546696,1872.14,-4.8,4.0,31.4,308900.97,-40604.45,-1.0,426.23238016455986,471735145.3512081,471735145.3512081,28.159717983970545,8.010257184505942,25044.21884703135,87.9,44.07618082321025
1306893733.27,3.1521756,5.6560484,1883.2,-4.8,4.0,31.3,308982.25,-40445.51,-1.0,421.74804281069726,471833653.7354673,471833653.7354673,27.36663053654885,8.215119827376514,24284.055516616405,87.40000000000002,44.163198539745686
1306893733.69,3.1533039,5.6574066,1894.22,-4.5,4.0,31.3,309062.13,-40288.96,-1.0,415.17111306283624,474825847.7567304,474825847.7567304,29.539597893109097,7.854212340177479,24825.053362959865,88.00000000000001,44.243648014811306
1306893734.11,3.1544483,5.6587867,1905.55,-4.4,4.0,31.3,309143.16,-40129.89,-1.0,421.79399018632324,479137413.70436615,479137413.70436615,28.140313684167925,8.133770705219069,24784.080827928257,88.0,44.32530702618489
1306893734.53,3.1556062,5.6601856,1917.17,-4.4,4.0,31.3,309225.09,-39968.68,-1.0,427.3397123670413,479656798.2490746,479656798.2490746,28.520656316266557,8.11147694315463,24909.92065367359,91.4,44.40806839976318
1306893735.37,3.1578725,5.6629306,1940.39,-4.4,4.3,31.3,309385.44,-39652.35,-1.0,419.0000022640908,482694115.39649135,482694115.39649135,28.806344635190154,8.103553864830458,25374.7796743468,90.0,44.50096538139048
1306893735.79,3.1590272,5.6643328,1952.46,-4.1,4.3,31.3,309467.09,-39490.78,-1.0,427.87258865965134,483717653.3534296,483717653.3534296,28.56085986304573,7.866601502449965,24917.758519949788,88.09999999999998,44.595125486377356
1306893736.21,3.16016,5.6657106,1964.45,-5.0,4.4,31.0,309547.19,-39332.03,-1.0,420.2202297412281,482247631.5000365,482247631.5000365,27.7847935263413,7.799299821304427,24981.953401126942,87.49999999999999,44.69054871472382
1306893736.63,3.1613114,5.6671138,1976.81,-8.9,4.4,31.0,309628.56,-39170.35,-1.0,427.8533586087647,481711913.8445908,481711913.8445908,26.97497564424187,7.80692716960699,25312.037440655164,87.7,44.787273342895304
1306893737.05,3.1624499,5.6685066,1989.2,-14.0,4.4,31.0,309709.0,-39009.9,-1.0,424.25633892249186,483202662.95690805,483202662.95690805,24.83662058305901,7.5891320368823685,25626.85631136257,86.80000000000001,44.88532999206415
1306893737.47,3.1636037,5.6699263,2001.94,-19.3,4.4,30.7,309790.44,-38846.38,-1.0,431.8987483886321,484034187.8585627,484034187.8585627,25.15500432673914,7.542159101667445,26102.8508332975,87.30000000000001,44.98469569635111
1306893737.89,3.164722,5.6713136,2014.49,-24.8,4.6,30.5,309869.28,-38686.64,-1.0,430.19045514434373,486500880.3125778,486500880.3125778,25.515961131784945,7.543934122901339,26869.981666022562,86.2,45.08520203930824
1306893738.31,3.1658458,5.6727229,2027.31,-30.3,4.6,30.2,309948.44,-38524.43,-1.0,435.82521829735754,493877833.9945546,493877833.9945546,23.251726089021865,7.804424743919579,26416.151201097633,83.5,45.18708633502128
1306893738.73,3.1669513,5.6741282,2040.15,-35.9,4.7,29.8,310026.13,-38362.75,-1.0,433.1577702848408,499297178.53825676,499297178.53825676,23.307519514542548,7.585245614572067,25893.49214017272,82.5,45.290126579990655
1306893739.15,3.1680622,5.6755643,2053.29,-41.4,4.7,29.3,310104.03,-38197.62,-1.0,440.80151615152926,506630527.88483083,506630527.88483083,23.651868068040883,7.54447530638136,25958.39668992254,82.7,45.394330429509466
1306893739.57,3.169136,5.6769814,2066.26,-46.8,4.7,28.8,310179.13,-38034.78,-1.0,433.0097938902107,514978630.47972804,514978630.47972804,23.09595473600771,7.237286365703584,25024.114018345874,84.2,45.490687603612706
1306893739.99,3.1702106,5.6784354,2079.54,-51.0,4.9,28.2,310254.03,-37867.85,-1.0,441.6783682100765,522462636.89688396,522462636.89688396,21.3008660989895,7.207279106881282,25299.049171120245,84.5,45.58797106817963
1306893740.41,3.1712511,5.6798853,2092.76,-53.4,5.0,27.5,310326.25,-37701.54,-1.0,437.7169341500819,528187568.00124663,528187568.00124663,21.273719665219687,7.539735551190424,25586.52442437617,83.39999999999999,45.68619613379643
1306893740.83,3.1722682,5.6813505,2106.1,-55.3,5.0,26.7,310396.5,-37533.64,-1.0,439.33813415030323,534221456.0387689,534221456.0387689,23.2184393470718,7.4169962863701775,25480.94925761439,83.1,45.78517141813589
1306893741.25,3.1732508,5.6828193,2119.47,-56.8,5.0,25.8,310464.0,-37365.52,-1.0,437.3070600589619,541627670.8052268,541627670.8052268,25.636738835286373,7.367905668244063,24967.581063842474,81.4,45.884896921198
1306893741.67,3.1741961,5.6842904,2132.85,-57.8,5.0,24.9,310528.5,-37197.34,-1.0,434.79192747398093,547707188.8228098,547707188.8228098,26.48438240415421,7.16481220823599,24385.447393703293,82.9,45.98511236301778
1306893742.09,3.1751065,5.6857697,2146.33,-58.4,5.3,24.0,310590.19,-37028.41,-1.0,434.0889305229153,557330509.3347338,557330509.3347338,25.653899823495472,7.207404870567096,23995.17039664374,86.20000000000002,46.086039747094766
1306893742.51,3.1759736,5.6872459,2159.79,-59.0,5.3,23.0,310648.47,-36860.05,-1.0,430.04364395105466,566114997.3168659,566114997.3168659,27.234704884151686,7.061475142648479,23635.224292440344,85.60000000000002,46.18745706992941
1306893742.93,3.1767988,5.6887213,2173.28,-59.3,5.3,22.1,310703.41,-36691.98,-1.0,426.8113048589432,574470809.9927015,574470809.9927015,27.436182995214097,7.059309471107026,23338.79835997936,86.3,46.2893719868148
1306893743.35,3.1775903,5.6902131,2186.96,-59.6,5.3,21.0,310755.56,-36522.27,-1.0,428.4963250797688,580268414.3147014,580268414.3147014,26.262974761381592,6.900200234522556,23096.08664704567,84.0,46.39170028952696
1306893743.77,3.1783308,5.6916885,2200.54,-59.8,5.5,20.0,310803.81,-36354.63,-1.0,421.06674857816336,584890188.9326471,584890188.9326471,27.519950315161296,7.225583024039569,23603.99388371174,82.4,46.49449556511752
1306893744.19,3.1790308,5.6931682,2214.21,-59.8,5.5,19.0,310848.78,-36186.72,-1.0,419.55230333512804,587214783.6724291,587214783.6724291,28.6378767719681,7.387982654460924,23125.75745164972,83.4,46.59758939713851
1306893744.61,3.179693,5.6946586,2228.05,-59.8,5.5,17.9,310890.72,-36017.82,-1.0,419.99748607003175,588425579.4391115,588425579.4391115,29.210378482541046,7.036018916443311,23121.812927513864,84.0,46.70115785733099
1306893745.03,3.1803145,5.6961554,2242.01,-59.8,5.7,16.9,310929.34,-35848.4,-1.0,419.32513235426325,587030734.8115995,587030734.8115995,27.652254624443596,7.145508033083525,22893.657655578147,85.7,46.80520094569495
1306893745.45,3.1808855,5.6976335,2255.88,-59.8,5.7,15.8,310964.13,-35681.32,-1.0,411.8751693295755,586060342.0360068,586060342.0360068,26.207761379162,7.159758672612653,23021.299496599444,87.3,46.909626798713326
