timestamp,longitude,latitude,altitude,roll,pitch,yaw,u,v,heading,air_speed,engine_0,temperature_in,humidity_in,pressure_in,heart_rate,oxygen_mask
1306893628.55,10.0324795,2.6236974,-1.0,-1.0,1.3,-1.0,903670.75,-319595.84,-1.0,153.3277077345789,7205907.944210284,24.984744213691158,8.053471309403902,23688.428996612427,89.39999999999999,36.31606559644702
1306893631.91,10.0309981,2.6252013,466.78,-1.0,2.5,-1.0,903523.38,-319445.97,-1.0,153.3277077345789,14324034.095555916,25.314907474860533,7.974424265072756,23691.408138211067,88.4,36.31577469530966
1306893632.33,10.030791,2.6254116,466.87,-1.0,4.8,-1.0,903502.75,-319425.03,-1.0,71.66433863230134,26862591.529203847,25.275270797406368,7.937991058579794,23659.873408574327,90.4,36.31563690003407
1306893632.75,10.0305802,2.6256255,466.92,-1.0,6.3,-1.0,903481.75,-319403.72,-1.0,72.90824495680407,39806494.546953656,24.928303414784413,7.936307394696012,24229.25822781035,90.8,36.315568002396276
1306893633.17,10.0303658,2.6258432,466.96,-1.0,7.3,-1.0,903460.44,-319382.03,-1.0,74.07443755998673,48498003.24802639,24.022495143356714,7.98365290099416,24353.94009367327,89.7,36.31552972593084
1306893633.59,10.0301437,2.6260687,466.99,-1.0,7.9,-1.0,903438.31,-319359.56,-1.0,76.76125896573124,48498003.24802638,24.022495143356714,7.9836529009941595,24353.94009367327,89.7,36.31552972593084
1306893634.01,10.0299238,2.6262919,467.01,-1.0,8.4,-1.0,903416.44,-319337.31,-1.0,75.95748937112317,39806494.546953656,24.928303414784413,7.936307394696013,24229.258227810355,90.8,36.315568002396276
1306893634.43,10.0296923,2.6265269,467.01,-1.0,8.6,-1.0,903393.44,-319313.88,-1.0,79.84587119329034,26862591.529203847,25.275270797406364,7.937991058579793,23659.873408574327,90.4,36.315636900034065
1306893634.85,10.0294594,2.6267633,467.05,-1.0,8.9,-1.0,903370.25,-319290.34,-1.0,80.34390428674537,14324034.095555916,25.314907474860533,7.974424265072756,23691.408138211067,88.4,36.31577469530966
1306893635.27,10.0292209,2.6270054,467.16,-1.0,9.2,-1.0,903346.5,-319266.22,-1.0,82.26295600459547,7205907.944210288,24.984744213691155,8.053471309403903,23688.428996612427,89.4,36.31606559644702
1306893635.69,10.028976,2.627254,467.47,-1.0,9.7,-1.0,903322.19,-319241.44,-1.0,84.32541352907907,5894430.466913872,25.03173448275846,7.969809495752209,24062.286687514727,89.30000000000001,36.674693111757605
1306893636.11,10.0287296,2.627504,468.04,-1.0,9.9,-1.0,903297.63,-319216.53,-1.0,84.96277016275575,6098441.403635862,24.090999858559066,7.937240611416621,24221.447375947137,89.39999999999999,36.67565767868674
1306893636.53,10.0284782,2.627759,468.91,-1.0,10.0,-1.0,903272.63,-319191.13,-1.0,86.54461597707925,6492927.412389801,22.855432492448823,7.8727564045775384,24021.249437174993,87.90000000000002,36.677219358476755
1306893637.37,10.0279595,2.6282848,471.69,-1.0,10.2,-1.0,903221.06,-319138.75,-1.0,89.23063387927152,6838237.174620754,23.210387591252235,7.759981482186775,23436.56069333106,87.4,36.68087093327991
1306893639.05,10.0268766,2.629379,481.4,-1.0,10.1,-1.0,903113.38,-319029.75,-1.0,93.03573487646801,7193281.278374833,23.112030934882675,7.67270796823313,23362.13706320923,86.5,36.69192517649951
1306893639.47,10.0265901,2.6296675,484.72,0.1,10.1,-1.0,903084.94,-319001.03,-1.0,98.20139950444249,7627569.689514187,20.70454104938183,7.622242153988898,23254.208361643752,87.2,36.70549801114518
1306893640.31,10.0260084,2.6302519,492.29,0.1,10.0,-1.0,903027.13,-318942.88,-1.0,96.83118965861952,8219728.51706497,19.663905643771844,7.9157132137975985,23878.962080462607,87.4,36.72485059207256
1306893641.99,10.0247649,2.6314939,511.69,0.3,10.0,-1.0,902903.75,-318819.38,-1.0,103.3590249714664,8978376.137600914,21.61906284154921,7.638178200919429,23935.085257954648,88.9,36.759054441591374
1306893642.83,10.0241069,2.6321468,523.41,0.3,9.8,-1.0,902838.56,-318754.47,-1.0,109.21996048977077,9957337.251597725,22.61921727559203,7.653645697139319,23918.147885077306,90.9,36.8021996734374
1306893643.25,10.0237683,2.6324818,529.77,0.5,9.8,-1.0,902805.0,-318721.19,-1.0,112.37057488040513,11316465.871683314,21.64557497878686,7.498759429720822,23419.636046139574,92.60000000000001,36.85012946346364
1306893643.67,10.0234201,2.6328254,536.49,0.6,9.8,-1.0,902770.5,-318687.06,-1.0,115.47666413476493,12904194.161622144,23.300501525648645,7.360250294850771,23141.753975316224,92.0,36.90296629635952
1306893644.51,10.022711,2.633523,550.67,0.6,9.6,323.8,902700.31,-318617.81,-1.0,117.42301505029391,14650897.591617707,23.39132241203285,7.148599910915582,22308.792831170827,94.9,36.96622198314868
1306893644.93,10.0223501,2.6338769,557.94,0.6,9.4,323.8,902664.63,-318582.69,-1.0,119.28871169662762,16478284.752566705,25.115042592627972,7.233276752150168,22656.582668144045,93.40000000000002,37.03437705751438
1306893645.35,10.0219783,2.6342407,565.27,0.6,9.1,323.8,902627.81,-318546.59,-1.0,122.84955836209575,18170680.556202732,24.83408634306852,7.144135475428246,22919.127879409676,96.2,37.10601529023529
1306893645.77,10.0216024,2.6346078,572.42,1.1,8.9,323.8,902590.69,-318510.19,-1.0,123.78893058718735,19706981.857388232,25.27227854454648,7.390819911569663,23362.37579965821,96.90000000000002,37.17569376792558
1306893646.19,10.021216,2.6349845,579.41,1.2,8.7,323.9,902552.5,-318472.81,-1.0,127.16124520822011,21022428.174422827,25.99244462646357,7.1770347551092835,23204.19618941897,96.30000000000001,37.2481817381793
1306893646.61,10.0208245,2.6353657,586.08,1.2,8.5,323.9,902513.81,-318435.03,-1.0,128.57305150134002,22273307.405516505,27.051594624714657,7.152701778508528,23194.55400248567,95.60000000000001,37.319980732055065
1306893647.03,10.0204277,2.6357516,592.39,1.5,8.5,323.9,902474.56,-318396.78,-1.0,130.19715396348138,23510230.61390561,24.749259913314845,7.285269214063344,23923.244517717725,97.2,37.381758947278165
1306893647.88,10.0196017,2.6365539,604.08,1.8,8.2,323.9,902393.0,-318317.22,-1.0,133.58930191987633,24659622.636662588,24.60505023895135,7.197140355421731,23886.78706918056,96.6,37.443514196622004
1306893648.3,10.0191822,2.6369614,609.34,2.0,8.3,323.9,902351.56,-318276.84,-1.0,137.17124095493634,25846519.680648103,26.159833092250853,7.154560884644195,24687.068565880174,94.80000000000001,37.50442736372611
1306893648.72,10.0187555,2.6373759,614.39,2.1,8.4,324.1,902309.44,-318235.75,-1.0,139.4536893467657,27299004.705139626,24.796455490503178,7.498449042404227,24787.6702538306,93.20000000000002,37.56406209688446
1306893649.14,10.0183272,2.6377925,619.35,2.3,8.7,324.1,902267.13,-318194.44,-1.0,140.12058702010597,28700553.924276244,24.18676925506379,7.689699382393934,25611.772787013622,91.89999999999999,37.61663864981535
1306893649.56,10.0178845,2.6382244,624.53,2.4,8.9,324.1,902223.31,-318151.59,-1.0,145.27561077792402,30079222.90844043,23.185575232271358,7.857056927466016,25933.808498697428,93.9,37.66761524649076
1306893649.98,10.017441,2.6386585,629.89,2.5,9.2,324.3,902179.5,-318108.53,-1.0,145.63407624988338,31977374.603701293,23.869460619495527,8.018309406883432,26331.392790540827,91.0,37.717083750427776
1306893650.4,10.0169864,2.6391051,635.64,2.5,9.4,324.3,902134.5,-318064.19,-1.0,149.85123703452152,33518869.21503838,25.516590760859387,7.8973003878721935,25799.0118834726,89.70000000000002,37.765480513332406
1306893650.82,10.0165304,2.6395546,641.71,2.5,9.5,324.3,902089.38,-318019.56,-1.0,150.60025565459054,35186695.185987644,24.870667125637357,7.774782432563672,26109.30191463715,89.9,37.813172989272914
1306893656.92,10.0101332,2.6467755,736.34,58.7,9.5,335.5,901441.69,-317291.47,-1.0,159.05809423414362,36799143.65338675,24.22558254554204,7.472458343147471,26149.724973221473,89.10000000000002,37.92820142321867
1306893657.13,10.0099638,2.6470468,737.85,59.0,9.5,336.4,901423.31,-317263.28,-1.0,158.40289531193292,38130335.160052896,24.852916299944425,7.350825969585371,25362.78313818549,88.60000000000001,38.039555316482016
1306893657.34,10.0098023,2.6473169,739.23,59.2,9.5,337.3,901405.56,-317235.13,-1.0,156.54378331799333,30993305.711055618,23.67828770454193,7.5633216170474284,25797.125190131446,86.9,38.14301660257125
1306893657.55,10.0096463,2.6475898,740.52,59.4,9.5,338.2,901388.25,-317206.63,-1.0,156.78072602257208,22915113.456652276,23.289534029588893,7.458758669516648,25182.478601025614,86.70000000000002,38.24343873730441
1306893657.76,10.0095006,2.6478576,741.69,59.5,9.5,339.2,901371.88,-317178.53,-1.0,152.77261194050374,14587103.040563388,24.925231684974957,7.275975519531925,25127.693230811674,87.00000000000001,38.340890618319285
1306893657.97,10.0093548,2.6481397,742.83,59.6,9.5,340.1,901355.25,-317148.84,-1.0,159.89102356129857,12853142.131955283,26.999457843627205,7.364196055860579,25199.607519272377,86.9,38.4354181773744
1306893658.18,10.009224,2.6484075,743.82,59.7,9.5,341.2,901340.13,-317120.59,-1.0,150.34050104816723,18267071.610331766,28.517748924201147,7.268966807584922,24975.797044534782,84.9,38.52673816862549
1306893658.39,10.0090922,2.6486935,744.81,59.7,9.5,342.1,901324.63,-317090.31,-1.0,159.67534511003535,28526402.264910173,30.354136219013867,7.226650010832913,24410.890461020124,85.7,38.614712796796965
1306893658.6,10.0089727,2.6489701,745.69,59.8,7.4,343.2,901310.31,-317060.94,-1.0,153.21100375966608,33300726.241677333,29.87110618968415,7.0860422368933325,24590.74667386904,88.90000000000002,38.69895929723442
1306893658.81,10.0088607,2.6492476,746.51,59.9,7.4,344.2,901296.56,-317031.41,-1.0,152.66433985423566,38977971.56491609,30.68477922673274,7.194789753269498,25189.01822246459,89.00000000000001,38.77918676880047
1306893659.02,10.0087563,2.6495258,747.27,59.9,7.4,345.4,901283.5,-317001.66,-1.0,152.1858776968254,46405586.21644548,32.43478071927659,7.370923552426186,24618.73486646813,89.10000000000001,38.78755400414605
1306893659.23,10.0086575,2.6498112,748.0,60.0,7.5,346.4,901270.75,-316971.06,-1.0,155.26140459366889,47730468.40484246,33.197230406186065,7.323628319489473,25103.964670681013,89.2,38.795324126630746
1306893659.44,10.0085716,2.6500822,748.64,60.0,7.5,347.6,901259.31,-316941.91,-1.0,146.44964717068436,48828633.413214415,33.226636195324595,7.206143922255606,25043.284198077097,89.30000000000001,38.802527757426894
1306893659.65,10.0084902,2.6503641,749.27,60.0,7.5,348.7,901248.06,-316911.5,-1.0,151.6699795265461,54445133.57148506,31.993611364732523,7.46904774405011,25651.350245681195,89.10000000000001,38.80922613887921
1306893659.86,10.0084179,2.6506432,749.84,60.0,7.6,349.9,901237.69,-316881.31,-1.0,149.19950898748547,56238103.51018429,31.79099228998993,7.30913645526561,26068.97933474308,87.4,38.815465202746225
1306893660.07,10.0083521,2.6509302,750.4,60.0,7.7,351.0,901227.63,-316850.16,-1.0,153.01249149188527,55904757.636301905,29.291283502741127,7.14167203006967,25663.21582273635,88.30000000000001,38.821260259614114
1306893660.28,10.0082961,2.6512113,750.91,60.1,7.7,352.2,901218.56,-316819.53,-1.0,149.17852734641681,58676294.540334865,27.38758483947927,7.314327543623625,25818.518962446386,89.39999999999999,38.82668786241377
1306893660.49,10.0082493,2.6514878,751.38,60.1,7.8,353.4,901210.31,-316789.28,-1.0,146.30579125354546,57014260.54263884,25.20777003321806,7.296381296503294,26081.12880459553,92.30000000000001,38.83171738997283
1306893660.7,10.00821,2.6517703,751.83,60.1,7.9,354.6,901202.56,-316758.31,-1.0,148.9598235804039,57993144.468830906,24.22643383716668,7.564350462572651,26196.723458681994,89.30000000000001,38.83641773992908
1306893660.91,10.0081804,2.6520426,752.24,60.1,8.0,355.8,901195.81,-316728.38,-1.0,142.97477817629772,59294211.45717929,24.196679474930495,7.511481438005991,25715.30272092397,90.00000000000001,38.84080422286871
1306893661.12,10.0081589,2.6523153,752.63,60.1,8.0,357.1,901189.75,-316698.28,-1.0,143.01830738292318,63659869.75783119,21.578136490838844,7.622063703479514,26311.396232110208,91.90000000000002,38.84490745996408
1306893661.33,10.0081455,2.652596,753.01,60.1,8.1,358.3,901184.19,-316667.19,-1.0,147.14771167810645,66331747.27846328,20.121474020115333,7.762324469121812,26206.88705033281,90.0,38.84874276180135
1306893661.54,10.008141,2.6528676,753.37,60.1,8.2,359.6,901179.56,-316637.03,-1.0,141.99114901116283,67627816.38876316,19.034905608671387,7.779523170233238,26133.54456667395,90.7,38.85236371543214
1306893661.75,10.0081452,2.6531456,753.71,60.1,8.3,0.8,901175.5,-316606.03,-1.0,145.51399403840946,68701735.69288401,18.824864210672235,7.534413366838169,26013.544018537195,89.7,38.85576266556338
1306893661.96,10.0081577,2.6534116,754.03,60.1,8.4,2.2,901172.38,-316576.28,-1.0,139.01787593022462,67755684.83107264,16.52380071493981,7.790203255624856,25477.498829162825,92.5,38.8589702333674
1306893662.17,10.0081786,2.6536786,754.33,60.1,8.4,3.4,901169.94,-316546.31,-1.0,139.70717810236889,65654186.97868753,18.59972095578563,7.858751040060868,25694.533024642136,89.39999999999999,38.86197876355113
1306893662.38,10.008209,2.6539527,754.63,60.1,8.5,4.8,901168.13,-316515.47,-1.0,143.58077813680566,66785296.12176473,20.7482921755338,7.637702385280141,25738.25658974455,89.30000000000001,38.864826532580004
1306893662.59,10.0082467,2.6542146,754.91,60.1,8.6,6.0,901167.19,-316485.88,-1.0,137.3909557627919,66920270.73927176,22.60092346972781,7.392632527679962,26135.402260087318,86.10000000000001,38.8675288510402
1306893662.8,10.0082927,2.6544743,755.18,60.1,8.7,7.4,901166.94,-316456.44,-1.0,136.56377683838113,67808429.66355546,21.91339091027395,7.413009938554414,26613.829838918136,89.5,38.870093374224794
1306893663.01,10.0083482,2.6547381,755.45,60.1,8.8,8.7,901167.44,-316426.41,-1.0,139.33985833735068,70096729.43145701,20.77033860190322,7.482500510407616,26263.11852773013,86.30000000000001,38.872550723306155
1306893663.22,10.0084129,2.6550018,755.71,60.1,8.9,10.1,901168.69,-316396.31,-1.0,139.73149879186724,68493558.93475088,22.990749417642487,7.168041257923268,26100.339177446996,86.70000000000002,38.87490855357737
1306893663.43,10.0084848,2.6552579,755.95,60.1,9.0,11.4,901170.63,-316366.97,-1.0,136.2515246190526,67063830.532178506,22.98600394375241,7.239039651167247,26342.485230094935,89.20000000000002,38.87715920974536
1306893663.64,10.0085657,2.6555137,756.2,60.1,9.1,12.8,901173.38,-316337.53,-1.0,136.9894666186321,68373459.77596337,25.12258743981431,7.4023742691036265,26337.172307937977,89.40000000000002,38.879325657689364
1306893663.85,10.0086518,2.6557582,756.42,60.1,9.2,14.1,901176.69,-316309.31,-1.0,131.45455618978679,64846939.144071594,24.831188280186556,7.568948019067427,25711.242627871456,89.30000000000001,38.88140024211631
1306893664.06,10.0087476,2.6560044,756.65,60.1,9.3,15.5,901180.81,-316280.78,-1.0,133.3810865478813,67280163.24975811,24.880760947787593,7.63277115894866,26563.094995520685,86.9,38.883405928905454
1306893664.27,10.0088527,2.656251,756.88,60.1,9.4,16.9,901185.69,-316252.09,-1.0,134.66293290029395,69548108.58060215,24.02136902612007,7.668218800433539,26687.450438842752,88.10000000000001,38.88535802864299
1306893664.48,10.0089642,2.6564907,757.1,60.1,9.5,18.3,901191.25,-316224.13,-1.0,131.79769973825384,67981690.38671902,23.632924416988217,7.730526253560731,26773.057626772108,90.2,38.88724888603581
1306893664.69,10.0090846,2.6567291,757.31,60.1,9.6,19.7,901197.56,-316196.16,-1.0,132.55713596101353,68928847.59184496,23.858869813918044,8.094081932279975,26707.315201223184,92.1,38.889086156377026
1306893664.9,10.009214,2.656966,757.53,60.1,9.7,21.2,901204.63,-316168.25,-1.0,133.09628550603807,67755919.75637066,24.558067843450544,8.148706535585287,25903.526125281544,90.60000000000001,38.89088515025279
1306893665.11,10.0093458,2.6571904,757.73,60.0,9.8,22.5,901212.06,-316141.75,-1.0,127.02768774830832,63837515.682876244,25.60764071066564,8.111491543028782,25995.461039872927,91.2,38.89263055707694
1306893665.32,10.009493,2.6574237,757.94,59.9,9.9,24.0,901220.69,-316114.03,-1.0,134.1979813097436,63453184.64621845,25.925468192164544,8.444729424958506,25807.083521487828,89.39999999999999,38.894337687435645
1306893665.53,10.0096405,2.6576423,758.14,59.7,9.9,25.4,901229.56,-316087.97,-1.0,127.01800984502638,61178986.77846806,27.22690929635955,8.242638883327839,25132.114449981564,89.69999999999999,38.896014196622
1306893665.74,10.0097958,2.6578578,758.34,59.4,9.9,26.9,901239.13,-316062.16,-1.0,126.9980332096388,60328534.357631296,25.141226362707663,8.279754172205278,25496.03636120596,88.5,38.897652429342905
1306893665.95,10.0099577,2.6580693,758.53,59.2,9.9,28.2,901249.31,-316036.72,-1.0,126.38701082224861,61953478.214305654,26.55501127294925,8.161593488820634,26166.407517281077,89.50000000000001,38.899267696184545
1306893666.16,10.0101304,2.6582817,758.73,58.9,10.0,29.7,901260.38,-316011.03,-1.0,129.10423766558537,60628130.46786157,26.362295236941456,7.999411305420568,26156.927320346425,91.70000000000002,38.90085999714693
1306893666.37,10.0103065,2.6584861,758.91,58.7,10.0,31.0,901271.88,-315986.22,-1.0,126.10793481226058,58300600.778452806,26.03141343991156,7.854387876311105,25878.502357691978,93.9,38.902414021643864
1306893666.58,10.0104873,2.6586845,759.1,58.4,9.9,32.5,901283.81,-315962.0,-1.0,124.45364693831822,58169455.74897863,26.45887642675843,7.719203300746478,25023.916257104494,93.70000000000002,38.903945080261536
1306893666.79,10.0106781,2.6588829,759.28,58.1,9.9,33.8,901296.63,-315937.66,-1.0,126.88665832456468,55520037.12127858,25.421130468403405,7.509619965410608,25122.895471352327,93.00000000000001,38.90545317299994
1306893667.0,10.0108725,2.6590747,759.45,57.8,9.9,35.2,901309.88,-315914.03,-1.0,124.89667836177499,51929272.16754857,24.736386627208336,7.366230718320814,25937.281616870383,92.8,38.906922989272914
1306893667.21,10.011083,2.6592718,759.63,57.6,9.8,36.5,901324.31,-315889.59,-1.0,131.04783766149134,51873859.03378789,26.545800956999972,7.38272813670247,25716.30468794964,93.8,38.9083774949597
1306893667.42,10.0112883,2.6594543,759.8,57.4,9.8,37.9,901338.56,-315866.88,-1.0,123.57333196325696,47241295.555968486,26.635215781878472,7.171699303327873,25533.575797995323,92.99999999999999,38.90980137947414
1306893667.63,10.0115006,2.6596343,759.97,57.2,9.7,39.2,901353.44,-315844.34,-1.0,124.52632078872628,45923590.274900466,27.541833705484997,7.2223144579675695,26221.183866490705,92.4,38.911202298109316
1306893667.84,10.0117234,2.659814,760.14,57.1,9.7,40.6,901369.19,-315821.69,-1.0,127.29691134553711,44517433.863164574,29.25849089380749,7.143110424048778,25504.074218876147,91.4,38.91258025086522
1306893668.26,10.0121913,2.6601651,760.48,57.1,9.7,43.2,901402.75,-315777.13,-1.0,128.77059556862875,42678487.0590451,29.855594076846405,7.045846687063255,25602.723655596597,91.30000000000001,38.91407303301745
1306893668.68,10.0126724,2.6604932,760.81,57.1,9.5,45.9,901437.75,-315734.91,-1.0,126.56376837397123,40860308.89887653,30.109877364159903,7.2003832430843016,25098.71645128754,90.90000000000002,38.91566533397983
1306893669.1,10.0131866,2.6608121,761.16,56.9,9.5,48.5,901475.63,-315693.38,-1.0,129.87375671738826,39909170.769895054,31.706813946120874,7.199419186169479,25235.1041428198,87.70000000000002,38.917387774924705
1306893669.52,10.013716,2.6611099,761.5,57.0,9.5,51.1,901515.13,-315653.97,-1.0,128.9481443095351,37168133.65375599,29.39728024397736,7.1584079171824255,25650.017528742363,84.9,38.919225045265904
1306893669.94,10.0142737,2.6613939,761.86,57.1,9.5,53.7,901557.19,-315615.78,-1.0,131.42746089647153,34708522.77438455,28.360028292448032,7.050330588883371,25324.981070954986,86.4,38.92120011088271
1306893670.36,10.0148408,2.6616542,762.22,57.2,9.5,56.4,901600.44,-315580.13,-1.0,129.68900364678748,33505306.34093711,27.828914875031764,7.1586712596257405,24667.98953283561,87.30000000000001,38.923320627068186
1306893670.79,10.0154453,2.6619027,762.6,57.2,9.5,59.0,901646.94,-315545.31,-1.0,131.41964889595516,30482511.352951057,27.46605099382445,7.42218383612647,25202.829289294474,85.40000000000002,38.925594249115434
1306893671.21,10.0160539,2.6621252,762.97,57.3,9.5,61.7,901694.25,-315513.38,-1.0,132.3149861126283,29638022.988349598,26.661233027038698,7.656932199045309,25046.780141429655,86.30000000000003,38.928020977024445
1306893671.63,10.0166808,2.6623273,763.36,57.3,9.5,64.3,901743.38,-315483.47,-1.0,133.46644660557268,28801387.7366389,26.402546016318578,7.621254816418129,24671.086652684106,85.80000000000001,38.9306161213814
1306893672.05,10.017311,2.6625047,763.74,57.3,9.5,67.0,901793.19,-315456.28,-1.0,131.740893759867,27495793.257459506,26.761088133808528,7.69226790183258,24547.461855329824,88.60000000000001,38.93337202689322
1306893672.47,10.0179691,2.6626639,764.14,57.3,9.5,69.6,901845.56,-315430.81,-1.0,135.3972229238804,26668567.403518118,27.21967399154875,8.024244102183298,23600.783472094776,88.10000000000001,38.93617386416356
1306893672.89,10.0186245,2.6627974,764.53,57.3,9.5,72.3,901898.19,-315408.22,-1.0,133.23081148481657,26417392.56291105,27.29867307338025,7.808818351910244,23708.391969102406,86.0,38.93902163319242
1306893673.31,10.0193037,2.662911,764.95,39.7,8.3,74.7,901953.06,-315387.53,-1.0,136.61174007484018,27062886.078537155,26.345495859163734,8.042967246321323,23328.480696020437,89.00000000000001,38.94192298927292
1306893673.73,10.0199661,2.6630063,765.62,3.8,6.5,75.6,902006.81,-315369.09,-1.0,132.38121926596915,28435858.589612056,26.22756207670653,8.38915756518783,23758.247663502334,90.5,38.94507697002532
1306893674.15,10.0206387,2.663101,766.54,-15.9,6.5,75.3,902061.5,-315350.63,-1.0,134.53760191341587,30716871.364096202,25.872384559739245,8.680338381010731,23677.861153904352,87.6,38.948659647190674
1306893674.57,10.0213227,2.6632016,767.58,-22.8,6.5,74.7,902116.94,-315331.34,-1.0,136.84449774436885,33800014.55673091,27.205343196428828,8.353621524201973,23532.245738733476,87.9,38.95276288428604
1306893674.99,10.0219995,2.6633081,768.64,-33.7,6.9,73.8,902171.75,-315311.5,-1.0,135.8340466914258,36950863.63717149,27.186140237071058,8.165202614556227,23794.5285857151,90.2,38.95738668131141
1306893675.41,10.0226628,2.6634227,769.66,-42.2,7.6,72.5,902225.31,-315290.91,-1.0,133.61291176033797,40614226.510125965,26.245546018258274,7.900272034370117,24051.789023770532,88.1,38.96250807238753
1306893675.83,10.0233239,2.6635506,770.66,-45.4,7.8,70.9,902278.44,-315268.88,-1.0,133.860857042581,44239824.72002451,26.109704652889373,8.213430988706328,24259.23820636218,87.69999999999999,38.96809643634203
1306893676.25,10.023972,2.6636913,771.6,-48.6,8.2,69.1,902330.31,-315245.56,-1.0,132.24361756075484,47236274.234213404,24.29773957476411,8.112388052567157,24293.259220768356,87.6,38.97411349670948
1306893676.67,10.0246305,2.6638521,772.52,-51.7,8.7,67.2,902382.75,-315219.88,-1.0,135.77368458297536,49842385.73436689,21.996976836795838,7.799031091889106,24770.468211186748,89.00000000000001,38.98052863231753
1306893677.09,10.0252632,2.6640263,773.37,-53.2,8.9,65.0,902432.81,-315193.0,-1.0,131.94183320937458,51483388.726315014,22.645494368417488,7.811405216420824,24492.792687908728,89.9,38.98729591140764
1306893677.51,10.0258902,2.6642201,774.18,-54.1,8.9,62.8,902482.06,-315164.03,-1.0,132.6071702863585,51722562.06595155,22.68838927822869,7.530385057811261,24194.23745685072,87.8,38.994361746928206
1306893677.93,10.0264954,2.664429,774.94,-55.1,9.2,60.4,902529.31,-315133.63,-1.0,130.24678082692404,51619504.86985128,23.014420394739826,7.135780683585947,24058.25049381759,87.4,39.00149648008656
1306893678.35,10.0270975,2.6646604,775.66,-55.7,9.2,58.0,902575.88,-315100.75,-1.0,132.11600805684864,50764213.284546405,24.609631709707312,6.868721742643032,24189.970778802635,87.4,39.00847810738315
1306893678.77,10.0276823,2.66491,776.33,-56.0,9.2,55.6,902620.75,-315066.09,-1.0,131.29573514220542,49285029.75254271,24.416287977597197,6.904108398634328,24755.814256869708,84.3,39.01517648883547
1306893679.19,10.0282499,2.665178,776.96,-56.3,9.2,53.1,902663.88,-315029.53,-1.0,130.84212085080836,47766255.33762172,24.547028362011716,6.8178326216195995,24812.939416397752,83.80000000000001,39.02154569268499
1306893679.61,10.0287953,2.6654621,777.55,-56.6,9.5,50.6,902704.94,-314991.47,-1.0,129.45349766823128,45901978.10806015,24.89386023031218,6.987537018247901,24603.28216459548,86.7,39.027585718931704
1306893680.25,10.0295862,2.6659269,778.37,-56.6,9.5,46.7,902763.63,-314930.41,-1.0,128.40561775079388,43684187.04374383,23.39081423037331,6.72561195345782,24936.46662552189,87.2,39.03348794990283
1306893680.67,10.0300872,2.6662584,778.88,-56.6,9.5,44.1,902800.19,-314887.59,-1.0,130.06530180995267,41348662.42808583,24.66632149221797,6.782999173182147,24813.198991423724,85.0,39.03906100327116
1306893681.09,10.0305601,2.6666023,779.37,-56.6,9.5,41.6,902834.19,-314843.72,-1.0,128.1145682653291,38448203.73039572,24.54211308687882,7.114710875067104,24293.241811187425,86.60000000000001,39.04430487903669
1306893681.51,10.0310144,2.6669654,779.83,-55.8,9.2,39.0,902866.38,-314797.94,-1.0,129.17992574766106,36070754.98095699,24.729826263461387,7.286564153997008,24521.987602504803,86.9,39.04925019837177
1306893681.94,10.0314515,2.6673472,780.27,-44.9,7.0,36.8,902896.88,-314750.28,-1.0,127.49914563766322,33295794.077446308,23.41443009103456,7.477659904712306,25326.37753914051,85.9,39.053912271862586
1306893682.36,10.0318617,2.6677286,780.6,-35.5,6.0,35.5,902925.06,-314703.0,-1.0,126.94622931956457,31015302.866816625,25.11031464667148,7.850030930282955,25491.889414029847,84.9,39.058245167750606
1306893682.79,10.0322755,2.6681311,780.84,-32.3,6.0,34.4,902953.25,-314653.31,-1.0,128.74904396951763,28919867.68991661,25.314504055038118,8.042697990190822,25176.549870151473,85.10000000000001,39.06221060957038
1306893683.21,10.0326645,2.6685249,781.01,-28.8,5.7,33.4,902979.5,-314604.88,-1.0,127.0448818391799,27244446.157695413,26.204059351942572,8.074966838453834,24866.011280708386,88.10000000000001,39.065793286735726
1306893683.63,10.0330462,2.6689252,781.15,-24.7,5.7,32.6,903005.06,-314555.81,-1.0,127.61816505955717,26573529.155184343,24.82190448999479,8.150592805242024,24070.419229060128,89.80000000000001,39.06900085453975
1306893684.05,10.0334234,2.6693332,781.29,-22.6,5.7,31.8,903030.06,-314505.94,-1.0,128.70752838335443,26878976.940860927,24.592369947503265,8.252357060441604,24006.794780994773,87.9,39.0718639341548
1306893684.47,10.0337896,2.6697408,781.44,-21.2,5.7,31.1,903054.19,-314456.25,-1.0,127.40725675461674,27599718.959258147,24.33252802063734,8.382126257056536,23319.072599852632,87.1,39.07421410913293
1306893684.89,10.0341429,2.6701447,781.63,-19.7,5.7,30.5,903077.31,-314407.13,-1.0,125.14713782945095,28831751.492962033,24.612015441816546,8.241802794236468,23606.58975888493,89.80000000000001,39.07631931473223
1306893685.31,10.0344992,2.6705622,781.87,-18.6,5.7,29.9,903100.44,-314356.47,-1.0,128.4861233948595,30680143.269682318,27.02320738780981,8.233155864102795,24227.655384035104,86.7,39.078233138004315
1306893685.74,10.0348507,2.6709843,782.15,-17.9,5.7,29.3,903123.13,-314305.31,-1.0,126.04550392444743,31461435.4561446,26.29538711255569,8.292668142179197,24624.93810006389,87.7,39.08000916600082
1306893686.16,10.0351954,2.6714081,782.46,-17.3,5.7,28.7,903145.19,-314254.09,-1.0,128.67766347748162,32892484.522954196,27.907898628302302,8.148419180023389,24786.157466735684,88.5,39.08168567518717
1306893686.58,10.0355318,2.6718313,782.81,-16.8,5.7,28.2,903166.56,-314203.0,-1.0,127.75461360357265,33690830.44966918,28.10736178794322,8.094314251075033,24381.79687494471,88.4,39.0833774949597
1306893687.0,10.0358586,2.6722516,783.18,-16.5,5.7,27.7,903187.25,-314152.38,-1.0,126.10483359868812,33771008.59028775,28.83925306000058,7.912627396189835,24126.02583255507,90.80000000000001,39.08516883354238
1306893687.42,10.0361847,2.6726803,783.58,-16.3,5.7,27.2,903207.69,-314100.81,-1.0,127.98534106387952,34567403.46061804,28.44480721255391,8.044818186777158,24315.47825767254,90.10000000000001,39.08713624386609
1306893687.84,10.0365038,2.6731089,783.98,-16.0,5.7,26.7,903227.56,-314049.31,-1.0,127.33972726871018,35056128.21762049,27.797026654840078,8.08733499780759,25064.748426660055,88.9,39.0893026918101
1306893688.26,10.0368125,2.6735325,784.39,-15.8,5.7,26.2,903246.63,-313998.53,-1.0,125.06420574165224,35526081.264543645,27.582570710135624,7.834849150765826,25639.64799362395,88.1,39.091675832667484
1306893688.68,10.0371182,2.673961,784.8,-15.6,5.7,25.7,903265.38,-313947.25,-1.0,125.92001296417676,36776541.42688577,27.62446780810797,7.702458155590163,25708.779698679944,88.19999999999999,39.094248011145176
1306893689.1,10.0374238,2.6743986,785.23,-15.4,5.7,25.3,903283.94,-313894.94,-1.0,128.0794457084249,37626948.9168259,26.35921760552859,7.58978119512433,26154.2349952855,85.6,39.09700391665699
1306893689.52,10.0377241,2.674838,785.65,-15.2,5.5,24.8,903302.06,-313842.47,-1.0,128.09740190017874,37562716.71941458,26.12425540948199,7.461113596778631,25668.338546429764,87.5,39.09989761744439
1306893689.94,10.0380178,2.6752771,786.06,-15.0,5.5,24.3,903319.63,-313790.13,-1.0,127.38736839828452,38107459.35824114,27.169356710185347,7.411805487128587,25081.60358709587,85.70000000000002,39.10289083704194
1306893690.36,10.0383031,2.6757127,786.47,-14.8,5.5,23.9,903336.56,-313738.28,-1.0,125.80629603586351,37883902.83220892,26.176376833076326,7.408538608646836,24408.809289971112,86.20000000000002,39.10596060957037
1306893690.78,10.0385861,2.6761541,786.88,-14.6,5.5,23.5,903353.25,-313685.81,-1.0,127.0410584758984,37968612.2618139,24.83559356342871,7.297278606982619,24320.163015635473,89.30000000000003,39.10907631385733
1306893691.2,10.0388596,2.6765897,787.28,-14.3,5.5,23.0,903369.19,-313634.09,-1.0,124.80960079508269,38668548.182482935,22.06538606330216,7.299270763767768,24706.441209238397,87.00000000000001,39.112214984023566
1306893691.62,10.0391361,2.6770395,787.69,-14.1,5.5,22.6,903385.13,-313580.78,-1.0,128.43845208318993,39682847.09312038,22.305294513398785,7.439893880148893,24645.188211158013,86.4,39.11536130948289
1306893692.04,10.0394007,2.6774791,788.09,-13.8,5.5,22.2,903400.25,-313528.72,-1.0,125.03775981000383,39952020.650527455,23.894645724853365,7.343971244693897,24469.27259968294,85.9,39.118507634942205
1306893692.46,10.0396675,2.6779318,788.5,-13.5,5.5,21.7,903415.38,-313475.19,-1.0,128.4147989770626,40718157.05587469,23.70747295226281,7.396957120742447,24289.910319592636,89.10000000000001,39.121653960401524
1306893692.88,10.0399248,2.6783775,788.9,-13.2,5.5,21.3,903429.81,-313422.53,-1.0,125.97899428394918,40633334.74592827,25.05099872378924,7.565238652892945,24599.04468517744,87.9,39.12479263056775
1306893693.3,10.0401746,2.6788191,789.29,-12.9,5.5,21.0,903443.69,-313370.44,-1.0,124.3333470381867,40508925.82647189,25.677913497190648,7.717648975152632,23871.15129585058,90.4,39.12790067956163
1306893693.73,10.0404301,2.6792802,789.7,-12.6,5.5,20.6,903457.75,-313316.09,-1.0,126.54484248258069,40959171.24995203,24.590364049914022,7.741587268376845,24590.930538149812,91.0,39.13100107326242
1306893694.15,10.04068,2.6797404,790.11,-12.2,5.5,20.2,903471.31,-313261.91,-1.0,128.9748892529047,41180144.788359396,23.182481552934608,7.782600405935442,24549.75682214458,91.3,39.134101466963195
1306893694.57,10.0409199,2.6801911,790.51,-11.9,5.5,19.8,903484.19,-313208.94,-1.0,125.79652302225234,41271146.81743602,22.161577336062244,7.84660968055632,24428.58993230412,92.19999999999999,39.137194205370896
1306893694.99,10.0411545,2.6806408,790.91,-11.6,5.5,19.5,903496.69,-313156.09,-1.0,125.31385883251015,41875373.83724537,20.939639819799147,7.795191676494268,24138.8089620159,89.0,39.140279288485516
1306893695.41,10.0413864,2.6810937,791.3,-11.2,5.5,19.1,903508.88,-313102.97,-1.0,125.77905767185058,42173587.30829929,23.25314622634762,7.803047404080455,24232.19449856494,91.69999999999999,39.14335671630704
1306893695.83,10.0416183,2.6815552,791.71,-10.9,5.5,18.8,903520.94,-313048.84,-1.0,128.06327737404754,41900977.83735572,23.885156014475324,7.546227761535953,23855.482302032095,90.2,39.14643414412856
1306893696.25,10.0418415,2.682008,792.11,-10.5,5.5,18.5,903532.44,-312995.84,-1.0,125.15508481563938,42638729.48210579,23.243615759246037,7.491009289316696,23923.243284264157,91.8,39.14951157195008
1306893696.68,10.0420721,2.6824845,792.53,-10.2,5.5,18.2,903544.13,-312940.06,-1.0,128.57498557441977,43073121.32601752,23.354413343604477,7.545318160851447,24376.3867109441,88.70000000000002,39.15259665506469
1306893697.1,10.0422886,2.6829402,792.92,-9.8,5.5,17.9,903555.0,-312886.78,-1.0,125.51211245039701,42705009.79191798,22.35919456012175,7.552018226814069,24546.83260759945,90.10000000000001,39.15567408288621
1306893697.52,10.0425048,2.6834033,793.33,-9.5,5.5,17.6,903565.75,-312832.69,-1.0,127.35228322611253,43221958.53154878,22.79100073788714,7.428384087242991,24608.373136981525,88.70000000000002,39.15876682129391
1306893697.94,10.0427142,2.6838596,793.73,-9.2,5.5,17.3,903576.0,-312779.44,-1.0,125.16792014460478,43480658.31782122,23.127508678257605,7.457674635897525,24588.79305491898,86.30000000000001,39.161851904408515
1306893698.36,10.0429204,2.6843166,794.13,-8.8,5.5,17.0,903586.0,-312726.13,-1.0,125.20283183434925,43591874.13830122,23.503718261121687,7.128510485920655,24640.66186976119,86.90000000000002,39.164929332230045
1306893698.79,10.0431348,2.6847997,794.55,-8.5,5.5,16.8,903596.25,-312669.84,-1.0,129.12625882187896,44299942.12386997,24.044439363521136,7.148017379571809,25104.825254959913,87.80000000000001,39.16802207063774
1306893699.21,10.0433359,2.6852604,794.95,-8.2,5.5,16.5,903605.75,-312616.19,-1.0,125.79796853731085,44375377.59153347,25.778571220505626,6.996009326207595,25874.21693961758,88.30000000000001,39.17111480904544
1306893699.63,10.0435351,2.6857239,795.35,-7.9,5.5,16.3,903615.06,-312562.25,-1.0,126.40558589313646,44720193.212429926,24.17709339495816,7.029050003885685,25848.29165733428,85.3,39.174215202746225
1306893700.05,10.0437288,2.6861814,795.75,-7.6,5.5,16.0,903623.94,-312509.03,-1.0,124.55143663401962,44488471.94541271,22.268205500325088,7.3024342279392895,26453.66214851525,85.10000000000001,39.17730794115393
1306893700.47,10.043925,2.6866517,796.15,-7.3,5.5,15.8,903632.88,-312454.38,-1.0,127.93770034617349,44747272.73425005,23.62808448285766,7.557962148584963,25901.71703286724,84.9,39.18040067956162
1306893700.89,10.044115,2.6871137,796.55,-7.0,5.5,15.6,903641.44,-312400.72,-1.0,125.47176147184555,44510371.807677895,23.822783453406625,7.424537543082642,25459.572787518522,87.5,39.183478107383145
1306893701.31,10.0443061,2.6875851,796.96,-6.7,5.5,15.4,903649.94,-312346.0,-1.0,127.94808457752305,45327989.6182697,25.31897252847137,7.510113394596108,24778.919228942977,89.00000000000001,39.18657084579085
1306893701.73,10.0444918,2.6880492,797.36,-6.4,5.5,15.2,903658.13,-312292.16,-1.0,125.76912337570214,44822471.07023847,25.19780895800082,7.48510177083056,25458.96310769135,90.60000000000001,39.18965592890545
1306893702.15,10.044676,2.688516,797.77,-6.1,5.5,15.0,903666.13,-312238.03,-1.0,126.39069697029446,44961248.69426216,25.239923165378627,7.524135723298284,25033.52252569589,90.70000000000002,39.192748667313154
1306893702.57,10.0448578,2.6889822,798.17,-5.9,5.7,14.8,903673.94,-312184.0,-1.0,126.09390766735673,45240147.680470295,26.358197129481884,7.672085889461185,25274.45088030982,90.10000000000001,39.19584140572085
1306893703.0,10.0450418,2.689461,798.77,-5.6,8.5,14.6,903681.69,-312128.53,-1.0,126.37754569398054,45053327.633172095,27.715997871647104,7.708011787068146,25406.75872326502,86.9,39.19907193940414
1306893703.42,10.045217,2.6899247,800.26,-5.3,12.1,14.3,903689.0,-312074.84,-1.0,125.18481743741059,45437096.21505163,28.316874514792254,8.084520755048514,24966.666922677916,86.4,39.20313690003407
1306893703.84,10.0453915,2.6903974,803.41,-4.9,14.2,14.0,903696.06,-312020.19,-1.0,127.55243017137204,45898838.71562462,29.18457700921907,8.288066650017809,24832.11716705364,86.80000000000001,39.209307066263285
1306893704.26,10.0455577,2.6908575,808.22,-4.4,15.9,13.7,903702.69,-311967.0,-1.0,124.2896064100243,45917301.06274605,30.614043030962797,8.317951695203556,24949.428323082368,88.60000000000001,39.21885321674448
1306893704.68,10.0457176,2.6913094,814.6,-3.9,17.3,13.5,903708.88,-311914.81,-1.0,122.22727604228929,45985865.371470444,30.59382647393963,8.355350217096182,25730.165254370182,85.0,39.23297723249251
1306893705.1,10.0458777,2.6917708,822.74,-3.4,18.2,13.3,903714.94,-311861.59,-1.0,125.19595918829089,46765690.35280667,31.87539343026338,8.5389855004704,25799.480892481555,83.6,39.25302644509093
1306893705.52,10.0460342,2.6922293,832.23,-2.9,18.5,13.1,903720.75,-311808.72,-1.0,124.85972419533823,46316521.700300105,30.717962820636405,8.325824284947283,25964.483640439175,81.39999999999999,39.280026663813594
1306893705.94,10.0461845,2.692676,842.53,-2.4,17.6,13.1,903726.25,-311757.22,-1.0,121.97149314381988,46515805.15416318,31.36152251642862,8.360069488295146,25525.339204180564,81.80000000000001,39.31460562269373
1306893706.36,10.0463359,2.6931311,853.48,-2.0,14.2,12.9,903731.69,-311704.78,-1.0,124.45737850271291,46712002.24840271,29.907935139004408,8.231565889447113,25341.041102923733,84.60000000000001,39.35725326048901
1306893706.78,10.0464902,2.6935987,864.12,-1.8,10.4,12.9,903737.13,-311650.91,-1.0,127.62648110225527,45406692.93964359,29.352103146716125,8.17331504000255,25259.011326003263,84.6,39.40773991840677
1306893707.2,10.046639,2.6940519,872.96,-1.8,7.5,12.9,903742.38,-311598.72,-1.0,122.87864171457485,43659457.951897,28.154613352544697,7.9432860139514805,25258.993242846765,85.1,39.464534537829344
1306893707.62,10.0467911,2.6945169,880.13,-1.8,5.4,12.9,903747.75,-311545.16,-1.0,125.50356677544585,43313612.91448195,27.863522645091727,7.727901177728899,25543.925785879055,87.3,39.52567736372611
1306893708.04,10.0469455,2.6949902,885.46,-1.8,4.2,12.9,903753.13,-311490.66,-1.0,127.20329173673495,41447721.86368293,28.63776058110307,7.703508460137766,25210.068459679864,89.10000000000001,39.588489043516134
1306893708.46,10.0470987,2.6954609,889.0,-1.8,3.5,12.9,903758.5,-311436.47,-1.0,126.11326018631911,40112725.01166275,27.091460575870983,7.478923571464193,24572.783268382533,88.00000000000001,39.65032850108394
1306893708.88,10.0472534,2.6959371,891.14,-1.8,3.3,12.9,903763.88,-311381.66,-1.0,127.4059479409035,40615142.03520681,26.720322431464083,7.256868808715109,24158.10733085566,91.0,39.708922114382275
1306893709.3,10.0474061,2.6964079,892.16,-1.8,3.4,12.9,903769.19,-311327.44,-1.0,125.91363905477569,40397984.224543825,25.805883164288765,7.293715790422164,23588.594194116897,90.7,39.7620651590017
1306893709.73,10.0475632,2.6968937,892.44,-1.8,3.7,12.9,903774.56,-311271.53,-1.0,126.80342336137933,40647881.26433311,26.511783469452418,7.261004017759518,23358.75445443154,91.3,39.80815767868673
1306893710.15,10.047717,2.6973704,892.24,-1.8,4.0,12.9,903779.88,-311216.66,-1.0,127.43505664661708,42284645.17903987,26.507637600409247,7.531854548399319,23372.736251531256,89.60000000000001,39.84621214062899
1306893710.57,10.0478718,2.6978518,891.82,-1.8,4.4,12.9,903785.19,-311161.25,-1.0,128.71726748541886,43492470.17719622,27.40220501631385,7.5550533828916695,23177.32071091789,86.60000000000001,39.87556253432978
1306893710.99,10.0480215,2.6983186,891.37,-1.8,4.8,12.7,903790.31,-311107.53,-1.0,124.67040933425355,43924002.309483655,26.8625788597297,7.793280447671601,22840.51571684548,86.2,39.896423207995575
1306893711.41,10.0481738,2.6987956,890.96,-1.8,5.0,12.7,903795.44,-311052.63,-1.0,127.47156217960678,45682638.39796869,26.090885231064597,7.858597166414571,22371.418451845726,86.8,39.910202735554634
1306893711.83,10.048326,2.6992739,890.68,-1.8,5.3,12.6,903800.63,-310997.59,-1.0,127.81351809305451,46004283.41242583,24.619315861123038,7.783834051229099,22270.568537469004,87.4,39.91827906976285
1306893712.25,10.0484763,2.6997478,890.55,-1.8,5.4,12.6,903805.63,-310943.09,-1.0,126.49405327343173,46116186.1241685,22.779984755179356,7.545421735591322,22347.238308407705,88.2,39.92217561394483
1306893712.67,10.0486253,2.7002195,890.57,-1.8,5.4,12.5,903810.63,-310888.84,-1.0,125.90033100147691,46871238.39103864,23.200270543596336,7.448955692345281,22366.562256915113,90.4,39.9233774949597
1306893713.09,10.0487752,2.7006958,890.73,-1.8,5.4,12.5,903815.56,-310834.03,-1.0,127.21706220015032,46849923.15250288,21.765926887665785,7.515016355518889,22003.626964050178,91.10000000000001,39.92306362794308
1306893713.51,10.048926,2.7011768,890.99,-1.8,5.8,12.5,903820.56,-310778.72,-1.0,128.41774890729465,46648423.96495719,22.16487590648334,7.549711155506471,22342.3167215387,92.1,39.92216795865174
1306893713.93,10.0490725,2.7016453,891.5,-1.1,8.5,12.5,903825.38,-310724.84,-1.0,124.99441725038358,46670541.68749642,23.0993486079159,7.765163122329822,22432.556516937544,92.8,39.92144836110144
1306893714.35,10.0492211,2.7021231,892.97,-1.1,12.2,12.5,903830.25,-310669.94,-1.0,127.46720857618926,46974952.724978335,20.644688641228612,7.506562607789986,22572.72746859667,91.39999999999999,39.92200719749689
1306893714.77,10.0493677,2.7025969,896.07,-1.1,14.1,12.5,903834.94,-310615.47,-1.0,126.58139250705571,46271412.40508133,21.430494804889804,7.574494863561558,22600.96875637169,93.60000000000001,39.92526069705944
1306893715.19,10.0495092,2.7030576,900.78,-1.1,15.8,12.2,903839.5,-310562.53,-1.0,123.22162970279155,46688872.45489167,22.272704085797034,7.291454626327386,23371.19767212306,95.7,39.932464327855584
1306893715.61,10.0496537,2.7035306,907.33,-1.1,17.3,12.2,903844.06,-310508.19,-1.0,126.99614855993724,47510306.27488973,24.056772840459203,7.495290949616183,23830.5084404458,94.60000000000001,39.94499604264124
1306893716.45,10.0499306,2.7044471,924.45,-1.1,15.9,12.2,903852.69,-310402.91,-1.0,123.64759265890613,47096945.363174856,24.73821503911818,7.525963461317263,23868.727558177547,91.10000000000001,39.97084796740065
1306893716.87,10.0500683,2.7049077,933.96,-1.1,12.1,12.2,903856.88,-310350.0,-1.0,124.65146526808576,46967274.100382596,25.08609902196948,7.630529693479459,24104.243576393812,89.10000000000001,40.00407959469724
1306893717.29,10.0502068,2.7053734,942.8,-1.1,9.0,12.2,903861.06,-310296.53,-1.0,125.68143437442009,46844389.2630866,24.430781938705397,7.77916807207632,24219.675301815816,88.4,40.04406319049776
1306893717.71,10.0503453,2.7058417,950.24,-0.3,6.7,12.2,903865.19,-310242.78,-1.0,125.81735634933253,45271753.08240767,25.10488754099623,7.5857844609505305,24885.83192106629,88.5,40.08961983966661
1306893718.13,10.0504851,2.706316,956.07,-0.3,5.1,12.2,903869.38,-310188.34,-1.0,126.9737436016585,43480536.108896516,25.418999462443587,7.351253918422183,25429.781280378516,88.7,40.13944048708568
1306893718.55,10.0506258,2.7067948,960.27,-0.3,4.1,12.2,903873.56,-310133.41,-1.0,127.76749765762531,42531888.8681523,25.375055741743456,7.305161820092591,25446.45157527759,87.39999999999999,40.192085937654355
1306893718.97,10.0507642,2.7072668,962.97,-0.3,3.7,12.2,903877.63,-310079.22,-1.0,125.76500852651778,41076078.08584959,25.861905927812877,7.536279534305763,25845.63454266251,89.6,40.245672989272904
1306893719.81,10.0510462,2.7082304,965.24,-0.3,3.7,12.2,903885.88,-309968.66,-1.0,128.2274764211024,40922177.8335593,24.718580226003567,7.332902621357615,26240.970647461854,89.89999999999999,40.29862465156513
1306893720.23,10.0511851,2.7087055,965.24,-0.3,4.0,12.2,903889.94,-309914.16,-1.0,126.3357993642217,41778526.68436061,24.797020141930155,7.613082815962446,26027.942167728823,90.89999999999999,40.34797067081273
1306893720.65,10.0513247,2.7091829,965.15,-0.3,4.3,12.2,903894.06,-309859.38,-1.0,127.01023396984135,42876739.84031325,23.986688144355735,7.48406152971805,25876.306332357206,93.5,40.39223357544965
1306893721.07,10.0514642,2.7096603,964.79,-0.3,4.6,12.2,903898.13,-309804.59,-1.0,127.0293959546607,44609939.55330573,23.492854745230062,7.608308747782437,25264.786175953548,95.0,40.423115027768105
1306893721.49,10.0516054,2.7101434,964.42,-0.0,4.9,12.2,903902.31,-309749.16,-1.0,128.56660235442658,45914542.92225821,24.658097674291344,7.515235531784198,25508.89297261099,97.20000000000002,40.44643305051526
1306893721.91,10.0517457,2.710623,964.12,-0.0,5.1,12.2,903906.38,-309694.13,-1.0,127.59877800658236,46460830.618914604,25.520134368578066,7.404424764766984,26029.51088267905,97.80000000000001,40.46275413537965
1306893722.33,10.0518836,2.7110947,963.94,-0.0,5.3,12.2,903910.44,-309640.0,-1.0,125.45734418567078,46842875.80669669,23.923734833523227,7.642340621482493,25890.448122075744,95.6,40.47324188691071
1306893723.17,10.0521651,2.7120574,963.97,0.1,5.3,12.2,903918.69,-309529.5,-1.0,128.1276736683033,46989969.74399367,23.550416453059793,7.560513520890015,25252.15012731478,93.39999999999999,40.47928956845052
1306893725.69,10.0530051,2.7149286,965.96,0.1,5.4,12.2,903943.31,-309200.06,-1.0,127.31105666921106,46825527.318326816,23.660005887580255,7.632540477929229,25986.584948098418,91.8,40.4836454302178
1306893726.53,10.0532849,2.7158845,966.78,0.2,5.4,12.2,903951.56,-309090.34,-1.0,127.20468397613047,47259925.96786405,23.955527642403055,7.2838725388322505,25957.190393134155,90.0,40.48656209688446
1306893736.63,10.0566636,2.7273894,975.39,0.2,5.4,12.3,904051.25,-307770.0,-1.0,127.31431372567526,47505825.008790314,25.184338136245493,7.205354502659327,26278.366032408365,90.60000000000001,40.49433221936915
1306893746.71,10.060056,2.7388773,983.9,0.2,5.4,12.4,904152.25,-306451.38,-1.0,127.41230791656504,47512374.39019359,25.346545852712815,7.006712864914675,25687.280207474152,90.00000000000001,40.50861699627204
1306893755.54,10.0630361,2.7489434,991.37,0.2,6.4,12.4,904241.25,-305295.84,-1.0,127.46578724679046,47243230.431945056,26.818436539503907,6.966701101075701,25686.987785619553,91.00000000000003,40.528689174749736
1306893755.96,10.0631772,2.7494197,992.1,0.2,9.8,12.4,904245.44,-305241.19,-1.0,126.72361177003631,47168289.874341235,28.59208551251008,6.8663017941852615,25642.511179403322,90.8,40.54959578017405
1306893756.38,10.0633191,2.7498989,994.03,0.2,12.9,12.4,904249.69,-305186.19,-1.0,127.635236988458,46913481.07869997,29.022634277282677,6.960928462534096,25328.140774141513,87.7,40.5722631030087
1306893756.8,10.0634583,2.7503693,997.58,0.2,14.3,12.4,904253.81,-305132.16,-1.0,125.51288285857093,46703310.81090019,29.262786557319334,7.154546805537933,24715.67188165282,86.5,40.59787771368236
1306893757.22,10.0635978,2.7508416,1002.69,0.2,13.4,12.4,904257.94,-305077.97,-1.0,126.19743998801822,47227280.75666575,29.928977025473728,7.083008327020817,24736.005004454295,85.2,40.62754197439977
1306893757.64,10.0637366,2.7513132,1008.62,0.2,10.9,12.4,904262.06,-305023.84,-1.0,126.25743162808872,47323238.20785375,28.240194032869198,7.085470914493429,24916.002207422825,85.80000000000001,40.66172285803932
1306893758.06,10.0638756,2.7517869,1014.52,0.2,8.7,12.4,904266.13,-304969.47,-1.0,126.80890156541855,47247585.23750847,26.106730005170135,6.859324359156198,24096.843426003845,88.50000000000001,40.69889696127641
1306893758.48,10.0640127,2.7522556,1019.7,0.2,7.0,12.4,904270.13,-304915.69,-1.0,125.22480228373789,47029059.14989604,27.493688310829153,6.890559322659144,23917.951427206124,89.50000000000001,40.73940877230003
1306893758.9,10.0641516,2.7527321,1024.01,0.2,5.7,12.4,904274.19,-304861.0,-1.0,127.20193132779443,46753398.086065106,27.544203280855463,7.163033253969086,23330.27522919049,88.6,40.77662880729566
1306893759.32,10.0642925,2.7532163,1027.33,0.2,4.9,12.4,904278.25,-304805.47,-1.0,129.02603755320268,45780444.93233855,26.155441940988037,7.325702111709257,23418.914663083477,89.60000000000001,40.80987574517843
1306893759.74,10.0644308,2.7536921,1029.61,0.2,4.5,12.4,904282.25,-304750.88,-1.0,126.65734282576626,44703116.39151028,23.93676878787788,7.512373525431276,23610.179927037378,89.60000000000002,40.839149585948334
1306893760.16,10.0645689,2.754168,1031.09,0.2,4.3,12.4,904286.19,-304696.28,-1.0,126.60520836865277,44457708.98304795,23.549079077107656,7.459212183713783,23849.152697928475,88.4,40.868997573699865
1306893761.01,10.0648518,2.755143,1032.36,0.2,4.3,12.5,904294.31,-304584.41,-1.0,128.18406068871172,44033856.43455496,22.865638589743263,7.610849548789876,24052.930585222075,89.9,40.898340312107564
1306893761.43,10.0649923,2.7556272,1032.46,0.2,4.6,12.5,904298.38,-304528.88,-1.0,128.78525644490836,44202257.3328895,22.10628037951065,7.356607875131153,24522.24057995016,88.8,40.92504197439978
1306893761.86,10.0651335,2.7561136,1032.41,0.2,4.8,12.5,904302.44,-304473.06,-1.0,126.37420639454876,44998738.85358234,22.173997371503273,7.3934603008014665,24455.711205068583,90.00000000000001,40.94779350545839
1306893762.28,10.0652738,2.7565966,1032.31,0.2,5.0,12.5,904306.44,-304417.66,-1.0,128.46626654605518,46100886.689646825,23.20577845882733,7.43932045043648,24586.06136204012,92.70000000000002,40.965928894784724
1306893762.7,10.0654128,2.757075,1032.22,0.2,5.2,12.5,904310.5,-304362.75,-1.0,127.3103227762252,46228816.51953982,25.438001530451874,7.340055652645246,25001.84715948283,92.1,40.97947876355113
1306893763.97,10.0658355,2.7585273,1032.38,0.2,5.5,12.5,904322.69,-304196.13,-1.0,127.7639802174833,46942398.44193945,26.176054301405557,7.629418051259451,24499.42455547754,91.5,40.989185675187166
1306893769.47,10.0676759,2.7648228,1036.84,0.2,6.5,12.5,904376.25,-303473.72,-1.0,127.92515512858341,47332382.53732541,25.78880970770455,7.464830509593396,25253.781896960143,92.3,40.99900741621954
1306893769.89,10.0678163,2.7653017,1037.62,0.2,10.0,12.5,904380.38,-303418.75,-1.0,127.47656633119178,46992684.881165296,26.771989775245657,7.13810647672811,25139.012516236104,91.2,41.00688471280747
1306893770.31,10.067959,2.7657879,1039.67,0.2,13.0,12.5,904384.56,-303362.97,-1.0,129.48737959681307,47141584.96746518,26.443180747552425,7.157730560571649,25307.056358462178,88.9,41.01458593765437
1306893770.73,10.0680973,2.7662595,1043.33,0.2,14.7,12.5,904388.63,-303308.84,-1.0,125.76030291488709,47073178.186903454,25.248853665182004,7.148150790137837,25821.379448597778,91.1,41.02395601639452
1306893771.15,10.0682338,2.7667258,1048.58,0.2,16.2,12.7,904392.56,-303255.34,-1.0,124.56913599502194,47370186.24137263,25.14263552978339,7.0938377464778455,25647.48258485158,91.29999999999998,41.03637290178385
1306893771.57,10.0683724,2.7672006,1055.49,0.2,15.6,12.7,904396.63,-303200.84,-1.0,127.4041044220974,47728058.66934715,24.89725080774145,7.433212700360967,25780.023555123236,92.0,41.05400304176635
1306893771.99,10.0685084,2.7676681,1063.19,0.2,12.6,12.7,904400.5,-303147.22,-1.0,125.56268060401682,47830599.67688099,26.546150414493006,7.213662096798397,25228.730949859877,91.1,41.07756603389234
1306893772.41,10.0686445,2.7681383,1070.79,0.2,9.7,12.7,904404.44,-303093.28,-1.0,126.29062519001366,48015426.19366382,27.28370978148481,7.2640310125803005,25118.55761198663,90.49999999999999,41.10702360169637
1306893772.83,10.0687809,2.7686112,1077.53,0.2,7.4,12.7,904408.31,-303039.03,-1.0,126.73464175026672,47732279.90077474,26.816763394497723,7.5694615159463305,25502.86657334054,89.89999999999999,41.14170973467975
1306893773.25,10.068918,2.7690882,1083.04,0.2,5.8,12.7,904412.13,-302984.34,-1.0,127.4305625762784,46317868.196932025,24.8086469667368,7.233054302299216,25676.769559317723,90.4,41.18049144946539
1306893773.67,10.0690562,2.7695704,1087.22,0.2,4.7,12.7,904416.0,-302929.03,-1.0,128.619665872769,45109570.73877911,23.60893392943848,7.104451057044492,25198.395746285416,87.3,41.21905881604457
1306893774.09,10.0691923,2.770046,1090.06,0.2,4.2,12.7,904419.81,-302874.5,-1.0,126.55261988317855,44032137.460127406,23.525111371830416,7.167361914013934,25755.468817395835,88.0,41.25920317299995
1306893774.51,10.0693318,2.7705343,1091.89,0.2,3.9,12.7,904423.69,-302818.5,-1.0,129.94864784169079,43004540.417733304,26.158733040470544,7.047676015757847,25655.448792944586,88.4,41.299179113507385
1306893774.93,10.0694691,2.7710148,1092.86,0.2,4.0,12.7,904427.5,-302763.41,-1.0,127.72383751456506,42606990.34729571,26.916399016242366,7.167232124261965,25757.485425735016,88.50000000000001,41.33709578017405
1306893775.35,10.069607,2.7714976,1093.23,0.2,4.1,12.7,904431.38,-302708.03,-1.0,128.40489309656826,43327805.54284784,27.121805078750786,6.976855822814871,26402.01401945166,89.7,41.3712766638136
1306893775.77,10.0697457,2.7719828,1093.23,0.2,4.4,12.7,904435.19,-302652.41,-1.0,128.9628704444231,43912992.683521084,28.799043489827444,6.807752886573752,26055.205592998096,89.10000000000001,41.40016773992909
1306893776.19,10.0698838,2.7724657,1093.03,0.2,4.7,12.7,904439.06,-302597.03,-1.0,128.4013146864279,44670904.478988096,27.330042684283736,7.12482591935191,26001.386156486293,90.9,41.42301113450477
1306893776.61,10.0700205,2.7729427,1092.77,0.2,4.9,12.7,904442.88,-302542.31,-1.0,126.82635465464271,45621666.62648038,25.444888216029803,7.155758134774034,26453.12921161423,88.9,41.43983746871299
1306893777.03,10.0701589,2.7734255,1092.52,0.2,5.1,12.7,904446.75,-302486.94,-1.0,128.3780411143749,46793020.98501429,23.87875476238478,6.884238109295386,26061.807051791802,88.10000000000001,41.45131275305244
1306893777.45,10.0702981,2.7739106,1092.36,0.2,5.3,12.7,904450.69,-302431.31,-1.0,129.00486020697517,47033173.484893985,24.596745369700077,6.9207848231347056,26110.687476488034,85.99999999999999,41.458447486210794
1306893780.4,10.0712743,2.7772953,1093.67,0.2,6.0,12.7,904478.31,-302043.06,-1.0,128.16324835326765,47087467.7259045,24.77005621199981,7.202988324943239,26274.984951787454,88.5,41.46338515025279
1306893780.61,10.0713471,2.777547,1093.91,0.2,7.1,12.7,904480.38,-302014.19,-1.0,134.05246427227135,47414625.58670854,25.779209523871568,7.5189368017518134,26562.746622585444,87.10000000000001,41.46633243809181
1306893780.82,10.0714163,2.7777859,1094.28,0.2,9.0,12.9,904482.38,-301986.78,-1.0,127.0997871960448,44312549.369070746,24.6935737698999,7.682780143789654,26058.552636620083,88.5,41.46816205313993
1306893781.03,10.0714848,2.7780221,1094.88,0.2,10.8,12.9,904484.31,-301959.69,-1.0,125.57919117655221,44670424.03614717,23.321165199337916,7.496088032169305,25364.947078883117,87.69999999999999,41.46970842234377
1306893781.25,10.0715571,2.7782715,1095.89,0.2,12.5,12.9,904486.38,-301931.09,-1.0,126.64108051975671,45817379.96050668,21.886764766203264,7.506594482083395,24413.8110025262,84.9,41.47174473030528
1306893781.46,10.0716291,2.7785201,1097.35,0.2,13.4,12.9,904488.44,-301902.56,-1.0,132.61080899992388,46446764.36922146,22.646510208290927,7.487765371121336,24148.68184403877,86.19999999999999,41.47489871105768
1306893781.67,10.071698,2.7787576,1099.17,0.2,14.2,12.9,904490.44,-301875.31,-1.0,126.62400097294419,47127842.66823517,22.34855074127779,7.3242108212154715,24308.318475915734,87.4,41.47959906101394
1306893781.88,10.0717663,2.7789931,1101.38,0.2,15.1,12.9,904492.38,-301848.28,-1.0,125.70554054386265,49990786.35130773,25.20976703912274,7.529392971011758,23547.908928692825,88.7,41.486190268363025
1306893782.09,10.0718339,2.7792268,1103.98,0.2,15.8,12.9,904494.31,-301821.5,-1.0,124.68938514883754,49351635.70802643,25.147775872637467,7.462927533690853,23737.316238227308,89.30000000000001,41.49496323424229
1306893782.3,10.071902,2.7794619,1106.99,0.2,16.3,12.9,904496.25,-301794.5,-1.0,125.93994358114557,48895131.0497843,23.518827411835055,7.727813966373443,23895.332735713513,91.5,41.50616292803057
1306893782.51,10.0719701,2.7796976,1110.38,0.3,16.0,12.9,904498.19,-301767.47,-1.0,126.30013514992429,50755635.385001965,22.782531734679505,7.687782020816049,23616.177209085166,89.00000000000001,41.51895492278122
1306893782.72,10.0720377,2.7799317,1114.05,0.3,15.0,13.0,904500.06,-301740.63,-1.0,125.56388864645155,49931286.87930839,20.815052139540796,7.523418966226136,23715.126130458768,89.30000000000001,41.53437268306118
1306893782.93,10.072107,2.7801726,1118.0,0.3,13.6,13.0,904502.06,-301713.0,-1.0,129.5065338242004,49422300.63448619,20.231661342037196,7.417803956135952,24160.73530965967,89.60000000000002,41.55253103826678
1306893783.14,10.0721738,2.7804047,1121.84,0.3,11.9,13.0,904503.94,-301686.38,-1.0,124.64711013873014,47198956.84081684,21.326891037528725,7.711537585221147,24087.705911146168,89.90000000000002,41.573169708433014
1306893783.36,10.0722444,2.7806508,1125.82,0.3,10.3,13.0,904505.88,-301658.16,-1.0,126.10392998405818,46566676.817582354,22.8156059499817,7.715235932511716,24558.065152002164,91.10000000000002,41.59608200064649
1306893783.57,10.0723118,2.7808863,1129.43,0.3,9.1,13.0,904507.81,-301631.16,-1.0,126.29425076941975,43567629.91995777,21.368072137845243,7.547838099346609,24605.92457287104,91.40000000000002,41.62064018087396
1306893783.78,10.0723822,2.7811327,1132.93,0.3,7.9,13.0,904509.75,-301602.88,-1.0,132.2611002160359,42845848.60578933,22.786892803335363,7.465580436233276,25331.3336087931,90.30000000000001,41.646484450340274
1306893783.99,10.0724483,2.781364,1135.92,0.3,7.0,13.0,904511.56,-301576.38,-1.0,123.53255956600495,41333641.28887218,21.069461148862096,7.4502112464047645,25195.713007979823,91.3,41.67292583266749
1306893784.21,10.0725189,2.781612,1138.76,0.3,6.1,13.0,904513.5,-301547.94,-1.0,126.45845467176404,43254513.323985934,20.922638472138996,7.440731332472142,24578.991670610674,92.4,41.69955094202882
1306893784.42,10.0725894,2.7818596,1141.24,0.3,5.4,13.0,904515.5,-301519.53,-1.0,132.3689988894528,42204329.11695442,22.297801555566757,7.518557596031075,24152.7604604525,91.2,41.72577032085647
1306893784.63,10.0726567,2.7820965,1143.26,0.3,4.9,13.0,904517.31,-301492.38,-1.0,126.16717073903106,39520594.800336696,23.5492668718901,7.600109712109734,24556.123957914922,92.00000000000001,41.750940924531015
1306893784.84,10.0727238,2.7823328,1144.96,0.3,4.5,13.0,904519.19,-301465.28,-1.0,125.8413629069006,42289251.90911044,23.27781521372229,7.5153236468160305,24184.8533528341,92.70000000000002,41.774603435467135
1306893785.05,10.0727927,2.7825755,1146.4,0.3,4.3,13.0,904521.06,-301437.47,-1.0,129.13585528080952,42661506.76897501,23.723592052607135,7.324498587070672,23700.699984363495,91.19999999999999,41.79634446783809
1306893785.26,10.0728607,2.7828153,1147.53,0.3,4.1,13.0,904522.94,-301409.97,-1.0,127.59585337820515,41480165.986752324,24.509951509790728,7.2546988156682755,24054.606338714882,91.10000000000001,41.8160109157821
1306893785.48,10.0729327,2.783069,1148.46,0.4,3.9,13.0,904524.88,-301380.88,-1.0,128.81735466443632,43989104.703788355,22.509108102326415,7.269849305889183,23656.587685843697,90.80000000000001,41.83334249933415
1306893786.11,10.0731401,2.7838005,1149.89,0.4,4.0,13.0,904530.56,-301297.03,-1.0,129.64534879067324,45759958.29830472,23.920128765890638,7.575756762400657,23699.972955716476,91.0,41.849005228992944
1306893786.32,10.0732082,2.7840405,1150.05,0.4,4.1,13.0,904532.44,-301269.5,-1.0,127.6272514364992,42521181.29798342,23.827364145304813,7.705143017067828,23228.318199390196,92.3,41.86211109076022
1306893786.53,10.0732779,2.7842863,1150.12,0.4,4.2,13.0,904534.31,-301241.31,-1.0,130.7609587619737,44869179.052945584,23.232099373566015,7.355124528558074,24208.123339118338,89.1,41.87298160694569
1306893786.74,10.0733454,2.784524,1150.1,0.4,4.3,13.0,904536.19,-301214.06,-1.0,126.29375725771516,45416459.657055415,24.37058033590694,7.6000694531282145,24353.629582279515,88.6,41.8816627093079
1306893786.95,10.0734171,2.7847768,1150.03,0.5,4.5,13.0,904538.13,-301185.09,-1.0,134.4878532744357,45195085.29517659,25.287925132508033,7.381833283271081,24661.446282539182,88.6,41.888391711932584
1306893787.16,10.073484,2.7850122,1149.92,0.5,4.6,13.0,904540.0,-301158.09,-1.0,125.1035466708798,44581752.63995312,24.728848440609962,7.158235723343263,24406.98091396248,89.9,41.89349013712944
1306893787.37,10.0735533,2.7852556,1149.78,0.5,4.7,13.0,904541.88,-301130.19,-1.0,129.386071074851,46980913.42992975,24.918326597738528,7.18762958583169,24701.237729664474,90.7,41.89717998839803
1306893787.58,10.0736209,2.7854933,1149.64,0.5,4.9,13.0,904543.75,-301102.94,-1.0,126.29281888070487,46529981.56670775,24.761336598255458,7.242956806534039,24763.616926409533,92.20000000000002,41.89966030335865
1306893787.79,10.0736903,2.7857368,1149.5,0.5,5.0,13.0,904545.69,-301075.03,-1.0,129.44941856848425,47347319.77727123,23.757068175727785,7.361060931819092,24602.74360156023,92.9,41.90116839609706
1306893788.0,10.0737593,2.7859791,1149.37,0.5,5.1,13.0,904547.56,-301047.25,-1.0,128.81251238262433,47913412.95580477,25.83701902197115,7.259562393545289,25507.70342647661,93.00000000000001,41.901865027768096
