timestamp,longitude,latitude,altitude,roll,pitch,yaw,u,v,heading,air_speed,engine_0,engine_1,temperature_in,humidity_in,pressure_in,heart_rate,oxygen_mask
1306893617.59,3.9538542,6.0867506,-1.0,-1.0,3.0,-1.0,369026.59,11743.58,-1.0,31.79822073914487,4800622.929289731,4800622.929289731,26.35030517145026,7.257531987944626,25347.11968654662,94.50000000000001,33.24275332634697
1306893625.78,3.9504321,6.0868,-1.0,-1.0,2.3,-1.0,368756.91,11729.18,-1.0,31.79822073914487,4764352.500421626,4764352.500421626,25.302647078648793,7.5566582012175685,24696.186103143387,92.9,33.21733009800051
1306893626.2,3.9501712,6.0868037,-1.0,-1.0,2.2,-1.0,368736.34,11728.08,-1.0,47.81023552160938,4722066.863520023,4722066.863520023,25.598688107354118,7.483196026764391,24368.90819888063,93.80000000000001,33.19192218024023
1306893627.88,3.9490367,6.08682,-1.0,-1.0,1.9,-1.0,368646.94,11723.31,-1.0,52.04495209031354,4762233.391487542,4762233.391487542,25.045447680372824,7.44904712563581,24513.587348193418,91.80000000000001,33.16653722835922
1306893628.72,3.9484251,6.0868288,-1.0,-1.0,1.8,-1.0,368598.72,11720.73,-1.0,56.23335135972337,4425010.842513833,4425010.842513833,27.05034970375392,7.47112800235442,24778.19304809637,92.5,33.14117524235747
1306893629.98,3.9474395,6.086843,32.07,-1.0,2.7,-1.0,368521.03,11716.58,-1.0,65.935287409717,4425010.842513833,4425010.842513833,27.05034970375392,7.471128002354421,24778.19304809637,92.5,33.14117524235747
1306893630.4,3.9470961,6.086848,32.13,-1.0,5.6,-1.0,368494.0,11715.14,-1.0,63.18489179930419,4762233.391487543,4762233.391487543,25.045447680372828,7.44904712563581,24513.58734819341,91.8,33.16653722835922
1306893630.82,3.9467466,6.086853,32.16,-1.0,7.5,-1.0,368466.44,11713.67,-1.0,64.4467773839091,4722066.863520023,4722066.863520023,25.598688107354118,7.483196026764392,24368.90819888062,93.8,33.19192218024024
1306893631.24,3.9463841,6.0868582,32.19,-1.0,8.7,-1.0,368437.88,11712.14,-1.0,66.82804411678242,4764352.5004216265,4764352.5004216265,25.302647078648796,7.5566582012175685,24696.186103143384,92.89999999999999,33.21733009800052
1306893631.66,3.9460192,6.0868634,32.21,-1.0,9.5,-1.0,368409.13,11710.61,-1.0,67.28040081763899,4800622.92928973,4800622.92928973,26.35030517145026,7.257531987944626,25347.119686546615,94.5,33.24275332634697
1306893632.08,3.9456433,6.0868688,32.23,-1.0,10.0,-1.0,368379.5,11709.02,-1.0,69.37630241529608,4644031.871100844,4644031.871100844,26.590640323962106,7.20589539741274,25191.795694264827,93.2,33.26819186527961
1306893632.5,3.945259,6.0868743,32.24,-1.0,10.4,-1.0,368349.19,11707.41,-1.0,70.99554488114254,4331098.225332658,4331098.225332658,25.25613349622491,6.991990291556726,25259.326927625203,93.00000000000001,33.293638059505334
1306893632.92,3.9448741,6.0868799,32.3,-1.0,10.8,-1.0,368318.88,11705.79,-1.0,70.99583228483264,4569347.27639733,4569347.27639733,25.8302499933759,7.238185099883714,25236.61538223207,89.8,33.31913018548958
1306893633.34,3.9444746,6.0868856,32.53,-1.0,11.3,-1.0,368287.38,11704.1,-1.0,73.83224858279205,4611668.411211412,4611668.411211412,26.169591318827372,7.267903196137922,25435.009647728326,88.9,33.344798383214865
1306893633.76,3.9440704,6.0868913,32.99,-1.0,11.7,-1.0,368255.53,11702.4,-1.0,74.67171304423009,4771353.1508566355,4771353.1508566355,25.688831386314977,7.0767061039700145,24665.47295990553,88.70000000000002,33.370818724422215
1306893634.18,3.9436637,6.0868971,33.74,-1.0,11.9,-1.0,368223.47,11700.67,-1.0,75.1855157210988,4906159.710544942,4906159.710544942,25.763325661402085,7.312936761903332,24417.21329840855,91.1,33.37209715836797
1306893635.02,3.9428258,6.0869085,36.26,-1.0,12.2,-1.0,368157.44,11697.08,-1.0,77.49770835925423,4986756.938535207,4986756.938535207,25.25255733758307,7.420068728261118,23939.486840196256,92.70000000000002,33.37525879441346
1306893635.86,3.941963,6.0869195,40.24,-1.0,12.3,-1.0,368089.47,11693.29,-1.0,79.8925748287948,5124188.390025081,5124188.390025081,24.90239743328651,7.492445239296854,24441.201399727383,90.50000000000001,33.38144427122886
1306893637.13,3.9406266,6.0869338,48.95,-1.0,12.3,-1.0,367984.16,11687.13,-1.0,82.04875438593746,5320197.175516037,5320197.175516037,24.872447601677937,7.518438032408682,24124.192294312623,90.0,33.39427454244496
1306893637.55,3.9401833,6.0869376,52.43,-1.0,12.1,-1.0,367949.25,11684.99,-1.0,82.3818411431118,5360769.623465242,5360769.623465242,22.20216963618291,7.649075048566049,23410.751206004108,89.9,33.409753545069634
1306893638.81,3.9388002,6.0869457,64.85,0.3,11.9,-1.0,367840.34,11677.87,-1.0,85.86136812175324,5477178.583006651,5477178.583006651,22.8542310288382,7.541689293809294,23614.51547845269,89.10000000000001,33.434725111123875
1306893640.07,3.9373895,6.0869472,79.47,0.3,11.7,-1.0,367729.31,11669.85,-1.0,87.7673911332461,5709693.381819277,5709693.381819277,22.831918657581323,7.704851315353718,24041.539015141683,91.4,33.470881060380215
1306893640.91,3.9364312,6.0869438,90.28,0.8,11.7,271.4,367653.94,11663.92,-1.0,89.55857549275278,5842571.094351165,5842571.094351165,20.659432852109877,7.7300103796768,24247.208791504487,91.30000000000001,33.51526644970655
1306893641.33,3.9359449,6.0869407,95.99,0.9,11.7,271.4,367615.69,11660.76,-1.0,91.01448587967425,6116655.913404282,6116655.913404282,21.902992092489512,7.936659304918667,24240.242801835997,93.7,33.563846939645316
1306893641.75,3.935448,6.0869366,101.97,1.1,11.5,271.4,367576.63,11657.43,-1.0,93.03488999626688,6513408.41958162,6513408.41958162,21.34151908866544,8.220157915740344,24566.88239270225,93.00000000000001,33.616653151368844
1306893642.17,3.9349604,6.0869317,107.97,1.3,11.5,271.4,367538.28,11654.06,-1.0,91.37895188790708,7016592.222964438,7016592.222964438,20.07219369432342,8.230174131402517,25034.13947796548,91.9,33.67347839196377
1306893642.59,3.9344612,6.0869257,114.21,1.4,11.5,271.4,367499.06,11650.5,-1.0,93.53542379981529,7295445.041516465,7295445.041516465,21.028545300682264,8.286312618364887,25647.8784628484,90.9,33.73315140158756
1306893643.01,3.9339643,6.0869188,120.45,1.6,11.2,271.4,367460.0,11646.86,-1.0,93.17040647646579,7693801.757755963,7693801.757755963,22.623128146922067,8.406504212198133,25029.518380214944,93.9,33.794554507449334
1306893643.43,3.9334575,6.0869109,126.78,1.9,11.1,271.7,367420.19,11643.04,-1.0,94.98934675667866,7891112.471099919,7891112.471099919,20.7966195878121,8.491537246169143,25024.172923847465,94.80000000000001,33.85413565355607
1306893643.85,3.932948,6.086902,133.06,2.1,10.9,271.8,367380.16,11639.11,-1.0,95.50291567020072,7926174.514274842,7926174.514274842,23.132130512538506,8.629830647386406,24980.162521156384,93.9,33.915860281727554
1306893644.27,3.9324317,6.0868922,139.28,2.3,10.8,271.8,367339.63,11635.02,-1.0,96.67873601512851,8044686.741599054,8044686.741599054,22.188544053670462,8.570805856723114,24759.248660669113,95.60000000000001,33.97283862818424
1306893644.69,3.9319147,6.0868816,145.34,2.6,10.8,271.8,367299.03,11630.85,-1.0,96.79820364845348,8276983.892970587,8276983.892970587,24.239468150644633,8.43335823660129,25041.949187964317,93.9,34.0232640437573
1306893645.11,3.9313968,6.0868703,151.22,2.8,10.5,271.8,367258.34,11626.6,-1.0,96.95985191842288,8449246.959179139,8449246.959179139,23.809700687412246,8.32741828388936,24378.569303421235,96.7,34.06991539983779
1306893645.54,3.9308541,6.0868579,157.15,3.1,10.5,271.8,367215.75,11622.08,-1.0,99.09604566389353,8632115.331132839,8632115.331132839,24.592348768497818,8.30982146110024,24390.083325834774,96.10000000000002,34.11673517236622
1306893645.96,3.9303252,6.0868454,162.7,3.4,10.5,271.8,367174.22,11617.62,-1.0,98.86160824780889,8989529.190989114,8989529.190989114,23.181041996885625,8.264726250233368,24819.885904531788,97.00000000000001,34.163225767291856
1306893646.38,3.9297912,6.0868323,168.07,3.7,10.5,272.4,367132.31,11613.09,-1.0,99.71224443518877,9031418.763472864,9031418.763472864,24.771078563807556,8.13456566980679,24514.16023687983,95.3,34.20923407875292
1306893646.8,3.929252,6.086819,173.25,3.9,10.5,272.5,367090.0,11608.48,-1.0,100.6119765076568,9209784.807372503,9209784.807372503,24.86142603848073,7.800539397163577,24388.555048269576,95.0,34.25443092914663
1306893647.22,3.9287009,6.0868052,178.32,4.2,10.5,272.5,367046.72,11603.76,-1.0,102.88650704315029,9413991.315398538,9413991.315398538,23.345620360014017,7.82783117072105,24565.17113991858,92.10000000000001,34.29873211024899
1306893647.64,3.9281468,6.0867915,183.18,4.5,10.5,272.8,367003.25,11599.03,-1.0,103.27905358600394,9802872.73623383,9802872.73623383,24.33486048069434,7.804691761536816,24733.493971464228,92.60000000000001,34.34190796326736
1306893648.06,3.9275857,6.0867786,187.87,4.7,10.5,272.9,366959.19,11594.35,-1.0,104.61826092199007,10120977.827211834,10120977.827211834,22.377554277178707,7.628477270790902,24858.785179012793,92.60000000000001,34.383866624684686
1306893648.48,3.9270242,6.0867669,192.35,4.9,10.5,273.1,366915.09,11589.8,-1.0,104.63806440789338,10647093.986407112,10647093.986407112,22.992758048010764,7.950324946048353,24763.835065259016,91.89999999999999,34.42449326510463
1306893648.9,3.9264515,6.0867563,196.7,5.1,10.5,273.1,366870.13,11585.31,-1.0,106.6297635214017,11049775.803000718,11049775.803000718,22.21218656004413,7.832285184269928,24436.936353095436,91.60000000000001,34.46381085040647
1306893649.32,3.9258754,6.0867471,200.85,5.3,10.5,273.4,366824.84,11580.96,-1.0,107.343044632232,11377081.858742883,11377081.858742883,23.90925004958838,7.80137080393908,25239.21594096158,88.3,34.50180407000402
1306893649.74,3.9252919,6.0867392,204.85,5.4,10.5,273.6,366779.0,11576.7,-1.0,108.59888077250004,11722687.890330391,11722687.890330391,21.15499428924038,7.661543272898583,25082.291436656582,87.2,34.53831981803552
1306893650.16,3.9247105,6.0867328,208.62,5.4,10.5,273.8,366733.31,11572.63,-1.0,108.16977491326429,12009608.845806485,12009608.845806485,21.917159279350923,7.572849450864888,24395.064945667273,86.3,34.57347292389728
1306893650.58,3.9241088,6.0867278,212.37,5.4,10.5,273.9,366686.0,11568.59,-1.0,112.00002781927914,12188317.002969028,12188317.002969028,21.275749340815395,7.405194748443858,24578.78611604821,86.70000000000002,34.60738587227873
1306893651.0,3.9235094,6.0867244,216.02,5.4,10.5,274.1,366638.84,11564.75,-1.0,111.60022929142772,12666500.077358235,12666500.077358235,20.85132942017861,7.601437794893657,24336.957705027875,87.80000000000001,34.64012756081767
1306893651.21,3.923214,6.0867233,217.81,5.4,10.7,274.2,366615.63,11562.93,-1.0,109.8092277595223,13062206.536440894,13062206.536440894,22.51801459308587,7.38813658106956,24324.764070584304,90.80000000000001,34.670358313223616
1306893651.42,3.9228983,6.0867227,219.74,5.3,10.8,274.3,366590.78,11561.03,-1.0,117.65620638424873,12905214.473160105,12905214.473160105,23.391110559179282,7.495210119330522,23625.85051740628,87.30000000000001,34.69834606475467
1306893651.63,3.9226029,6.0867224,221.56,5.3,10.9,274.4,366567.53,11559.29,-1.0,109.9925106612983,14545488.074107578,14545488.074107578,23.085372008699867,7.668395410318918,24202.93149658732,87.60000000000001,34.72413674716937
1306893651.84,3.9222959,6.0867226,223.47,5.2,10.9,274.5,366543.38,11557.54,-1.0,114.29680290428875,14237234.60854151,14237234.60854151,24.126168637323676,7.343719860925551,24185.388226395553,88.1,34.74796001926036
1306893652.05,3.9219889,6.0867232,225.4,5.1,11.0,274.6,366519.19,11555.83,-1.0,114.48593186424168,14616851.03662174,14616851.03662174,24.579069300449262,7.575352860175418,24436.342217698973,89.69999999999999,34.769930710423964
1306893652.26,3.9216805,6.0867243,227.38,5.0,11.1,274.7,366494.94,11554.16,-1.0,114.78208851940529,15506380.66840829,15506380.66840829,24.310783348963625,7.5869252851293325,24395.91637495102,93.19999999999999,34.7902402029874
1306893652.47,3.9213588,6.0867258,229.48,4.9,11.1,274.8,366469.59,11552.47,-1.0,120.04920056016668,15199885.850058347,15199885.850058347,24.167268656489455,7.825276466799879,24518.41604118523,92.4,34.80909518986404
1306893652.68,3.9210491,6.0867275,231.55,5.1,13.4,274.9,366445.22,11550.88,-1.0,115.37258305581499,15864792.022863863,15864792.022863863,25.517200027330084,8.003700823527709,24843.935169531673,93.5,34.826648776915654
1306893652.89,3.9207414,6.0867298,233.77,8.4,16.2,275.1,366420.97,11549.35,-1.0,114.85715538397343,16625549.080136368,16625549.080136368,25.653894116338364,7.935294728506,24627.313359125576,94.7,34.84303110412475
1306893653.1,3.9204272,6.086733,236.35,16.3,17.5,275.4,366396.22,11547.89,-1.0,117.3834648260279,16264624.527002597,16264624.527002597,27.165894283638764,7.996861590942566,24835.911341761377,94.80000000000001,34.85859431497339
1306893653.31,3.9201083,6.0867382,239.29,25.2,18.2,276.0,366371.09,11546.63,-1.0,119.34663464410225,15923922.887441745,15923922.887441745,25.16152247617521,8.125444116588545,25644.456568708483,92.2,34.8750378845272
1306893653.52,3.9197924,6.0867464,242.5,33.4,18.8,276.9,366346.16,11545.71,-1.0,118.53562418929425,16468513.46361636,16468513.46361636,24.067072948042505,8.04169983034896,26245.123807858054,94.8,34.892461331596316
1306893653.73,3.9194768,6.0867583,245.96,37.5,19.3,277.9,366321.22,11545.21,-1.0,118.74257270677685,15002461.780234225,15002461.780234225,26.10688152606434,7.973163593945909,26027.766873273475,94.3,34.911140246731925
1306893653.94,3.9191721,6.086774,249.51,38.9,19.7,279.1,366297.13,11545.2,-1.0,114.84248432634124,15566868.851243103,15566868.851243103,24.57073408059791,8.101182903546734,25968.700107157125,94.40000000000002,34.931074629934024
1306893654.15,3.9188591,6.0867945,253.36,39.1,20.1,280.1,366272.31,11545.66,-1.0,118.57758352268466,14889989.024067543,14889989.024067543,22.4735038779752,7.8480030472469196,25432.22313131766,91.80000000000001,34.95247882940909
1306893654.36,3.9185366,6.0868204,257.56,39.9,20.6,281.3,366246.72,11546.67,-1.0,122.60632865160507,14049290.488826374,14049290.488826374,22.68291170568673,7.8085894011300905,25145.348565090324,90.90000000000002,34.975582503949774
1306893654.57,3.9182329,6.0868493,261.71,41.9,21.0,282.5,366222.59,11548.13,-1.0,115.90017492691182,15044072.52460794,15044072.52460794,24.052160860938695,7.651250160780352,25628.830601052843,90.90000000000002,35.00025551357357
1306893654.78,3.9179246,6.0868834,266.12,45.0,21.4,283.8,366198.06,11550.13,-1.0,118.23743089405136,13708734.57123218,13708734.57123218,22.39991261491327,7.538242468191532,25707.09090282125,89.7,35.026719861780045
1306893654.99,3.917612,6.0869231,270.78,47.7,21.6,285.0,366173.13,11552.74,-1.0,120.66153055976211,13461053.001805793,13461053.001805793,20.579379516661405,7.567283971568776,26345.981664876945,89.9,35.055052101500074
1306893655.2,3.9173055,6.0869676,275.5,49.6,21.9,286.4,366148.66,11555.92,-1.0,118.97537725765987,14286553.943370493,14286553.943370493,21.01293307145689,7.516820399140324,26529.35349923612,90.20000000000002,35.08502257394103
1306893655.41,3.917004,6.0870169,280.28,50.3,22.1,287.8,366124.53,11559.65,-1.0,117.90327631437764,13438562.169100573,13438562.169100573,22.9561040737138,7.397600256075821,26420.45134672064,92.80000000000003,35.11640162031023
1306893655.62,3.9167032,6.0870717,285.19,50.5,22.3,289.2,366100.41,11564.0,-1.0,118.54387956400873,12636098.369947193,12636098.369947193,22.42662234155016,7.440632349513303,26021.11376738018,89.8,35.149082066504455
1306893655.83,3.916392,6.0871345,290.42,50.7,22.5,290.6,366075.41,11569.18,-1.0,123.70457339371376,12906364.860552315,12906364.860552315,22.064781922251402,7.3102158181300965,26063.71710821665,90.10000000000001,35.18311749957532
1306893656.04,3.9161076,6.0871976,295.34,51.4,22.7,292.1,366052.5,11574.55,-1.0,114.17468948267225,12424811.042377109,12424811.042377109,22.569381014432324,7.27310305014738,26746.55484434357,89.5,35.21820170779929
1306893656.25,3.915812,6.0872691,300.59,52.3,22.9,293.4,366028.66,11580.78,-1.0,119.75626302229861,10682907.469500497,10682907.469500497,22.884302507137896,7.46432884790027,26806.860099556172,89.1,35.254357657055635
1306893656.46,3.9155168,6.0873467,305.99,53.4,23.1,295.0,366004.81,11587.7,-1.0,120.89918446148205,11478982.522151003,11478982.522151003,22.638311586484278,7.345612305746001,26966.627515090106,87.8,35.29143224148259
1306893656.67,3.9152237,6.0874303,311.48,54.1,23.2,296.4,365981.06,11595.29,-1.0,121.5491285069277,11211800.468111232,11211800.468111232,22.84880483467705,7.321068229261947,26791.391103502778,89.5,35.32953263518338
1306893668.01,3.9096001,6.0970492,666.96,54.1,23.2,20.4,365460.19,12631.37,-1.0,104.68288505126212,10325732.919258077,10325732.919258077,24.10233532408944,7.4051872570071735,26478.481653664723,87.8,35.63638740333735
1306893668.43,3.909859,6.0974431,681.99,54.1,23.2,23.5,365477.34,12676.62,-1.0,116.746185682151,10188211.66623466,10188211.66623466,24.06857642826471,7.414546350479587,26005.441401916563,88.8,35.95118071042397
1306893668.85,3.9101498,6.0978268,697.12,54.1,23.2,26.6,365497.09,12720.92,-1.0,117.05489549079893,13285716.771899205,13285716.771899205,22.122639179185086,7.1909942003641305,25726.17859386312,86.5,36.27394317761557
1306893669.27,3.9104658,6.0981931,712.07,57.4,23.2,29.6,365518.97,12763.43,-1.0,115.34827455120335,14589723.36986341,14589723.36986341,20.753489954404156,7.1053325619907,25789.261788477233,83.7,36.60449107787804
1306893669.69,3.9108163,6.0985535,727.35,57.3,27.4,32.6,365543.63,12805.49,-1.0,117.73960352204965,15386784.001487073,15386784.001487073,20.506116879997318,6.82197083078376,25467.692387336938,87.0,36.94297751707314
1306893670.11,3.9111924,6.0988984,742.57,57.2,27.4,35.6,365570.41,12845.97,-1.0,117.21729042576524,17667169.805831634,17667169.805831634,19.750437337944135,6.985552784744491,24960.004510065857,86.10000000000001,37.28911159406352
1306893670.53,3.9115949,6.0992295,757.84,57.2,27.4,38.6,365599.38,12885.08,-1.0,117.58809697592608,16035244.419746287,16035244.419746287,19.620565379267045,7.180518658401853,25156.27097821927,84.80000000000001,37.64316889940035
1306893670.95,3.9120298,6.0995516,773.38,57.0,25.9,41.3,365630.97,12923.37,-1.0,120.02001712561878,13908619.628159504,13908619.628159504,20.723347543677175,6.971162546009182,25297.81157249202,88.30000000000001,38.00510350132511
1306893671.37,3.912476,6.0998539,788.38,56.7,22.2,43.5,365663.59,12959.52,-1.0,117.52185924202233,12975977.141915062,12975977.141915062,20.87780351793123,7.061603095935097,24942.415483243683,90.8,38.37438718461469
1306893671.79,3.9129471,6.1001547,803.07,56.3,16.9,44.7,365698.22,12995.66,-1.0,120.43119114974353,12514687.481827151,12514687.481827151,21.515201624092406,7.103724233108525,24707.06594960125,91.2,38.750713737545574
1306893672.21,3.9134177,6.1004486,816.32,55.8,12.4,44.7,365732.84,13031.03,-1.0,118.20766643973897,12093167.225129122,12093167.225129122,21.61082953964177,6.971559543177147,25037.166074778004,94.9,38.865053195113376
1306893672.63,3.9139061,6.1007544,828.34,55.5,9.6,44.9,365768.78,13067.82,-1.0,121.93928546497239,11109465.162104838,11109465.162104838,22.853979786726363,7.183364805266024,24910.639416395476,91.9,38.97708840946158
1306893673.05,3.9143879,6.1010592,838.39,55.5,7.9,44.7,365804.19,13104.46,-1.0,119.8050655771202,9788548.879966047,9788548.879966047,23.04744506552413,7.2878923599445,24439.00193016371,91.0,39.0852347349209
1306893673.47,3.9148724,6.1013684,846.74,55.5,7.0,44.7,365839.81,13141.6,-1.0,120.245581118188,8495994.51439473,8495994.51439473,24.580926584915883,7.537527253381719,24392.111438443186,92.4,39.1883285669419
1306893673.89,3.9153759,6.1016895,853.7,55.6,7.0,44.9,365876.78,13180.18,-1.0,124.39799523545558,7200453.853147713,7200453.853147713,26.365158875778928,7.733789700454712,24994.167234961584,89.9,39.285053195113385
1306893674.31,3.9158712,6.1020016,859.06,56.0,6.9,45.5,365913.22,13217.71,-1.0,121.29544322599234,6205193.406017858,6205193.406017858,26.283409647663483,7.750815907218874,25607.94166173239,89.5,39.37422970429973
1306893674.73,3.9163977,6.1023249,863.42,56.5,7.2,46.5,365952.0,13256.66,-1.0,127.37865216418619,5910825.369785385,5910825.369785385,25.941664464969413,7.479627655781474,25294.62038192125,92.90000000000002,39.45505428872667
1306893675.15,3.9169148,6.1026304,866.65,56.9,7.5,47.7,365990.19,13293.58,-1.0,122.82854370018407,5476485.34121418,5476485.34121418,27.23959633212286,7.727104744145935,25052.466037344726,92.4,39.52645520736185
1306893675.57,3.9174731,6.1029435,869.25,57.5,8.0,49.3,366031.56,13331.6,-1.0,130.07730561545407,5486389.078359659,5486389.078359659,27.174674608800196,7.7685748585914975,24764.94245396517,89.5,39.588363562567444
1306893675.99,3.9180385,6.1032409,871.18,58.0,8.4,51.1,366073.63,13367.9,-1.0,128.5812402467413,5281320.191326367,5281320.191326367,26.821269164048463,7.55828613639397,24308.338563295765,90.30000000000001,39.64050376379229
1306893676.41,3.9186222,6.1035258,872.65,58.5,8.7,53.3,366117.22,13402.91,-1.0,129.42140378960917,5617517.750487908,5617517.750487908,24.827930579136705,7.432731277577691,23679.002153382975,88.20000000000002,39.68362602975905
1306893676.83,3.919217,6.1037923,873.77,59.0,9.1,55.6,366161.84,13435.96,-1.0,128.56390444587618,6039665.26886707,6039665.26886707,24.473337413429803,7.257489380273736,23933.488717096072,88.70000000000002,39.71840402625948
1306893677.25,3.9198505,6.1040499,874.67,59.3,9.5,58.1,366209.56,13468.24,-1.0,133.60234721937317,6791694.582457927,6791694.582457927,24.28689950849943,7.172567824814908,24838.78056323786,88.60000000000001,39.74617742958407
1306893677.68,3.9204959,6.1042849,875.37,59.3,9.7,60.8,366258.44,13498.06,-1.0,129.68165581966542,7352548.0967033645,7352548.0967033645,22.729267515870635,7.075769647037906,24798.823552055765,86.3,39.76809453369606
1306893678.1,3.9211647,6.1045002,875.95,59.7,9.9,63.5,366309.28,13525.85,-1.0,134.5801368833063,8028570.272002248,8028570.272002248,20.97911430362997,7.176543221825073,25147.7800877341,87.9,39.78512756081767
1306893678.52,3.9218304,6.1046871,876.43,59.8,10.1,66.3,366360.13,13550.46,-1.0,131.25460074990016,8469117.751230987,8469117.751230987,20.6870420936169,6.988207522240403,24574.232622939555,88.5,39.79842480491215
1306893678.94,3.9225236,6.104854,876.86,59.9,10.2,69.2,366413.28,13573.0,-1.0,134.33507613058322,8537186.502033336,8537186.502033336,21.68644820783545,7.269816358515293,24060.54983296531,87.70000000000002,39.808713518822906
1306893679.36,3.9232268,6.1049954,877.25,59.9,10.3,72.0,366467.47,13592.79,-1.0,134.37801817123602,8945061.432661362,8945061.432661362,21.552003081503248,7.17911237476221,24708.861910513413,84.80000000000001,39.816828129496585
1306893679.78,3.9239399,6.1051114,877.61,60.0,10.4,75.0,366522.63,13609.79,-1.0,134.59869946663028,8963462.929536855,8963462.929536855,20.26966480799863,7.089079168839886,24645.465870669672,87.00000000000001,39.82322795451846
1306893680.0,3.9243071,6.1051606,877.79,60.0,10.4,76.5,366551.09,13617.38,-1.0,131.17305532807646,9292001.459465891,9292001.459465891,20.55652239144942,7.084927800478076,25134.96602617895,87.70000000000002,39.82828810324986
1306893680.42,3.9250434,6.1052384,878.15,60.0,10.4,79.4,366608.38,13630.28,-1.0,137.23087175596956,10422154.303960364,10422154.303960364,21.26497783671842,7.126986530696643,25412.30713257276,87.4,39.83249851444847
1306893680.84,3.925783,6.105289,878.5,60.0,10.4,82.4,366666.16,13640.19,-1.0,137.1610432291321,11346991.09724908,11346991.09724908,20.926740334486087,7.151930918816451,25371.400084132816,87.80000000000001,39.83611946807926
1306893681.26,3.9265193,6.1053128,878.84,60.0,10.4,85.3,366723.88,13647.09,-1.0,136.16189648355277,12343074.416059624,12343074.416059624,22.966053425601082,7.508084509296728,25045.39870079727,88.4,39.839311725297115
1306893681.68,3.9272617,6.1053104,879.2,60.0,10.2,88.2,366782.31,13651.12,-1.0,137.38124913023788,13933222.00588982,13933222.00588982,22.291316411887824,7.510885737327994,24573.555502169027,91.5,39.84224370254995
1306893682.11,3.9280338,6.1052802,879.57,60.0,10.1,91.1,366843.28,13652.23,-1.0,139.92919472421517,14457384.405051483,14457384.405051483,24.99245865018895,7.354747911057235,23985.448239985195,92.70000000000002,39.845014918647934
1306893682.53,3.9287966,6.1052229,879.94,60.1,10.0,94.0,366903.78,13650.27,-1.0,142.42592498754678,15125088.076434763,15125088.076434763,24.83508773705723,7.532378994101079,24277.234697969714,91.39999999999999,39.84770192652195
1306893682.96,3.9295702,6.1051367,880.33,60.1,10.0,97.0,366965.34,13645.18,-1.0,142.1453364138354,15908303.823644102,15908303.823644102,25.86268964820057,7.4781108081790695,24821.960995191177,89.0,39.850358313223616
1306893683.38,3.9303401,6.105023,880.72,60.1,9.7,99.9,367026.84,13637.0,-1.0,146.40389205746098,16661882.778112657,16661882.778112657,23.94154430198267,7.458959841845819,24033.61769112437,90.5,39.853014699925275
1306893683.8,3.9310866,6.1048856,881.11,60.1,9.6,102.8,367086.69,13626.06,-1.0,143.7396208755808,17011370.110091396,17011370.110091396,25.523868906095466,7.555970623047379,24802.86852381075,90.60000000000001,39.8556940525062
1306893684.22,3.9318478,6.1047176,881.51,60.1,9.6,105.6,367147.94,13611.8,-1.0,148.80192645898603,18705975.248504438,18705975.248504438,25.856909657708396,7.877416099318409,24470.099135519486,89.90000000000002,39.85854182153508
1306893684.64,3.9326002,6.104523,881.91,60.1,9.3,108.4,367208.72,13594.55,-1.0,149.6909059806915,19695790.61567608,19695790.61567608,26.726875436903907,8.11489056982738,24988.155667743744,91.70000000000002,39.8614202117363
1306893685.06,3.9333439,6.104302,882.33,60.1,9.3,111.2,367269.03,13574.3,-1.0,150.92771915837122,20801984.345371604,20801984.345371604,26.576212990012927,8.111678138603386,25232.35779671226,93.30000000000003,39.864352188989145
1306893685.48,3.9340703,6.1040573,882.74,60.1,9.0,113.9,367328.19,13551.33,-1.0,150.74615958745645,22228917.920932513,22228917.920932513,26.705648071095226,7.790457094638242,24745.302305430872,93.30000000000003,39.867337753293604
1306893685.9,3.9348003,6.1037814,883.16,60.1,8.9,116.7,367387.88,13524.9,-1.0,155.26171328290383,23547302.19920003,23547302.19920003,27.712230502808005,7.817321646809238,25265.303000959793,93.7,39.8703692493566
1306893686.32,3.9354997,6.1034872,883.58,60.1,8.7,119.4,367445.31,13496.27,-1.0,152.81008650738542,24286125.337455146,24286125.337455146,27.59150179550373,7.883215551152345,25740.573521596358,93.50000000000001,39.873439021885034
1306893686.74,3.9361975,6.1031627,884.01,60.1,8.6,122.1,367502.84,13464.27,-1.0,156.9470127065248,25466284.333335537,25466284.333335537,28.937437711296138,7.788302531770496,25555.087419719366,93.70000000000002,39.876554726172
1306893687.16,3.9368945,6.1028054,884.45,60.1,8.4,124.8,367560.63,13428.62,-1.0,162.0604709518802,26354442.45937096,26354442.45937096,27.934430866441183,7.8423769045881935,25773.07064579938,95.20000000000002,39.8797087069244
1306893687.58,3.9375552,6.1024335,884.88,60.1,8.3,127.5,367615.63,13391.14,-1.0,159.04430966249384,26485766.41648516,26485766.41648516,30.21713850827723,7.90074335704558,26527.592471901327,93.60000000000001,39.882893308849155
1306893688.0,3.9381917,6.1020419,885.32,60.1,8.3,130.1,367668.91,13351.33,-1.0,159.1106693817541,27461602.620184727,27461602.620184727,29.254491568456448,7.729781841048722,25723.98632019634,92.10000000000001,39.88611618723936
1306893688.42,3.9388236,6.1016174,885.77,60.1,8.0,132.7,367722.09,13307.83,-1.0,164.51120518265003,28007557.83593579,28007557.83593579,27.88316075252966,7.455583941202239,26148.459433690743,91.7,39.889377342095
1306893688.84,3.9394354,6.1011687,886.22,60.1,7.9,135.3,367773.91,13261.54,-1.0,166.5395167079439,28432323.795994114,28432323.795994114,28.73092105519879,7.196848573323247,26317.469666072335,89.1,39.89267677341609
1306893689.26,3.9400143,6.1007056,886.67,60.1,7.9,137.9,367823.25,13213.44,-1.0,165.33408804890905,29330671.555015095,29330671.555015095,30.759569349830855,7.2649915040679955,26398.980402278386,90.0,39.89599917061644
1306893689.68,3.9405793,6.1002135,887.15,44.8,6.5,140.3,367871.72,13162.06,-1.0,169.61096380074724,30318810.153521776,30318810.153521776,28.078919729134203,7.254317717339209,26990.09911481182,91.7,39.89937515486841
1306893690.1,3.9411145,6.0997194,887.88,3.2,4.4,141.2,367917.88,13110.27,-1.0,166.72711024733468,31035019.274820413,31035019.274820413,29.212880514981617,7.107682587779483,26544.971086206693,91.00000000000001,39.90298845320611
1306893690.52,3.9416629,6.0992093,888.94,-21.2,4.5,140.8,367965.19,13056.79,-1.0,171.5762818860993,31811437.698603958,31811437.698603958,28.376943864427517,7.039035707164759,26172.869375209124,87.9,39.90709169030148
1306893690.94,3.9422231,6.0986979,890.14,-24.5,4.3,140.2,368013.47,13003.23,-1.0,173.2257527960941,31891311.285171486,31891311.285171486,28.264647160962298,6.815916800184012,26609.926650484413,91.0,39.91178438496465
1306893691.36,3.9427877,6.0981947,891.36,-32.9,4.5,139.4,368062.0,12950.61,-1.0,171.93086217848742,31041939.39380926,31041939.39380926,27.49475606662942,6.838937065952331,26472.739940375664,90.50000000000001,39.917074192488705
1306893691.78,3.9433699,6.097692,892.59,-45.1,5.3,138.3,368111.94,12898.14,-1.0,173.90483108077942,29136421.328105886,29136421.328105886,25.95751693352738,6.7691197753350565,26501.69015589297,91.8,39.922976423459836
1306893692.2,3.9439796,6.0971899,893.83,-49.3,5.6,136.8,368164.0,12845.9,-1.0,176.9448367824911,26328347.56832793,26328347.56832793,25.021328055248667,6.760903567185142,26571.419308919583,93.10000000000002,39.92949107787803
1306893692.62,3.9445984,6.0967069,895.02,-50.0,5.4,135.2,368216.66,12795.84,-1.0,174.2336208489885,23258403.494366422,23258403.494366422,26.67841675627429,6.986180854775741,26603.95233951926,91.0,39.93657222398476
1306893693.04,3.9452472,6.0962276,896.19,-53.4,5.8,133.5,368271.63,12746.35,-1.0,177.24083028682824,19961967.804344606,19961967.804344606,24.350672790781037,6.936750577936742,26464.912036909613,92.4,39.94420455119386
1306893693.46,3.945922,6.0957587,897.32,-56.4,6.2,131.5,368328.56,12698.18,-1.0,178.56608359715065,17082342.209861685,17082342.209861685,24.072528858243594,7.089277924687794,25792.918347147934,89.80000000000001,39.952357438332974
1306893693.88,3.9466312,6.0952986,898.44,-56.4,6.1,129.5,368388.16,12651.19,-1.0,181.57258681834912,14924359.932466727,14924359.932466727,26.772640729551988,7.03844088301859,25151.589175873414,88.30000000000001,39.96100026422974
1306893694.3,3.9473527,6.0948621,899.49,-57.4,6.1,127.4,368448.5,12606.89,-1.0,178.95600654999936,12929501.792690221,12929501.792690221,24.555277747954616,6.9915672647431535,25189.651443914987,89.10000000000001,39.96988805950533
1306893694.72,3.9481046,6.0944385,900.51,-58.5,6.1,125.3,368511.13,12564.2,-1.0,181.0491602449075,11586358.209817294,11586358.209817294,24.850626216783695,7.121711752665894,25483.57067268267,89.10000000000001,39.97874523360857
1306893695.14,3.9488799,6.0940335,901.48,-59.1,6.1,123.2,368575.47,12523.71,-1.0,181.43330265382946,10736833.894844677,10736833.894844677,23.089865300721964,7.3339761498184,25615.803509413265,88.5,39.98742633597077
1306893695.56,3.9496702,6.0936517,902.4,-59.1,6.0,121.0,368640.75,12485.89,-1.0,179.91101222748367,10590877.105217114,10590877.105217114,25.61119878630598,7.0998034614154575,25791.314171708123,90.6,39.99587777954032
1306893695.98,3.950509,6.0932779,903.31,-59.4,5.9,118.8,368709.84,12449.24,-1.0,186.33780548641346,11708613.983210191,11708613.983210191,26.45844029735789,7.039136581907115,24963.54389233745,92.1,40.00408425373106
1306893696.4,3.951342,6.0929368,904.15,-59.7,5.9,116.6,368778.19,12416.19,-1.0,180.73680854112428,12800053.00738665,12800053.00738665,29.0797388476779,7.07225907425338,24844.531402671346,91.7,40.01198451619825
1306893696.82,3.952201,6.0926146,904.96,-59.7,5.9,114.4,368848.41,12385.39,-1.0,182.38469879489784,15161191.019070197,15161191.019070197,27.965384466232884,6.839761413017398,24371.663065307624,93.5,40.01959387752808
1306893697.24,3.9530929,6.09231,905.75,-59.7,5.8,112.2,368921.09,12356.73,-1.0,185.67764042536743,17658686.915060766,17658686.915060766,28.272717159843296,7.157643057232647,23861.096023430087,93.5,40.02691233772055
1306893697.66,3.9539926,6.0920321,906.5,-59.7,5.8,110.0,368994.16,12331.08,-1.0,183.88943745682533,19697605.83961502,19697605.83961502,26.15946489785623,6.931575646350601,24031.535280995176,95.6,40.033939896775664
1306893698.08,3.9548941,6.0917818,907.21,-58.9,5.6,107.8,369067.16,12308.52,-1.0,181.27117363647557,22397296.066545278,22397296.066545278,23.98799287819819,7.021318761772819,24676.350800425942,97.7,40.040653588814166
1306893698.5,3.9558107,6.091554,907.87,-56.3,5.1,105.8,369141.16,12288.54,-1.0,181.70309137481397,25779283.11398888,25779283.11398888,25.403302566112067,7.014861912152468,25030.881107137677,94.2,40.04706872442222
1306893698.92,3.9567381,6.0913473,908.48,-53.1,4.5,104.0,369215.81,12270.98,-1.0,181.6599972679327,28322615.223937687,28322615.223937687,25.97853938096813,6.95147230461426,24534.514435098186,95.4,40.05316999301365
1306893699.34,3.9576835,6.0911579,909.02,-50.1,4.1,102.4,369291.78,12255.44,-1.0,183.5782430886294,31366109.207165923,31366109.207165923,28.817442109397724,6.960482915034998,24506.929691052763,92.9,40.058942084002275
1306893699.76,3.9586075,6.090991,909.47,-47.0,3.8,101.0,369365.84,12242.27,-1.0,177.9489631974671,34323190.62789277,34323190.62789277,26.379847767000527,7.077994022695432,24237.705399859842,92.80000000000001,40.064354376215746
1306893700.18,3.9595605,6.0908355,909.87,-43.7,3.5,99.7,369442.13,12230.54,-1.0,182.5322543717885,36489930.996407926,36489930.996407926,25.793018042914184,7.316538521011385,24782.374669511577,93.5,40.06937624848171
1306893700.6,3.9605124,6.0906951,910.21,-40.7,3.3,98.6,369518.16,12220.49,-1.0,181.27010444513542,38246032.657720014,38246032.657720014,23.46817830206305,7.2182577094356875,24773.572242333456,93.2,40.074015356093255
1306893701.02,3.9614603,6.0905687,910.52,-37.9,3.2,97.5,369593.78,12211.96,-1.0,179.78663580529903,39868316.05088852,39868316.05088852,22.447833718640133,7.262609774844893,25182.197733637167,93.70000000000002,40.07827169905038
1306893701.44,3.9624126,6.0904539,910.8,-35.3,3.2,96.6,369669.69,12204.75,-1.0,180.08008167612377,41302172.75103614,41302172.75103614,23.114179737054357,7.010531128730544,25097.379300748646,94.10000000000002,40.08213762206001
1306893701.86,3.963353,6.0903514,911.07,-32.9,3.2,95.7,369744.53,12198.83,-1.0,177.21569687529717,42196769.664799735,42196769.664799735,22.671849414339935,7.191733844919917,25075.254162259753,91.80000000000001,40.0856360910014
1306893702.28,3.9643244,6.0902559,911.35,-30.7,3.2,94.8,369821.75,12193.88,-1.0,182.64477773997552,43466497.958197035,43466497.958197035,24.740339429687513,7.4368968034638545,24988.05981723529,91.5,40.08880538233998
1306893702.7,3.9652787,6.0901716,911.64,-28.7,3.2,94.1,369897.53,12190.07,-1.0,179.01525428748965,44104726.740010746,44104726.740010746,23.46881421941079,7.776709064787348,25072.67215564256,93.0,40.09169142783429
1306893703.12,3.9662429,6.090095,911.95,-26.8,3.2,93.4,369974.03,12187.18,-1.0,180.58433832653165,44690220.35122103,44690220.35122103,23.447163942293617,7.766510845154164,24858.592419740417,94.4,40.09434781453595
1306893703.54,3.9671918,6.0900277,912.28,-25.1,3.2,92.7,370049.25,12185.23,-1.0,177.4232388174523,44526410.508254915,44526410.508254915,21.414933638482186,7.743905728550051,24580.745846494312,97.60000000000001,40.09684344008276
1306893703.96,3.9681411,6.0899676,912.64,-23.5,3.2,92.1,370124.44,12184.08,-1.0,177.27318346941237,45152428.12853938,45152428.12853938,22.479293901306285,7.521202880582764,24703.519163884666,96.50000000000003,40.09927016799177
1306893704.38,3.9690976,6.0899138,913.02,-22.1,3.2,91.6,370200.16,12183.68,-1.0,178.47934799438718,45397090.4712674,45397090.4712674,22.720578269636825,7.334919696633222,24627.76557787178,94.20000000000002,40.1016815853146
1306893704.81,3.9700863,6.089865,913.44,-20.8,3.2,91.1,370278.38,12184.02,-1.0,180.06425638002332,45804612.16402663,45804612.16402663,25.055716335689866,7.4988619128334655,25561.74855677881,94.60000000000001,40.10415424498214
1306893705.23,3.9710478,6.0898236,913.88,-19.6,3.2,90.6,370354.34,12185.03,-1.0,178.99620985952953,45812219.99480821,45812219.99480821,24.41481226908548,7.431537601440175,25164.437984331522,92.10000000000001,40.10672642345983
1306893705.65,3.9720161,6.0897876,914.33,-18.5,3.2,90.1,370430.84,12186.67,-1.0,180.27774829039,45681155.00899251,45681155.00899251,23.51084813507211,7.324536789901098,25824.182365968176,93.50000000000001,40.10942874192003
1306893706.07,3.9729569,6.0897578,914.79,-17.4,3.2,89.7,370505.13,12188.85,-1.0,175.02266193869727,45330169.305562586,45330169.305562586,25.027360339292546,7.0745214696979914,26399.077439014356,94.0,40.1122765109489
1306893706.49,3.9739182,6.0897322,915.27,-16.5,3.2,89.3,370581.0,12191.61,-1.0,178.80165207992448,45131289.06232855,45131289.06232855,22.813466452239993,7.119935492777264,26019.388151259518,91.20000000000002,40.11527738583953
1306893706.91,3.9748747,6.0897114,915.77,-15.6,2.6,88.9,370656.44,12194.87,-1.0,177.8017458439363,45298721.49035839,45298721.49035839,23.771809799482252,7.065092495433712,25706.744396638085,90.30000000000001,40.118439021885024
1306893707.33,3.9758355,6.0896948,916.27,-14.8,2.6,88.6,370732.16,12198.64,-1.0,178.50031337666238,45401100.08952062,45401100.08952062,22.443990796010944,7.076509391960488,26134.595279149213,90.30000000000003,40.121746108499195
1306893707.75,3.9767916,6.0896825,916.78,-14.1,2.6,88.2,370807.5,12202.84,-1.0,177.62958740061518,45788661.33136421,45788661.33136421,22.478862458843633,7.0685947164896685,26361.580452288195,90.00000000000001,40.12519099038896
1306893708.17,3.9777587,6.0896739,917.3,-13.4,2.6,87.9,370883.69,12207.54,-1.0,179.69814465767408,45680635.35031634,45680635.35031634,23.3621952486473,7.181937612508859,26019.138208594442,89.10000000000001,40.12875835696814
1306893708.59,3.9787096,6.0896692,917.81,-12.7,2.6,87.6,370958.53,12212.57,-1.0,176.5219827121366,44967015.95256931,44967015.95256931,24.34432170906639,7.069613976282314,25967.62522765772,91.3,40.13242524235748
1306893709.01,3.9796693,6.089668,918.33,-12.1,2.6,87.3,371034.06,12218.03,-1.0,178.21374222385646,44951069.88673366,44951069.88673366,24.425271908975283,7.2282561699528864,25488.47465440887,91.9,40.136168680677685
1306893709.43,3.9806219,6.0896701,918.85,-11.5,2.6,87.0,371109.0,12223.82,-1.0,176.85417236428836,44812560.17881214,44812560.17881214,27.385200982521805,7.376236146184876,26204.432786882593,95.60000000000001,40.1399733613426
1306893709.85,3.9815946,6.0896754,919.38,-11.0,2.6,86.8,371185.5,12230.1,-1.0,180.6318130690921,44686540.50994756,44686540.50994756,27.596079887852028,7.724536723899876,25591.80519619607,95.60000000000001,40.143839284352225
1306893710.27,3.9825351,6.0896836,919.9,-10.4,2.6,86.5,371259.47,12236.5,-1.0,174.63875456641082,44909416.14097873,44909416.14097873,27.620370298094944,7.916277564187575,25213.81609437318,94.60000000000001,40.14775113912037
1306893710.69,3.983505,6.0896949,920.43,-9.9,2.6,86.3,371335.69,12243.42,-1.0,180.0683441999978,45185404.777648985,45185404.777648985,29.160732892097833,7.80060854294061,25217.337092803504,98.10000000000001,40.151701270353975
1306893711.11,3.9844472,6.0897086,920.95,-9.5,2.6,86.1,371409.72,12250.44,-1.0,174.88532660655568,44617769.8636977,44617769.8636977,30.06982267100547,7.679400482912735,25342.42038540966,100.2,40.15566671217375
1306893711.53,3.9854119,6.0897252,921.48,-9.0,2.6,85.8,371485.5,12257.93,-1.0,179.1256397786864,44747225.318846375,44747225.318846375,30.754840365261902,7.675361748203408,25803.8383669994,97.70000000000002,40.15965511987279
1306893711.95,3.9863694,6.0897442,922.0,-8.6,2.6,85.6,371560.69,12265.63,-1.0,177.76573396236745,44699280.85075441,44699280.85075441,30.125951958888507,7.537599282807893,25349.481702248355,97.70000000000002,40.16365118286491
1306893712.37,3.9873131,6.0897653,922.52,-8.2,2.6,85.4,371634.75,12273.49,-1.0,175.11706133346794,44279756.26521099,44279756.26521099,29.88619933392525,7.7947005355224475,25830.053827906693,97.7,40.16764724585704
1306893712.79,3.9882769,6.089789,923.06,-7.8,2.6,85.3,371710.41,12281.76,-1.0,178.99768038097298,44607149.48299371,44607149.48299371,26.989443518552154,7.784933383865265,25321.859762131913,96.40000000000002,40.17166627472843
1306893713.21,3.9892268,6.0898146,923.58,-7.4,2.6,85.1,371784.94,12290.15,-1.0,176.34409556553118,44179927.684808336,44179927.684808336,26.155472052533305,7.80085445721865,25304.34647462327,94.00000000000001,40.17568530359982
1306893713.63,3.9901787,6.0898422,924.11,-7.1,2.6,84.9,371859.63,12298.79,-1.0,176.77950365930565,44226073.99723521,44226073.99723521,24.90199313537214,7.819898766919617,24808.31098174554,93.80000000000001,40.1797119877643
1306893714.05,3.9911326,6.0898718,924.64,-6.7,2.6,84.9,371934.44,12307.66,-1.0,177.11712570255327,44074045.00286617,44074045.00286617,26.282764819126353,7.538899481850696,25209.722085762292,92.6,40.18373867192877
1306893714.47,3.9920999,6.0899038,925.17,-6.4,2.6,84.6,372010.28,12316.86,-1.0,179.63564063967857,44136302.8736619,44136302.8736619,26.18130141034907,7.49933851840957,25524.960463463973,92.8,40.18777301138635
1306893714.89,3.993051,6.089937,925.7,-6.1,2.6,84.6,372084.88,12326.11,-1.0,176.71117135726396,43323477.91536666,43323477.91536666,25.73677338723242,7.385411032290091,25479.537681245252,88.99999999999999,40.191807350843916
1306893715.31,3.9940064,6.089972,926.23,-5.8,2.6,84.3,372159.75,12335.59,-1.0,177.40816642507102,43860578.291590475,43860578.291590475,25.91828127728279,7.32971987325513,24895.3762676349,88.9,40.19584934559457
1306893715.73,3.994957,6.0900084,926.76,-5.5,2.6,84.2,372234.25,12345.2,-1.0,176.56558990840608,43375740.31404864,43375740.31404864,25.988204429508677,7.338412653143546,24205.747394763916,89.5,40.199891340345225
1306893716.15,3.9958983,6.0900459,927.28,-5.3,2.6,84.2,372308.03,12354.88,-1.0,174.87985067870994,43381862.71051749,43381862.71051749,26.8273349534013,7.479584309049052,24776.750717244275,87.50000000000001,40.20393333509588
1306893716.57,3.996853,6.0900855,927.81,-5.0,2.6,84.2,372382.81,12364.86,-1.0,177.3260669077039,44283901.003381155,44283901.003381155,25.461883569120996,7.454528701631668,24850.654074960526,88.00000000000001,40.20798298513963
1306893716.99,3.9978006,6.0901261,928.34,-4.8,2.6,84.2,372457.06,12374.92,-1.0,176.09412013896204,44112551.82486847,44112551.82486847,25.5507071750878,7.670693372616498,25500.045029719084,89.20000000000002,40.21202497989029
1306893717.41,3.9987661,6.0901688,928.88,-4.5,2.6,83.7,372532.66,12385.32,-1.0,179.38087327113192,44142615.19532092,44142615.19532092,25.432131650943433,7.678910660566048,25678.242106800993,89.39999999999999,40.21608228522712
1306893717.83,3.999711,6.0902118,929.4,-4.3,2.6,83.6,372606.66,12395.63,-1.0,175.57260081516173,43634844.8517278,43634844.8517278,26.341524108464952,7.681383186195394,25332.75529899234,86.3,40.22013193527086
1306893718.25,4.000667,6.0902565,929.93,-4.1,2.6,83.5,372681.53,12406.2,-1.0,177.7033471402491,43319760.17488155,43319760.17488155,26.685616567511936,7.6743062745407125,24788.967719843553,83.9,40.224181585314604
1306893718.67,4.0016228,6.0903024,930.47,-3.9,2.6,83.5,372756.34,12416.89,-1.0,177.59653624602154,42573419.00616894,42573419.00616894,25.94441695028908,7.797310151206688,24318.499117721247,83.60000000000001,40.22823889065144
1306893719.09,4.0025625,6.0903485,930.99,-3.7,2.6,83.5,372829.91,12427.53,-1.0,174.65185566833281,42536038.53331345,42536038.53331345,25.07744433152948,7.9447048394584,24936.40498012172,86.70000000000002,40.23228854069519
1306893719.51,4.0035269,6.0903969,931.53,-3.5,2.6,83.5,372905.41,12438.55,-1.0,179.32425711260086,43057728.77165971,43057728.77165971,23.200884075688602,8.178768081939788,25095.971286506952,84.30000000000001,40.236345846032016
1306893719.93,4.0044617,6.0904447,932.05,-3.3,2.6,83.5,372978.56,12449.34,-1.0,173.7044695151068,42927431.23889498,42927431.23889498,22.732684612203702,7.94732963458959,25690.641203498646,87.10000000000001,40.24039549607577
1306893720.35,4.0054212,6.0904947,932.59,-3.1,2.6,83.1,373053.66,12460.52,-1.0,178.42822189432653,43506611.39333138,43506611.39333138,23.798191628777033,7.855259220632901,25585.97504723655,89.4,40.24446045670568
1306893721.19,4.0073125,6.0905958,933.65,-2.8,2.6,83.1,373201.66,12482.85,-1.0,175.82639253834952,43283851.6387171,43283851.6387171,25.029110117099126,7.818711587882829,24694.776535357323,87.70000000000002,40.248931147869285
1306893721.61,4.0082602,6.0906477,934.18,-2.8,2.6,82.9,373275.78,12494.16,-1.0,176.15502429488598,42968970.5909413,42968970.5909413,25.752186028691263,7.933513410247133,24619.145391252325,85.7,40.25340183903289
1306893722.04,4.0092348,6.0907018,934.72,-2.5,2.6,82.9,373352.03,12505.89,-1.0,177.04325526482376,42421984.34427533,42421984.34427533,25.588405117951005,7.980778770709977,24803.45589529173,87.3,40.257872530196494
1306893722.46,4.0101889,6.0907554,935.25,-2.5,2.6,82.8,373426.66,12517.45,-1.0,177.43766603709773,42195063.53092424,42195063.53092424,23.2611922317806,7.848104211503219,25424.87959953393,89.10000000000001,40.26235087665319
1306893722.88,4.0111338,6.0908092,935.78,-2.2,2.6,82.8,373500.56,12528.97,-1.0,175.70264788105584,41554163.638527624,41554163.638527624,24.065823227087257,7.908601856080765,25363.27364229816,92.70000000000002,40.26682922310988
1306893723.3,4.0120967,6.0908647,936.32,-2.1,2.6,82.8,373575.88,12540.78,-1.0,179.14624750330583,41717066.481158435,41717066.481158435,23.417249501903918,7.965117876413327,25763.441546589696,95.20000000000002,40.27130756956657
1306893723.72,4.0130458,6.0909199,936.85,-2.0,2.6,82.8,373650.13,12552.49,-1.0,176.5898014182161,41705851.073298365,41705851.073298365,24.362972628094482,7.7737865238498145,25162.096055419715,94.10000000000001,40.27579357131635
1306893724.14,4.0139971,6.0909759,937.39,-1.9,2.6,82.6,373724.5,12564.29,-1.0,176.90244850443958,41636042.307522416,41636042.307522416,25.448531088761236,7.7216584935581665,25095.772639074872,95.80000000000001,40.28027957306613
1306893724.99,4.0159105,6.09109,938.46,-1.9,2.6,82.6,373874.13,12588.2,-1.0,175.88093418976993,42452552.42329857,42452552.42329857,24.382306145421584,7.698638642962672,24505.33307317804,92.80000000000001,40.28518661593578
1306893726.25,4.0187605,6.0912635,940.06,-1.4,2.6,82.4,374096.94,12624.22,-1.0,176.7352738716661,42430181.61922885,42430181.61922885,23.435743202395173,7.805505763178871,23968.018087760745,89.10000000000001,40.29090511987278
1306893726.67,4.0197111,6.0913222,940.59,-1.3,2.6,82.4,374171.25,12636.32,-1.0,176.86092202480506,42759650.695646055,42759650.695646055,23.682895731416945,7.780002628891408,24719.758059153988,88.6,40.2962178932761
1306893728.35,4.0234941,6.0915593,942.71,-1.0,2.6,82.4,374466.97,12684.9,-1.0,175.9808112013155,43068486.41207037,43068486.41207037,23.4320830377533,7.636460268115183,24887.66926962639,88.10000000000001,40.30274785828048
1306893729.61,4.026326,6.09174,944.3,-1.0,2.6,82.2,374688.28,12721.63,-1.0,175.63761939914144,42901583.31882753,42901583.31882753,23.548776859999684,7.524495342159635,24506.635723119478,86.0,40.31008162905914
1306893730.45,4.0282277,6.0918625,945.37,-0.7,2.6,82.2,374836.94,12746.44,-1.0,177.01280874201547,42668311.0500458,42668311.0500458,23.46377341912097,7.5695490532661704,23820.06549109716,87.30000000000001,40.31782878566457
1306893735.08,4.0386608,6.0925482,951.23,-0.3,2.6,82.2,375652.16,12884.05,-1.0,176.14716319436067,42566775.95074166,42566775.95074166,21.602595628443183,7.484213993033012,24450.680322134594,86.3,40.32965621348609
1306893736.76,4.0424516,6.0928011,953.36,-0.2,2.6,82.2,375948.34,12934.51,-1.0,176.41559250315711,42049101.74729291,42049101.74729291,24.12078459260302,7.306750861253442,24057.658773016083,86.2,40.342700832908655
1306893738.44,4.0462326,6.0930547,955.48,-0.2,2.6,82.0,376243.75,12984.99,-1.0,175.96417486251943,41910040.39378526,41910040.39378526,23.596209255906512,7.394770773800629,24604.733015330377,84.9,40.35696264393228
1306893738.86,4.0471879,6.0931189,956.02,-0.1,2.6,82.0,376318.38,12997.77,-1.0,177.85178302881556,41731012.66124714,41731012.66124714,23.843464544867512,7.231539402288662,24480.69321538933,85.9,40.37122445495589
1306893761.58,4.0983132,6.0965828,984.79,-0.1,2.6,82.0,380312.06,13685.69,-1.0,175.9385127500412,41461827.15052017,41461827.15052017,23.29943197678472,7.564467002206399,24384.29985180377,88.1,40.40669142783429
1306893936.68,4.488662,6.1223508,1206.14,-0.1,2.6,83.3,410794.28,18947.33,-1.0,174.2298862820313,41225255.13164508,41225255.13164508,22.34198034242063,7.627059211941911,24959.14430240263,89.39999999999999,40.61038346632947
1306893953.14,4.5250409,6.1246794,1226.89,-0.1,2.6,83.4,413634.31,19437.25,-1.0,172.66121393009414,40856150.896836974,40856150.896836974,20.18953761335284,7.536160774821029,24437.186882471415,90.49999999999999,40.82955450744934
1306894005.71,4.640862,6.1320056,1293.04,-0.1,2.6,83.7,422675.44,20995.96,-1.0,172.09176509776805,40324745.60905156,40324745.60905156,20.184523153784543,7.529205959759411,23916.885849093345,92.8,41.09774239021399
1306894021.34,4.6752103,6.1341523,1312.68,-0.1,2.6,83.7,425356.5,21457.88,-1.0,171.63257431161978,39797643.72305428,39797643.72305428,20.828187195528443,7.317203240946435,23637.848620648212,95.50000000000001,41.37974807700314
1306894024.76,4.6827106,6.1346195,1316.97,-0.1,2.6,83.8,425941.91,21558.72,-1.0,171.2659892301951,39201073.18155283,39201073.18155283,20.880040343677113,7.273201912271265,23678.98528158839,94.80000000000001,41.66421876816675
1306894065.86,4.7728699,6.1401904,1368.51,-0.1,2.6,84.0,432978.78,22770.28,-1.0,171.3053300496061,38513070.6239221,38513070.6239221,20.675617580206655,7.294012351266354,23778.9720939603,95.00000000000001,41.98365883815801
1306894084.42,4.8135067,6.1426743,1391.73,-0.1,2.6,84.0,436150.22,23315.98,-1.0,170.95928614149818,37877922.96309555,37877922.96309555,20.178160242610016,7.1203998795049745,24141.48523755065,95.5,42.319243921272616
1306894086.53,4.8181153,6.1429549,1394.36,0.0,2.6,84.0,436509.91,23377.85,-1.0,170.5461007532545,37383007.90745273,37383007.90745273,20.001307815887145,7.100507178336641,23692.108309831,98.4,42.65521942433474
1306894088.42,4.8222595,6.1432071,1396.73,0.0,2.6,84.1,436833.31,23433.49,-1.0,171.19831548897858,36837999.06956694,36837999.06956694,20.392406867500686,7.077353344933137,24132.692736345685,95.89999999999999,42.99259584603202
1306894097.05,4.8411204,6.1443526,1407.5,0.0,2.7,84.1,438305.25,23686.66,-1.0,170.63877075647093,36478888.30747281,36478888.30747281,20.828699172760146,7.119125040450551,24942.08298832012,94.2,43.31619274017025
1306894112.71,4.8753711,6.1464235,1427.06,0.0,2.7,84.2,440978.13,24146.28,-1.0,170.76064210805615,36212582.04338572,36212582.04338572,21.658441732940652,7.210760677995106,24371.40128690874,96.0,43.485313475078385
1306894139.01,4.9328091,6.1498698,1459.83,0.0,2.7,84.3,445460.34,24916.7,-1.0,170.499298933731,36015396.423453934,36015396.423453934,23.163724206375008,7.2159429315461185,24756.237684721797,96.0,43.66363587227873
1306894167.79,4.9956167,6.1536002,1495.62,0.0,2.7,84.4,450361.31,25758.64,-1.0,170.35952431830418,35849217.05095826,35849217.05095826,23.87002821534545,7.2146722595359405,25205.64112651612,92.8,43.8187167996628
1306894199.75,5.065294,6.1576926,1535.24,0.0,2.7,84.5,455798.0,26692.11,-1.0,170.1728901860648,35699242.40357462,35699242.40357462,22.868300652565328,7.222555723944895,25774.947256026302,92.19999999999999,43.98909300263743
1306894258.75,5.1938073,6.1651154,1608.01,0.0,2.7,84.5,465824.56,28412.46,-1.0,169.9998939856853,35551219.504408956,35551219.504408956,22.669833557283233,7.188824569232882,26256.5072671247,89.5,44.21189265268118
1306894276.25,5.2318871,6.167284,1629.49,0.0,2.7,84.7,468795.34,28921.93,-1.0,169.81220290636665,35363882.14719313,35363882.14719313,23.52375978394003,7.4253883358518875,26114.93742295597,87.3,44.4116804917013
1306894322.06,5.3315781,6.1728957,1685.48,0.0,2.7,84.8,476572.22,30255.19,-1.0,169.81579413332395,35132233.122605,35132233.122605,21.59312097306578,7.549191938813342,26325.80586604363,85.2,44.636554726171994
1306894417.2,5.5385385,6.1842478,1800.32,0.0,3.2,84.8,492715.16,33021.31,-1.0,169.7240303261443,34868523.56391046,34868523.56391046,21.55971182957164,7.722773246979719,26723.7810026146,85.2,44.94732900438722
1306894417.62,5.5394519,6.184297,1801.09,0.0,4.7,84.8,492786.41,33033.52,-1.0,169.69688297274618,34557699.619930364,34557699.619930364,19.745540095814594,7.9294088532613305,27074.828419979407,85.3,45.2568784357083
1306894418.25,5.5408165,6.1843705,1803.68,0.0,6.5,84.8,492892.84,33051.75,-1.0,169.0183020369631,34246974.75610391,34246974.75610391,20.017151024104688,7.735008891254914,26840.951015249248,86.3,45.56016583728311
1306894418.46,5.5412679,6.1843948,1805.04,0.0,7.0,84.8,492928.03,33057.78,-1.0,167.71042278978788,34008513.19926757,34008513.19926757,19.808193316863346,7.716244072075105,26944.51724738408,84.60000000000001,45.849520605437085
1306894418.88,5.5421956,6.1844447,1808.71,0.0,7.8,84.8,493000.41,33070.17,-1.0,172.63248711997844,34150828.55161529,34150828.55161529,19.907951381981594,7.589002086093253,26725.47896406986,84.30000000000001,46.11659847070393
1306894419.09,5.5426436,6.1844688,1810.9,0.0,8.2,84.8,493035.34,33076.15,-1.0,166.65237512066565,33693854.29651238,33693854.29651238,18.924406609764596,7.507288976275507,26497.740227207178,86.60000000000001,46.35795455119387
1306894419.72,5.5439931,6.1845414,1819.01,0.0,8.9,84.8,493140.59,33094.18,-1.0,167.56408434661427,35003999.641485795,35003999.641485795,19.480820381349908,7.487138206895896,26168.40402969021,84.50000000000001,46.575188803162376
1306894420.35,5.5453617,6.184615,1829.23,0.0,9.3,84.8,493247.34,33112.45,-1.0,170.25468745686294,36160152.6406298,36160152.6406298,20.679745389318217,7.78667106964113,25814.066006516685,85.8,46.744539196863165
1306894420.56,5.5458061,6.1846389,1832.89,0.0,9.4,84.8,493282.0,33118.38,-1.0,165.9365430313387,36705536.45012191,36705536.45012191,21.811778925491133,7.756610775699576,25810.952493597164,87.3,46.90024785828048
1306894422.24,5.5493964,6.1848318,1865.85,0.0,9.0,84.8,493562.03,33166.32,-1.0,167.8323789887069,38756677.90989445,38756677.90989445,22.79325631356727,7.681371504489512,25827.83606523628,87.3,47.0383263797153
1306894422.45,5.5498534,6.1848563,1870.2,0.0,8.9,84.8,493597.66,33172.42,-1.0,170.96637083660156,39609944.08782336,39609944.08782336,22.179889996158547,7.482892211374907,25487.847437934684,84.00000000000001,47.091821567816794
1306894422.87,5.5507544,6.1849047,1878.72,0.0,8.6,84.8,493667.94,33184.45,-1.0,168.56442416311313,37998430.327399015,37998430.327399015,22.34345369528172,7.4529423093298375,25563.735932730022,84.20000000000002,47.15124960806177
1306894423.08,5.5512007,6.1849287,1882.89,0.0,8.4,84.8,493702.75,33190.41,-1.0,166.93157666284475,37112001.251142584,37112001.251142584,24.267272776572888,7.350668641959524,25031.921816096336,84.50000000000003,47.2118871846147
1306894423.71,5.5525358,6.1850004,1895.02,0.0,7.9,84.8,493806.88,33208.24,-1.0,166.38143434242986,36004264.782165036,36004264.782165036,26.132642740452106,7.141305660898796,25236.311076480924,83.69999999999999,47.2807695118238
1306894424.34,5.5538875,6.1850731,1906.64,0.0,7.4,84.8,493912.28,33226.3,-1.0,168.32506253223653,33136647.039492644,33136647.039492644,25.038751652240062,7.071562727391427,24789.530811020355,84.3,47.35573779703814
1306894424.55,5.5543285,6.1850968,1910.26,0.0,7.3,84.8,493946.69,33232.19,-1.0,164.71765075102294,32759710.971096314,32759710.971096314,25.15128770515788,7.010110936856009,24992.526078540097,82.4,47.43180078916412
1306894425.18,5.5556853,6.1851697,1920.83,0.0,6.8,84.8,494052.5,33250.32,-1.0,168.8073406011972,33716476.28837062,33716476.28837062,24.372181425752988,7.175197820196344,25053.91612939226,82.60000000000001,47.50974698338984
1306894425.81,5.5570361,6.1852423,1930.45,0.0,6.3,84.8,494157.88,33268.38,-1.0,167.97557699307038,33323140.930421714,33323140.930421714,25.666098513446933,6.916591566521769,25818.428453155724,82.1,47.58723386003026
1306894426.02,5.5574963,6.1852671,1933.52,0.0,6.1,84.8,494193.75,33274.53,-1.0,171.49671277841017,33822506.692048065,33822506.692048065,24.08495196530989,6.667709938821008,25275.595340921787,81.3,47.66426907437847
1306894426.44,5.5583918,6.1853152,1939.18,0.0,5.8,84.8,494263.59,33286.5,-1.0,166.82722695107432,33468674.541478872,33468674.541478872,25.84240058454389,6.694827184151166,25179.31215492667,82.19999999999999,47.72040533859545
1306894426.86,5.5593014,6.1853642,1944.53,0.0,5.5,84.8,494334.53,33298.66,-1.0,169.4189281789901,32202718.845749095,32202718.845749095,26.186420412393925,6.931217359683356,25628.640858251034,83.3,47.77730713212125
1306894427.07,5.5597631,6.185389,1947.09,0.0,5.4,84.8,494370.56,33304.83,-1.0,172.07241781349816,30412305.141259976,30412305.141259976,26.292476605032473,6.75171428756188,24997.57322015988,83.1,47.8296463709664
1306894427.7,5.5611088,6.1854614,1953.99,0.0,5.0,84.8,494475.5,33322.83,-1.0,166.9348903816374,28679100.317730505,28679100.317730505,25.138137147996613,7.018181323813026,25281.808478350355,83.6,47.88407550482467
1306894428.12,5.5620194,6.1855104,1958.2,0.0,4.8,84.8,494546.53,33335.01,-1.0,169.45510982529552,28335046.839545693,28335046.839545693,24.358383560159687,7.122216672813287,25433.110671754457,84.8,47.932441646556946
1306894428.75,5.5633901,6.1855841,1963.9,0.0,4.5,84.8,494653.44,33353.34,-1.0,169.98632942529125,27792925.772471692,27792925.772471692,25.12922324171239,7.174122639268095,25537.932971791208,86.3,47.97627585478092
1306894428.96,5.5638517,6.185609,1965.65,0.0,4.4,84.8,494689.44,33359.52,-1.0,171.70829567047662,27886592.41257236,27886592.41257236,25.872420255089914,7.182818882886706,25458.42255363039,86.60000000000002,48.01867852319738
1306894429.38,5.5647494,6.1856573,1968.83,0.0,4.2,84.8,494759.44,33371.52,-1.0,166.84127364865043,28224586.18709355,28224586.18709355,24.8688171453831,7.259030031036588,25624.30425093858,85.90000000000002,48.05542393002153
1306894429.59,5.565205,6.1856818,1970.34,0.0,4.1,84.8,494794.97,33377.62,-1.0,169.3889206524676,29546887.262020364,29546887.262020364,23.274686216264357,7.515064267237431,25451.332356460938,85.4,48.085960894151015
1306894431.06,5.5683993,6.1858535,1979.14,0.0,3.6,84.8,495044.09,33420.34,-1.0,169.61954043265175,29028333.148848206,29028333.148848206,24.597830976347336,7.633878835300049,25927.329561010923,85.1,48.12088434122012
1306894431.69,5.5697749,6.1859274,1982.1,0.0,3.4,84.8,495151.38,33438.74,-1.0,170.42316825522647,29534367.19955638,29534367.19955638,22.463848781052526,7.715929563919749,25521.30253768075,84.5,48.153740859155384
1306894433.58,5.5738711,6.1861474,1988.68,0.0,3.4,85.0,495470.84,33493.51,-1.0,169.0994506287351,30094677.243484683,30094677.243484683,22.385251558062365,7.569855446178263,24735.607740417094,84.5,48.18753897814051
1306894436.31,5.5798191,6.1864662,1994.18,0.0,2.7,85.0,495934.75,33573.02,-1.0,169.99110758477622,29766098.929243065,29766098.929243065,22.4856721286421,7.618845539777167,24912.77417206612,85.50000000000001,48.223587753293614
1306894491.38,5.6996622,6.192813,1994.18,0.0,2.7,85.1,505281.13,35173.85,-1.0,169.7610206822255,29986902.54403887,29986902.54403887,22.19953342336142,7.433387880914384,24910.789301741264,83.2,48.25435437621575
1306894581.15,5.8950699,6.2028847,1994.18,4.7,2.7,85.1,520519.0,37783.78,-1.0,169.7866913542273,30605565.19748978,30605565.19748978,22.45609870986165,7.246456323817265,24516.361528591537,84.0,48.28189812074768
1306894582.41,5.8978023,6.2029892,2000.21,42.3,3.9,87.7,520732.44,37816.52,-1.0,169.0760949798843,31253847.50944077,31253847.50944077,23.654253729413657,7.459519722730418,24954.254023184963,83.69999999999999,48.30969448995153
1306894582.62,5.8982759,6.2029958,2000.3,43.0,4.0,88.4,520769.56,37820.9,-1.0,175.7369537699752,31473486.223305594,31473486.223305594,23.22075507796094,7.724689798955606,24509.962279478692,83.39999999999998,48.33622008050271
1306894583.88,5.9010163,6.202941,2001.07,43.0,5.4,93.4,520985.34,37836.01,-1.0,169.59108137936005,30185262.997807804,30185262.997807804,23.757289228824515,7.8084561589987205,24649.419082467222,84.1,48.3609007454196
