timestamp,longitude,latitude,altitude,roll,pitch,yaw,u,v,heading,air_speed,engine_0,engine_1,temperature_in,humidity_in,pressure_in,heart_rate,oxygen_mask
1306893656.86,3.0185508,5.5781168,24.33,-1.0,-1.5,223.6,298921.22,-49765.27,-1.0,5.4416436108214965,4886457.50161526,4886457.50161526,27.83600802574321,7.656672544839228,25993.58222458409,85.60000000000001,31.950224447931213
1306893677.85,3.0169787,5.5769347,24.33,-1.0,-1.6,223.6,298804.5,-49904.28,-1.0,5.4416436108214965,4433399.143025905,4433399.143025905,29.404264540010907,7.7096313075667116,25779.63230187347,86.00000000000001,31.949994789138564
1306893682.28,3.0152431,5.5756295,24.33,-1.0,-1.8,223.6,298675.63,-50057.75,-1.0,41.89567376982276,3496065.538419791,3496065.538419791,30.202172023608817,7.387991303671936,25553.915632548407,86.30000000000001,31.94978809622518
1306893686.07,3.0132552,5.5741347,24.43,-1.0,0.8,223.6,298528.0,-50233.53,-1.0,57.220537849712166,2502052.128708447,2502052.128708447,29.482344131769775,7.336092635530321,25281.113657120637,84.80000000000001,31.949657956242678
1306893686.49,3.0130064,5.5739476,24.49,-1.0,3.9,223.6,298509.53,-50255.53,-1.0,65.04486724748502,1777212.8801093714,1777212.8801093714,29.721496450058385,7.283252586555595,25653.880073624925,87.10000000000001,31.94959671389797
1306893686.91,3.0127525,5.5737566,24.54,-1.0,5.9,223.6,298490.66,-50277.98,-1.0,66.47829045803573,1777212.880109371,1777212.880109371,29.721496450058382,7.283252586555595,25653.880073624925,87.10000000000001,31.94959671389797
1306893687.33,3.0124872,5.5735571,24.57,-1.0,7.2,223.6,298470.97,-50301.44,-1.0,69.57381821092052,2502052.128708447,2502052.128708447,29.48234413176978,7.336092635530321,25281.113657120637,84.80000000000001,31.949657956242678
1306893687.75,3.0122218,5.5733575,24.6,-1.0,8.1,223.6,298451.25,-50324.91,-1.0,69.63866457862966,3496065.538419791,3496065.538419791,30.20217202360881,7.387991303671936,25553.915632548404,86.30000000000001,31.949788096225177
1306893688.17,3.0119493,5.5731526,24.6,-1.0,8.7,223.6,298431.03,-50349.0,-1.0,71.53365614042418,4433399.143025906,4433399.143025906,29.4042645400109,7.7096313075667116,25779.632301873473,86.00000000000001,31.94999478913856
1306893688.59,3.0116719,5.5729439,24.63,-1.0,9.1,223.6,298410.44,-50373.54,-1.0,72.92029011921673,4886457.50161526,4886457.50161526,27.836008025743205,7.656672544839228,25993.58222458409,85.60000000000001,31.950224447931213
1306893689.01,3.0113839,5.5727273,24.76,-1.0,9.7,223.6,298389.03,-50399.01,-1.0,75.87286939073985,4803820.214651794,4803820.214651794,27.061625242935975,7.590562559090277,26326.515901018243,87.9,31.950553625534013
1306893689.43,3.0110984,5.5725125,25.1,-1.0,10.2,223.6,298367.84,-50424.26,-1.0,75.13761826289812,4590472.702933437,4590472.702933437,24.874262270776725,7.2368910225475105,26484.48760831595,87.9,31.95114308310181
1306893689.85,3.0108022,5.5722896,25.77,-1.0,10.5,223.6,298345.84,-50450.47,-1.0,78.13991660751265,4208725.225703263,4208725.225703263,23.271774501596333,7.25794692411809,26865.828560073387,90.00000000000001,31.952245445306538
1306893690.27,3.0105029,5.5720643,26.8,-1.0,10.8,223.6,298323.63,-50476.96,-1.0,78.99289921930361,4005391.745808843,4005391.745808843,23.787422709513773,7.436253529682926,26993.382124342344,92.4,31.954059749768483
1306893692.37,3.0089061,5.5708576,38.16,-1.0,11.0,223.6,298205.06,-50618.8,-1.0,84.85203360985773,4137597.4284555465,4137597.4284555465,25.86169439726076,7.457080366268493,27069.92534267726,89.30000000000001,31.964524535420274
1306893692.79,3.0085725,5.570604,41.6,0.1,11.0,223.6,298180.31,-50648.61,-1.0,89.2677572162984,4158270.7289854283,4158270.7289854283,25.106964934555258,7.711247300687849,26537.114490216358,87.2,31.97758446542903
1306893693.21,3.0082262,5.5703401,45.51,0.1,10.9,223.6,298154.63,-50679.62,-1.0,92.96924627280248,4642010.724588753,4642010.724588753,26.01327052449294,7.943216670670635,26061.99193250592,88.0,31.993614649156058
1306893694.89,3.0067598,5.5692131,65.61,0.1,10.8,223.6,298045.88,-50811.98,-1.0,99.32395481385144,5340355.733268614,5340355.733268614,24.430639993611447,7.804982079248914,25197.01610690577,89.7,32.02500900611144
1306893695.31,3.0063742,5.5689139,71.76,0.4,10.8,223.6,298017.28,-50847.09,-1.0,105.4683606611768,6114403.337765303,6114403.337765303,24.77073616235946,7.469018308859448,24858.169468210664,89.8,32.06111136831616
1306893695.73,3.0059829,5.5686087,78.31,0.5,10.8,223.7,297988.31,-50882.9,-1.0,107.42963596627743,7541140.588265757,7541140.588265757,26.27814321820018,7.51752478115081,24417.886653950303,90.8,32.1022049816145
1306893696.15,3.0055754,5.5682895,85.43,0.5,10.6,223.7,297958.13,-50920.35,-1.0,112.42236494189096,9000394.836951746,9000394.836951746,27.182672835377375,7.6075545364081165,24854.57772646004,90.5,32.14864964478161
1306893696.57,3.0051711,5.5679712,92.76,0.5,10.6,223.7,297928.19,-50957.68,-1.0,111.92240213447614,10315309.276801892,10315309.276801892,27.965131769138072,7.762496441588132,24806.75846299204,91.30000000000001,32.20044535781748
1306893696.99,3.0047575,5.5676441,100.44,0.9,10.0,223.7,297897.59,-50996.03,-1.0,114.89248766577046,11343594.962835325,11343594.962835325,27.38510694793041,8.0526803519195,24286.623907604164,89.10000000000002,32.257607431308294
1306893697.41,3.0043254,5.5673007,107.48,1.1,8.6,223.7,297865.63,-51036.29,-1.0,120.17404379338244,11976692.61749834,11976692.61749834,27.12744803639588,7.872736754563335,23570.120051742837,88.80000000000001,32.31937033594521
1306893697.83,3.0038848,5.566949,113.36,1.3,7.9,223.7,297833.03,-51077.51,-1.0,122.53725202308212,12554221.48855958,12554221.48855958,24.61754405759966,7.770808079741901,23165.97301881529,90.50000000000001,32.37693813996971
1306893698.25,3.0034346,5.5665889,118.31,1.5,7.9,223.7,297799.75,-51119.71,-1.0,125.12386300553084,13092127.24548664,13092127.24548664,24.92673006888931,7.60148384036017,23762.409676612428,90.60000000000001,32.43566189325055
1306893698.67,3.0029786,5.5662234,122.6,1.8,8.0,223.7,297766.03,-51162.54,-1.0,126.80511440415023,13835096.288635451,13835096.288635451,25.769659508335526,7.241478990540444,24104.28644545954,92.2,32.494676547668746
1306893699.09,3.002506,5.5658421,126.68,2.1,8.4,223.9,297731.09,-51207.2,-1.0,131.96819222674407,14719681.818801057,14719681.818801057,26.163569692105497,7.315451324077479,24369.693426066056,89.2,32.54142742255938
1306893699.51,3.0020206,5.5654474,130.83,2.4,8.9,223.9,297695.22,-51253.42,-1.0,136.25484167446413,15962843.680606175,15962843.680606175,24.99526566776988,7.5698424189969336,24334.161905425022,90.6,32.58664723883235
1306893699.93,3.0015364,5.5650529,135.18,2.7,9.5,223.9,297659.47,-51299.6,-1.0,136.03920068056593,17046258.438316207,17046258.438316207,23.061569105314007,7.3129980943716335,24625.52517153957,89.39999999999999,32.630182890625875
1306893700.35,3.001032,5.5646426,140.11,3.0,9.9,223.9,297622.22,-51347.64,-1.0,141.81992703293255,17970635.967600793,17970635.967600793,20.43584766020966,7.123401145518454,23898.17816804838,89.1,32.67204203323305
1306893700.77,3.0005144,5.5642222,145.66,3.3,10.3,223.9,297583.97,-51396.86,-1.0,145.61454971265687,19103371.406736128,19103371.406736128,21.449811585693674,7.0483136611688435,23849.5011493223,87.1,32.7125385336705
1306893701.19,2.9999912,5.5637977,151.79,3.5,10.5,224.4,297545.31,-51446.56,-1.0,147.24081644692006,20218009.942273587,20218009.942273587,23.58080128892461,6.76857928514264,24312.73841825277,88.5,32.751848463679245
1306893701.61,2.9994595,5.5633679,158.49,3.7,10.5,224.5,297506.03,-51496.9,-1.0,149.48042888512535,20931031.76009981,20931031.76009981,24.053795974595182,6.856579444627501,24272.284572007648,87.1,32.79089811372299
1306893702.03,2.9989098,5.5629259,165.81,3.9,10.5,224.5,297465.38,-51548.68,-1.0,154.32775647414275,21728581.485456035,21728581.485456035,25.69115996894665,6.966604046352345,24503.802959200184,85.5,32.83105012597146
1306893702.45,2.9983589,5.5624853,173.44,3.9,10.4,224.5,297424.66,-51600.31,-1.0,154.23918566961157,22857862.807650987,22857862.807650987,25.427372976382856,7.155994298786992,24282.16841016548,87.7,32.87325375676761
1306893702.87,2.9977883,5.5620312,181.53,3.9,10.3,224.9,297382.41,-51653.54,-1.0,159.58387551210734,22786404.439396597,22786404.439396597,24.389457788762524,7.140743841724238,24511.14057806828,87.10000000000001,32.91836639893733
1306893703.29,2.9972141,5.5615764,189.79,3.9,10.2,225.0,297339.91,-51706.85,-1.0,160.1514149472045,23479558.92057568,23479558.92057568,24.394674566165282,6.999009833539251,25004.71561889546,87.60000000000001,32.96667895361799
1306893703.71,2.9966183,5.5611068,198.43,4.3,10.2,225.1,297295.81,-51761.93,-1.0,165.89250728867094,24335311.266532198,24335311.266532198,24.378871642034103,6.788738992849126,25293.943306304394,87.00000000000001,33.018428734895345
1306893704.13,2.9960081,5.5606276,207.52,6.8,12.7,225.2,297250.59,-51818.13,-1.0,169.7492017478251,25075129.15051021,25075129.15051021,24.07422427201876,6.997248499919764,24871.37119905912,86.2,33.073807125096565
1306893704.55,2.9953952,5.560151,217.6,16.1,11.6,225.6,297205.19,-51874.05,-1.0,169.8247558896213,26643197.583166976,26643197.583166976,26.860208492684915,7.196587874310574,25667.76812742293,86.00000000000001,33.1331279912383
1306893704.97,2.9947636,5.5596677,228.29,21.1,11.4,226.1,297158.31,-51930.81,-1.0,173.78480343962786,27942403.669053175,27942403.669053175,24.875491329032425,7.169555252161315,26010.554829076442,85.6,33.19638367802745
1306893705.39,2.994119,5.5591841,239.21,25.1,11.4,226.7,297110.41,-51987.68,-1.0,175.61537870299082,29208202.55143048,29208202.55143048,24.158447719937165,7.445922010860556,26175.795396555506,86.9,33.26330625020593
1306893705.81,2.9934494,5.5586929,250.48,28.7,11.4,227.4,297060.56,-52045.5,-1.0,180.43493978634848,30034037.237512402,30034037.237512402,23.365076616211304,7.388556892879594,26178.672421081497,86.60000000000001,33.333727291325786
1306893706.23,2.9927774,5.5582126,261.69,32.0,11.5,228.2,297010.47,-52102.14,-1.0,178.70978425977006,30804714.984187312,30804714.984187312,21.83883495947443,7.3711346475019575,25909.86014011734,88.7,33.40712624145702
1306893706.65,2.9920679,5.5577198,273.41,35.1,11.5,229.1,296957.47,-52160.33,-1.0,186.2034655935233,30556253.62810487,30556253.62810487,21.563440313736002,7.027722433911876,25713.708120722073,86.60000000000001,33.4836562064614
1306893707.07,2.9913461,5.5572343,285.2,37.9,11.5,230.0,296903.44,-52217.77,-1.0,186.60341488088739,31972968.302925467,31972968.302925467,22.882363884439314,7.3744679807939875,25991.317951801604,86.5,33.56301862990846
1306893707.49,2.9906134,5.5567584,297.03,40.4,11.5,231.1,296848.5,-52274.2,-1.0,186.40712417819992,32685095.810188547,32685095.810188547,23.970163098719457,7.445425057758018,25189.02660310725,87.60000000000002,33.64511399298808
1306893707.91,2.9898498,5.5562805,309.19,42.8,11.5,232.2,296791.09,-52331.0,-1.0,191.2677730136784,33232345.99636547,33232345.99636547,23.565155844116767,7.580746890200378,25113.639520802906,90.0,33.729904019234795
1306893708.33,2.9890553,5.5558033,321.67,45.1,11.5,233.4,296731.25,-52387.89,-1.0,195.66875317658986,34957802.78451762,34957802.78451762,25.99968256631755,7.348119878902893,25750.400040463894,91.5,33.817289189838476
1306893708.75,2.9882443,5.5553369,334.23,47.1,11.5,234.7,296670.0,-52443.63,-1.0,196.32110743155656,36672057.201957844,36672057.201957844,24.943567304084635,7.105690506670704,25029.84730556235,89.7,33.90657287312806
1306893709.17,2.9874047,5.5548762,347.04,49.1,11.5,236.0,296606.44,-52498.9,-1.0,199.77812126511972,37973945.607817225,37973945.607817225,26.819846701628045,7.062578225023377,24731.146075743723,91.50000000000001,33.997479478552386
1306893709.59,2.9865355,5.5544225,360.12,50.9,11.5,237.4,296540.47,-52553.52,-1.0,203.25547739271693,40520898.405782096,40520898.405782096,25.822707496903675,6.931627253825259,24769.54920211797,91.20000000000002,34.090039627283794
1306893710.01,2.9856443,5.5539818,373.32,52.6,11.5,238.9,296472.69,-52606.81,-1.0,204.69696936723088,44112405.47511659,44112405.47511659,25.986452065586963,6.956830800095956,25516.12241859061,91.90000000000002,34.18407724758125
1306893710.43,2.9847422,5.5535604,386.5,54.2,11.5,240.4,296403.91,-52658.01,-1.0,203.62295356904065,46420991.39850807,46420991.39850807,26.505003305239484,7.182587603230996,25067.77179042083,90.4,34.279622960617125
1306893710.85,2.9837984,5.5531456,400.08,55.7,11.5,242.1,296331.78,-52708.67,-1.0,209.46905626906639,49069812.692156486,49069812.692156486,25.29362982092685,7.173218732862279,25377.439272748554,91.0,34.37659255816743
1306893711.27,2.9828325,5.5527482,413.79,57.1,11.5,243.7,296257.75,-52757.51,-1.0,210.86475934505424,52613121.89556603,52613121.89556603,24.273491155422352,6.8637748008136725,24872.534350747574,92.2,34.4750319719907
1306893711.69,2.9818305,5.5523643,427.82,58.4,11.5,245.5,296180.75,-52805.02,-1.0,215.25718338464753,55440912.43824125,55440912.43824125,23.921044162803497,7.017915616832645,24901.14821524357,90.6,34.57515555029342
1306893712.11,2.9808063,5.5520013,441.97,59.6,11.5,247.3,296101.88,-52850.33,-1.0,216.5060129818716,59426324.81311773,59426324.81311773,26.53037953501594,6.882290829907994,25400.11033582327,88.39999999999999,34.676802531920714
1306893712.53,2.9797607,5.5516606,456.24,60.8,11.5,249.2,296021.13,-52893.25,-1.0,217.78004359023657,64731578.631119855,64731578.631119855,24.383695631762933,6.8221104387188,25464.604147864306,88.3,34.779819811010825
1306893712.95,2.9786945,5.5513439,470.62,62.0,12.2,251.2,295938.59,-52933.6,-1.0,218.90975963162117,69844145.79653892,69844145.79653892,23.33326424257293,6.755130988748818,26053.02012308471,90.3,34.88423035344303
1306893713.37,2.9775714,5.5510434,485.59,63.4,12.2,253.4,295851.44,-52972.43,-1.0,227.532372727171,74553441.22090068,74553441.22090068,23.748733709607528,7.035864821865978,26258.481637301196,90.9,34.99029443918231
1306893713.79,2.9764687,5.550781,500.14,64.6,12.2,255.4,295765.63,-53006.93,-1.0,225.99288088861633,81268213.99326412,81268213.99326412,24.20389639631922,6.874436823174376,25998.6055218155,87.89999999999999,35.09748385300558
1306893714.21,2.97531,5.5505404,515.29,65.8,12.2,257.6,295675.19,-53039.29,-1.0,234.5049605042386,85305516.85463195,85305516.85463195,24.02014028649788,6.875139982682965,25466.937476339193,90.0,35.20616604898108
1306893714.63,2.9741423,5.5503343,530.42,67.0,12.2,260.0,295583.84,-53067.85,-1.0,233.57301836202592,91305438.85425885,91305438.85425885,24.183483596113803,6.634824828254777,26018.110170061966,90.8,35.31634102710882
1306893715.05,2.9729363,5.5501601,545.94,68.1,12.2,262.5,295489.22,-53093.04,-1.0,238.77808847040933,97925281.15355675,97925281.15355675,26.15603421376299,6.753511282895857,25777.945066898603,89.7,35.428001132095694
1306893715.47,2.9717398,5.5500264,561.25,69.1,12.6,265.0,295395.09,-53113.7,-1.0,234.93190912934577,104160299.50597313,104160299.50597313,27.14356068772492,6.9424102278445226,25813.804499297345,89.10000000000001,35.540886083976716
1306893715.89,2.9705119,5.5499305,576.9,70.1,12.7,267.6,295298.22,-53130.3,-1.0,239.40627910588952,109557090.71956868,109557090.71956868,28.170147865630973,6.836883699796416,26112.764677866016,91.20000000000002,35.655011193338034
1306893716.31,2.9692815,5.5498771,592.56,69.8,12.7,270.4,295200.84,-53142.2,-1.0,238.83451569246915,115740694.93568766,115740694.93568766,27.0887626405498,7.039676295745076,25473.905953599053,91.80000000000001,35.77029225195571
1306893716.73,2.9680278,5.5498667,608.57,70.9,12.8,273.2,295101.31,-53149.43,-1.0,242.76699635051776,119072488.36521345,119072488.36521345,28.452095547088437,7.256418146209946,25518.73782814264,92.20000000000002,35.88690533157076
1306893717.15,2.9667658,5.5499013,624.74,71.8,12.9,276.0,295000.84,-53151.69,-1.0,244.3050614382882,121565212.95929751,121565212.95929751,29.880410233405797,7.395185198420169,24720.454754719824,92.10000000000001,36.00488870864862
1306893717.58,2.9654719,5.549986,641.41,72.8,13.0,279.1,294897.47,-53148.55,-1.0,245.37300158580595,125524557.33703136,125524557.33703136,28.705747343863344,7.427374714025208,24759.20257588628,89.4,36.12417348555151
1306893718.0,2.9642017,5.5501199,657.91,73.6,13.0,282.3,294795.69,-53139.82,-1.0,247.93323793131668,126749277.26977965,126749277.26977965,30.34300503554984,7.720905851467725,24410.8911283045,91.9,36.24495104460663
1306893718.42,2.9629238,5.5503088,674.72,74.4,13.3,285.5,294692.91,-53125.02,-1.0,251.79683497024502,129160957.424517,129160957.424517,30.150578629803725,7.522918873133249,24391.856756801262,91.39999999999999,36.36699938231442
1306893718.84,2.961665,5.5505523,691.54,75.6,13.4,288.9,294591.25,-53104.07,-1.0,251.464953943494,130627231.83234602,130627231.83234602,29.301955717979347,7.4836395424716775,24450.466967149023,90.8,36.490341464554135
1306893719.26,2.9604432,5.5508489,708.18,76.3,13.6,292.6,294492.19,-53077.04,-1.0,248.52843449057767,130693924.30263638,130693924.30263638,26.888895533777962,7.656884461478348,24378.374066146363,90.49999999999999,36.61454093961975
1306893719.68,2.9592189,5.5512128,725.3,76.9,13.8,296.4,294392.47,-53042.53,-1.0,255.12106322495737,126040854.7843425,126040854.7843425,24.66436775914014,7.545822588801923,24230.365038541735,90.4,36.740126022734366
1306893720.1,2.9580434,5.5516335,742.28,77.5,13.8,300.4,294296.25,-53001.48,-1.0,252.6422393751132,122142492.59947868,122142492.59947868,22.83228998983294,7.5941330551228035,24842.246770383357,89.1,36.866729259829725
1306893720.52,2.9568969,5.5521214,759.54,78.0,14.1,304.5,294201.91,-52952.82,-1.0,256.07029601774775,113041885.92364359,113041885.92364359,21.134034253813663,7.512236376116389,24764.20403070351,87.2,36.994557343819224
1306893720.94,2.9558227,5.5526606,776.53,78.4,14.2,308.8,294112.94,-52898.12,-1.0,251.64469908477236,103096637.14647707,103096637.14647707,20.724476716509784,7.617449367830849,24517.9962509205,87.6,37.12313564653138
1306893721.36,2.9547806,5.5532753,794.03,78.8,14.2,313.2,294026.0,-52834.87,-1.0,258.74715133161703,91945556.2736468,91945556.2736468,20.103434792895612,7.692634232640637,25321.91972280044,86.70000000000002,37.252732103224304
1306893721.78,2.9538156,5.553945,811.46,79.1,14.2,317.7,293944.81,-52765.13,-1.0,257.26275060338133,80755218.0949363,80755218.0949363,20.780525565666995,7.708076303017182,24557.785940575457,86.80000000000001,37.38291036219193
1306893722.2,2.9529165,5.5546817,829.2,79.3,14.2,322.4,293868.44,-52687.64,-1.0,261.2105320949579,68144016.74358635,68144016.74358635,20.32745930184505,7.687574714771296,24334.910251273308,84.30000000000001,37.514037877502524
1306893722.62,2.952113,5.5554644,846.83,79.3,14.3,327.1,293799.31,-52604.57,-1.0,259.14142862661,57678528.818246946,57678528.818246946,20.120683740000615,7.947479860308018,24214.423622926017,82.0,37.64579312684636
1306893723.04,2.9514027,5.5562948,864.53,79.3,14.5,331.8,293737.31,-52515.76,-1.0,259.41716652967943,47824256.7820214,47824256.7820214,20.266818437085657,8.084169734875122,24091.005739403336,83.8,37.77822204198195
1306893723.46,2.9507927,5.5571698,882.44,75.8,14.5,336.7,293682.94,-52421.5,-1.0,260.3828258295215,38827510.01711953,38827510.01711953,23.097381718274622,7.8450078280845865,24091.628415759664,86.5,37.911623179339784
1306893723.88,2.9502808,5.5580861,901.09,69.8,13.9,340.9,293636.09,-52322.19,-1.0,262.72417628705443,33044659.168730687,33044659.168730687,24.489103310621267,8.052183796835873,24349.714922057865,85.69999999999999,38.046195576540136
1306893724.3,2.9498528,5.5590322,920.83,67.8,13.9,344.3,293595.72,-52219.16,-1.0,264.95605651297024,31285588.272188272,31285588.272188272,23.606737661547545,8.117414593208832,23418.592179527863,88.39999999999999,38.18288083463287
1306893724.72,2.9495023,5.5599954,941.54,66.9,14.1,347.5,293561.38,-52113.85,-1.0,265.46104198730944,32696459.73426931,32696459.73426931,23.768275301772718,8.136963160447968,24118.8877873283,89.0,38.322207168841096
1306893725.14,2.9492191,5.5609954,963.72,65.0,14.4,350.4,293532.16,-52004.13,-1.0,272.4616378952928,37982512.25449848,37982512.25449848,22.647983203852405,8.151794320510094,23899.239859923367,88.0,38.465506600162186
1306893725.56,2.9490093,5.561996,986.71,63.9,14.6,353.2,293508.72,-51893.99,-1.0,270.52186112624696,43921321.65861262,43921321.65861262,22.019889683188307,8.277261992095719,23684.578212275774,86.9,38.613008787388786
1306893725.98,2.948866,5.5630011,1010.63,63.4,14.9,355.8,293490.56,-51783.03,-1.0,270.4637331128941,54262153.88044843,54262153.88044843,22.058496495512784,7.931014284846694,23734.109641434963,88.99999999999999,38.765479259829725
1306893726.4,2.9487857,5.5640033,1035.32,59.1,15.2,358.3,293477.44,-51672.09,-1.0,269.07146249357726,67301467.62777068,67301467.62777068,20.416444282849714,7.971496527514606,24601.106866348116,89.99999999999999,38.92327016096708
1306893726.82,2.948757,5.5650371,1061.69,48.2,13.5,359.9,293468.16,-51557.38,-1.0,277.7062731506718,82439433.63681434,82439433.63681434,22.33299574485727,8.024573829178944,25202.72666512804,91.4,39.087751788263674
1306893727.25,2.9487459,5.5660907,1088.04,36.6,11.9,359.9,293460.16,-51440.41,-1.0,276.0241514943138,95990569.57187556,95990569.57187556,24.018332036564402,8.017195660603536,25457.378988097327,89.00000000000001,39.258855244081694
1306893727.67,2.9487322,5.5671493,1112.6,29.1,10.7,359.9,293451.94,-51322.87,-1.0,283.12559532916407,109186940.52162471,109186940.52162471,22.61742747967088,7.989306858030643,26121.24629026964,86.5,39.43504946980348
1306893728.09,2.9487134,5.5682134,1135.03,23.5,9.8,359.8,293443.25,-51204.76,-1.0,283.5375394400476,116592228.1491887,116592228.1491887,22.73060798503931,7.831327747576104,25593.896331815988,85.8,39.614137396312664
1306893728.51,2.9486907,5.5692747,1155.22,18.3,8.9,359.7,293434.28,-51086.98,-1.0,281.86385446194777,121512038.88244554,121512038.88244554,22.623173656246145,7.934707418463958,26380.517470403447,82.0,39.793569811010826
1306893728.93,2.9486645,5.570379,1174.18,14.0,8.1,359.7,293424.75,-50964.43,-1.0,292.66599463471675,127999514.94202642,127999514.94202642,24.749972886311582,8.093119966128736,25914.90782794792,83.3,39.971662549418525
1306893729.36,2.9486367,5.5714876,1191.34,10.3,7.4,359.7,293415.06,-50841.41,-1.0,286.2736770944639,130134860.92958805,130134860.92958805,25.72919417627002,7.792509914103379,26373.146181804084,84.6,40.14591233069587
1306893729.78,2.9486079,5.5726078,1207.05,6.9,6.9,359.7,293405.22,-50717.11,-1.0,295.75288887654847,136455649.47061485,136455649.47061485,27.140561241612644,7.564509837106437,26718.656131972755,85.8,40.31458905860488
1306893730.2,2.9485788,5.5737259,1221.34,3.7,6.4,359.8,293395.38,-50593.06,-1.0,294.7552720562001,141648570.53122488,141648570.53122488,26.1070276914941,7.778667987501375,26783.6716776082,84.60000000000001,40.47589373926979
1306893730.62,2.948549,5.5748572,1234.6,0.8,6.0,359.8,293385.38,-50467.52,-1.0,298.0293993936281,147227393.21851727,147227393.21851727,26.847844242833283,7.526617414073435,26613.357301902237,84.1,40.62844841993472
1306893731.04,2.9485186,5.5759934,1246.87,-2.0,5.6,359.8,293375.28,-50341.45,-1.0,299.0604297343197,152277570.56869859,152277570.56869859,26.191214983685203,7.228303103968449,26166.38915392605,84.19999999999999,40.77020913734504
1306893731.46,2.9484862,5.5771616,1258.57,-4.7,5.3,359.7,293364.81,-50211.84,-1.0,307.36834676415793,159152702.6876324,159152702.6876324,24.87165815612089,7.095002316901965,25595.212870195122,87.2,40.90075485038091
1306893731.88,2.9484531,5.5783064,1269.27,-7.1,5.0,359.7,293354.47,-50084.83,-1.0,300.98977550084425,162086139.98743618,162086139.98743618,24.659949677696115,7.407200903696198,25457.00844407789,90.30000000000001,41.020690327196306
1306893732.3,2.9484166,5.5794912,1279.67,-9.3,4.8,359.6,293343.56,-49953.39,-1.0,311.5220742158198,170130418.63463545,170130418.63463545,23.7742211530094,7.543392085176971,25910.041407011013,92.30000000000001,41.131416486426396
1306893732.72,2.9483778,5.58066,1289.36,-11.3,4.6,359.5,293332.59,-49823.75,-1.0,307.14875372757115,175298822.0993174,175298822.0993174,25.7778109097236,7.223080311838755,26042.051265236565,92.50000000000001,41.23410458791372
1306893733.14,2.9483345,5.5818602,1298.83,-13.1,4.4,359.4,293321.06,-49690.63,-1.0,315.46125556563624,179926696.09061116,179926696.09061116,25.506348465796357,7.09124630052264,26281.759191393976,90.7,41.32952781626017
1306893733.56,2.9482869,5.5830607,1307.88,-14.6,4.4,359.3,293309.19,-49557.51,-1.0,315.4678269618173,186766755.55228016,186766755.55228016,24.958765273551847,7.0418217360959945,25657.16293531219,88.70000000000002,41.418742601911966
1306893733.99,2.9482339,5.5842753,1316.67,-16.0,4.1,359.1,293296.75,-49422.84,-1.0,311.7185302903209,190911999.5322643,190911999.5322643,23.75900965743205,6.926226644278578,24985.519277865533,88.2,41.50265992474661
1306893734.41,2.9481748,5.5855011,1325.23,-17.0,4.0,358.9,293283.81,-49286.96,-1.0,322.1670028513086,198140438.09422594,198140438.09422594,23.24032198824193,6.961399090761269,25744.605025088305,89.9,41.582190764641624
1306893734.83,2.9481098,5.5867261,1333.54,-17.9,3.9,358.7,293270.38,-49151.19,-1.0,321.99056226824706,202261129.99613777,202261129.99613777,24.10840224238547,6.942111417285742,25895.904380424527,89.89999999999999,41.657932234457896
1306893735.25,2.9480383,5.5879529,1341.63,-18.6,3.9,358.5,293256.41,-49015.26,-1.0,322.4743054223167,207598604.38919154,207598604.38919154,24.548676650653757,7.195802508546306,25741.033788802273,89.89999999999999,41.73047379176323
1306893735.67,2.9479587,5.5892017,1349.69,-19.1,3.9,358.3,293241.66,-48876.91,-1.0,328.3921484625388,212662307.1228835,212662307.1228835,26.402341211632557,7.325189019357726,25697.291451325927,86.7,41.8002288223844
1306893736.09,2.9478733,5.5904311,1357.47,-19.4,3.9,358.1,293226.59,-48740.75,-1.0,323.2700619303729,216425937.3527461,216425937.3527461,25.610189764149936,7.322377257377678,25482.378579829463,83.3,41.86774850742378
1306893736.51,2.9477796,5.5916762,1365.22,-19.6,3.7,357.9,293210.75,-48602.9,-1.0,327.4724237301732,221036680.41001648,221036680.41001648,25.068962457445387,7.130021925613463,25036.7551254755,80.5,41.93323953979473
1306893736.93,2.947676,5.5929518,1373.06,-19.6,3.7,357.6,293193.91,-48461.7,-1.0,335.6802348961684,229021709.44270515,229021709.44270515,24.306314055152107,7.213831661092721,24233.272415118463,81.89999999999999,41.99731434294434
1306893737.35,2.9475671,5.5942008,1380.65,-19.5,3.7,357.4,293176.81,-48323.48,-1.0,328.6996985462678,230632592.25982377,230632592.25982377,25.13694364410905,7.326324025308108,24443.37898008866,84.0,42.059949950993335
1306893737.77,2.947447,5.595489,1388.41,-19.3,3.6,357.1,293158.59,-48180.95,-1.0,339.2295849863434,237372540.13513485,237372540.13513485,26.288662335490557,7.463157603519059,24531.699795933167,86.30000000000001,42.121598026233926
1306893738.19,2.9473223,5.5967468,1395.93,-19.1,3.6,356.9,293140.19,-48041.83,-1.0,331.224762491714,241211187.97112802,241211187.97112802,25.642222007536283,7.522910800862858,25147.131182994235,87.9,42.1822738792523
1306893738.61,2.947187,5.5980345,1403.59,-18.8,3.6,356.7,293120.78,-47899.44,-1.0,339.2769670170582,243940617.50121653,243940617.50121653,25.74958458508331,7.622673221323492,24241.470454684462,88.4,42.24226075589272
1306893739.03,2.9470434,5.5993308,1411.28,-18.4,3.6,356.5,293100.63,-47756.14,-1.0,341.6749687019774,248409135.46180853,248409135.46180853,26.1042798466122,7.572364866897144,23341.19685022565,88.80000000000001,42.301773004361664
1306893739.45,2.9468928,5.6006231,1418.92,-18.0,3.6,356.2,293079.94,-47613.31,-1.0,340.75373321318847,252161293.51434797,252161293.51434797,23.664045051166635,7.624193134698693,23497.285332444317,88.70000000000002,42.360940764641626
1306893739.87,2.9467364,5.6019049,1426.49,-17.5,3.6,356.0,293058.88,-47471.68,-1.0,338.05904470069396,255534642.9961707,255534642.9961707,22.102241288287285,7.533776740803416,23942.944100216842,88.6,42.41973341556026
1306893740.29,2.9465705,5.6032069,1434.18,-17.1,3.6,355.8,293036.94,-47327.84,-1.0,343.5904307832289,262493578.8078372,262493578.8078372,24.359383323239378,7.321936759012732,24228.80367146603,90.39999999999999,42.478457168841096
1306893740.71,2.9463981,5.6045072,1441.87,-16.6,3.6,355.6,293014.47,-47184.22,-1.0,343.27519943029904,265213693.08506203,265213693.08506203,25.850150219876813,7.419709214941459,24722.10562455644,92.69999999999999,42.53713499036341
1306893741.13,2.9462166,5.6058244,1449.67,-16.0,3.6,355.4,292991.16,-47038.77,-1.0,347.90788232015797,268867516.43965936,268867516.43965936,24.679087279040132,7.614348896339276,24697.608868179705,91.8,42.595782190713365
1306893741.55,2.9460277,5.6071491,1457.53,-15.5,3.6,355.2,292967.22,-46892.54,-1.0,349.9940534627633,273442458.516118,273442458.516118,21.91164352862476,7.318513758168523,24386.06205755498,91.3,42.65463608397671
1306893741.97,2.9458327,5.6084715,1465.41,-15.0,3.6,355.0,292942.84,-46746.58,-1.0,349.54171101391915,271880302.6186936,271880302.6186936,21.16411729486871,7.333552556216151,24453.091184838544,90.2,42.713581840757115
1306893742.39,2.9456334,5.609782,1473.24,-14.5,3.6,355.0,292918.16,-46601.96,-1.0,346.52143548185785,275334039.38422865,275334039.38422865,20.801730397560775,7.4771514168083195,24163.205406755493,88.1,42.772764911623256
1306893742.81,2.9454264,5.6111057,1481.18,-13.9,3.6,354.7,292892.81,-46455.92,-1.0,350.1400395639862,278764280.4394553,278764280.4394553,22.765302384985226,7.2189777436964615,24714.0850291008,86.3,42.83216233069587
1306893743.23,2.9452131,5.6124329,1489.18,-13.4,3.6,354.5,292866.94,-46309.52,-1.0,351.21143715265674,281481069.24570525,281481069.24570525,21.75431886705271,7.494573693744088,24826.949952368264,87.70000000000002,42.89179706385423
1306893743.65,2.9449934,5.6137666,1497.26,-12.9,3.6,354.5,292840.5,-46162.41,-1.0,353.1286297247495,286490839.60636175,286490839.60636175,21.718651503612886,7.232006186286705,24719.243453087412,87.60000000000001,42.951768629908464
1306893744.08,2.9447629,5.6151323,1505.58,-12.4,3.6,354.2,292812.97,-46011.82,-1.0,353.2814240842742,291541173.62062633,291541173.62062633,21.133100543288833,7.528818513423797,24557.406273178658,89.0,43.01231434294434
1306893744.5,2.9445283,5.6164916,1513.91,-12.0,3.6,354.2,292785.19,-45861.95,-1.0,360.20176675808347,292479340.576678,292479340.576678,20.21479681009393,7.398239837589313,24658.45055899643,89.0,43.07334999473787
1306893744.92,2.9442933,5.6178252,1522.13,-11.5,3.6,353.9,292757.53,-45714.95,-1.0,353.435001163584,291459439.43290484,291459439.43290484,18.877698496135476,7.1883886374922445,24148.68776302386,86.0,43.13479137706507
1306893745.34,2.9440521,5.6191679,1530.46,-11.0,3.7,353.8,292729.34,-45566.95,-1.0,356.02550111317174,293644261.21484065,293644261.21484065,20.35549770382044,6.903682946441052,24724.453059282412,88.2,43.19663848992597
1306893745.76,2.9438058,5.6205134,1538.85,-10.6,3.7,353.8,292700.72,-45418.68,-1.0,356.8623923972831,295243519.6525666,295243519.6525666,21.168251444937695,7.100927307119586,24543.341815934316,87.60000000000001,43.25889133332054
1306893746.19,2.9435482,5.6218968,1547.54,-10.2,3.7,353.5,292670.94,-45266.24,-1.0,358.55123978507726,297628156.48387694,297628156.48387694,20.03530167552929,7.0926686140297255,24726.02217988431,86.2,43.32176425545527
1306893746.61,2.9432925,5.6232473,1556.09,-9.8,3.7,353.4,292641.53,-45117.45,-1.0,358.46868705547143,302909419.0178841,302909419.0178841,21.830915574508392,7.196722259281489,24872.329338433898,89.0,43.38518835869237
1306893747.03,2.9430261,5.6246325,1564.91,-9.4,3.7,353.3,292611.06,-44964.86,-1.0,367.8606376011052,306021091.4265011,306021091.4265011,21.422330616587452,7.226899208113579,25199.723602908998,87.5,43.44928612772124
1306893747.45,2.9427642,5.6259746,1573.52,-9.0,3.7,353.2,292581.22,-44817.03,-1.0,356.44950641524076,303448330.0539954,303448330.0539954,21.802438120163895,7.132909165603619,25840.485406241634,89.00000000000001,43.5138508696285
1306893747.87,2.9424976,5.6273221,1582.22,-8.6,3.7,353.2,292551.0,-44668.63,-1.0,357.97380220460974,306518306.44511,306518306.44511,22.832535708902434,7.23474428742476,26350.722639214182,89.40000000000002,43.57889023970724
1306893748.29,2.9422213,5.6287008,1591.19,-8.3,3.7,353.2,292519.75,-44516.8,-1.0,366.4943914090356,309434985.3808253,309434985.3808253,24.08550661025815,7.118886199274028,26481.80555536316,91.30000000000003,43.64442720383672
1306893748.71,2.9419425,5.6300751,1600.19,-7.9,3.7,353.2,292488.38,-44365.49,-1.0,365.3496022414303,307003503.4071363,307003503.4071363,22.57054442914362,7.121411017107688,25742.382786008995,89.3,43.710477072603126
1306893749.13,2.9416654,5.6314252,1609.11,-7.6,3.7,352.8,292457.28,-44216.85,-1.0,358.99965263790864,311778978.5265751,311778978.5265751,22.942644061221323,7.1098959854334165,26490.04730482906,90.9,43.77706281188572
1306893749.55,2.9413808,5.6327967,1618.23,-7.1,3.7,352.7,292425.44,-44065.86,-1.0,364.85970880217485,316279513.8335683,316279513.8335683,21.765771069823753,7.37281079531307,25827.18727928876,89.6,43.8442533193223
1306893749.97,2.9410915,5.6341767,1627.48,-6.7,3.7,352.6,292393.19,-43913.96,-1.0,367.1991821558547,313933181.18103087,313933181.18103087,23.678527419048244,7.144652017985644,26183.917157913318,91.5,43.912102181964464
1306893750.39,2.9408011,5.6355487,1636.74,-6.2,4.0,352.6,292360.91,-43762.95,-1.0,365.1503584676201,314658884.5477248,314658884.5477248,24.55174839863158,7.24868919732502,25717.472943412562,93.1,43.98038739631267
1306893750.82,2.9405029,5.6369455,1646.24,-5.8,4.0,352.6,292327.81,-43609.22,-1.0,363.19525722901636,318857781.87324,318857781.87324,25.400308706379526,7.17822515497465,25507.208662355377,90.20000000000002,44.04939986350426
1306893751.24,2.9402082,5.6383146,1655.61,-5.4,4.0,352.4,292295.22,-43458.55,-1.0,364.53755382613707,316797696.45662826,316797696.45662826,23.962942369867736,7.150964194544558,25076.110871061548,92.40000000000002,44.118833371815725
1306893751.66,2.939911,5.6396855,1665.07,-5.0,4.0,352.4,292262.41,-43307.7,-1.0,365.08257627162595,318871000.7526563,318871000.7526563,23.051997670970838,7.221911773795592,25194.610802511866,90.00000000000001,44.18891758003971
1306893752.08,2.9396057,5.6410844,1674.78,-4.6,4.0,352.4,292228.75,-43153.77,-1.0,372.703958224352,322703048.73751,322703048.73751,23.782685443868264,7.307383945673074,25183.066765178693,88.9,44.25977497286559
1306893752.5,2.9393032,5.642462,1684.41,-4.3,4.0,352.4,292195.47,-43002.2,-1.0,367.02282083109736,319835414.5630204,319835414.5630204,23.088320998497487,7.287193348230579,25361.575284443265,87.9,44.331137615035324
1306893752.92,2.9389963,5.6438513,1694.18,-4.0,4.0,352.4,292161.75,-42849.35,-1.0,370.2415077506395,318881251.89500254,318881251.89500254,24.77579031549571,7.592873051691474,25492.975767849057,91.20000000000002,44.403089714772854
1306893753.34,2.9386927,5.6452191,1703.86,-3.8,4.0,352.4,292128.44,-42698.86,-1.0,364.54420969813583,319332148.39702487,319332148.39702487,24.068209286476474,7.983933744860291,25571.207651261553,90.4,44.47562361678511
1306893753.76,2.9383804,5.6466183,1713.81,-4.7,4.0,352.1,292094.25,-42544.94,-1.0,372.996147025532,320578184.8580013,320578184.8580013,24.473513793479768,7.8848055536644575,25738.521112746694,89.80000000000001,44.548792908123694
1306893754.18,2.9380726,5.6479894,1723.61,-4.0,4.0,352.1,292060.59,-42394.12,-1.0,365.51263159506044,320885780.0856297,320885780.0856297,23.403605784549146,7.882546482955586,25367.812327317388,88.0,44.62238324058214
1306893754.6,2.9377547,5.6493984,1733.74,-3.3,4.2,352.0,292025.88,-42239.13,-1.0,375.7786571177972,325521637.2680567,325521637.2680567,25.460359162186595,7.726729985693677,25380.710480277125,85.6,44.69663958353926
1306893755.02,2.9374373,5.6507991,1743.86,-3.4,4.2,352.0,291991.25,-42085.05,-1.0,373.6276397495934,325144330.2624957,325144330.2624957,23.00575851296557,7.588296090657784,25375.08429179189,85.7,44.77137055466787
1306893755.44,2.9371257,5.6521682,1753.8,-3.4,4.2,352.0,291957.31,-41934.46,-1.0,365.15197487874866,324478706.96346456,324478706.96346456,25.276521585525984,7.691679093151546,25819.023444480663,83.39999999999999,44.84653787750251
1306893755.86,2.9368072,5.653562,1763.96,-3.1,4.2,352.0,291922.66,-41781.16,-1.0,371.8398316695073,328010161.5305449,328010161.5305449,26.58935437891801,7.650603293265123,25205.356758662216,81.99999999999999,44.922241070853346
1306893756.7,2.9361655,5.6563542,1784.45,-3.0,4.2,352.0,291852.94,-41474.08,-1.0,372.5217191380455,325962525.70008606,325962525.70008606,27.23963936184771,7.470050555512409,24740.911423390175,81.19999999999999,45.006196670153436
1306893757.54,2.9355178,5.6591522,1805.15,-3.0,4.3,352.0,291782.72,-41166.38,-1.0,373.39113880432046,327634907.1546395,327634907.1546395,26.982339240050177,7.597014210086983,24241.802183117834,81.3,45.09862667890234
1306893760.08,2.9335262,5.6676364,1868.79,-2.8,4.3,352.0,291567.63,-40233.49,-1.0,374.6100101339439,330675667.5205416,330675667.5205416,25.12898345781278,7.623328713515425,24266.551433994162,77.9,45.232295751518265
1306893761.35,2.9325067,5.6719148,1901.31,-2.7,4.3,352.0,291458.0,-39763.13,-1.0,378.0195285683997,331091455.75603753,331091455.75603753,26.92586014908478,7.466694867235891,23948.804152219163,78.1,45.383449513548015
1306893762.2,2.9318221,5.6747654,1923.12,-2.6,4.3,351.4,291384.5,-39449.76,-1.0,376.4169675150476,327685054.7544895,327685054.7544895,26.61936577168284,7.636156316187393,24488.91112685229,77.8,45.543682453180544
1306893765.15,2.929397,5.6847338,2000.15,-2.3,4.3,351.4,291125.13,-38354.07,-1.0,379.4557619166665,331041422.92884004,331041422.92884004,26.05347539722634,7.740391092518837,24408.280755830183,78.70000000000002,45.755381928246166
1306893767.26,2.9276276,5.691894,2056.1,-2.1,4.3,351.4,290936.69,-37567.18,-1.0,386.5925339960352,330409295.29629356,330409295.29629356,23.32604159567839,7.709589570877281,24685.17971032114,81.60000000000001,46.00215795624267
1306893768.52,2.9265581,5.6961819,2089.83,-2.1,4.5,351.4,290823.06,-37096.0,-1.0,387.79360197365526,332526790.38371843,332526790.38371843,24.894606586132227,7.731669743407405,24562.727578766157,83.9,46.2670081312208
1306893768.94,2.9262004,5.6976097,2101.1,-2.1,4.5,351.0,290785.09,-36939.11,-1.0,387.4533110322437,339232339.2882748,339232339.2882748,23.221179485223452,7.8131627142548705,24360.371978658888,85.1,46.53287646017968
1306893769.37,2.9258254,5.6991032,2112.9,-1.9,4.5,351.0,290745.34,-36775.0,-1.0,395.82924819327326,343862231.2237289,343862231.2237289,22.755150423943935,7.707309111721575,24426.384653888534,86.2,46.800000257205056
1306893769.79,2.9254692,5.7005193,2124.12,-1.8,4.5,351.0,290707.56,-36619.41,-1.0,384.33422744932227,346039479.9813437,346039479.9813437,22.79113416050987,7.889158929866615,24340.204028064563,89.4,47.06002759753751
1306893770.63,2.9247402,5.7034087,2147.06,-1.7,4.5,351.0,290630.34,-36301.93,-1.0,392.1086826409014,353353447.0422847,353353447.0422847,22.245205436553796,7.682943400503551,24630.574928604263,89.2,47.32176972352177
1306893771.05,2.9243804,5.7048309,2158.37,-1.7,4.5,350.9,290592.28,-36145.68,-1.0,386.0258280309323,358050956.49030465,358050956.49030465,23.489935311407887,7.492331160450667,25081.346860731785,92.8,47.54345170077461
1306893771.48,2.9240127,5.7062813,2169.94,-1.6,4.5,350.9,290553.38,-35986.33,-1.0,384.58732738266883,363847308.9934417,363847308.9934417,24.45056109579134,7.582538259623637,24914.58070609976,92.8,47.749095839007325
1306893775.27,2.9206856,5.7193011,2274.6,-1.6,4.6,350.9,290202.22,-34555.98,-1.0,391.7566229160753,371762181.0443366,371762181.0443366,26.58798255847265,7.562434540858533,25006.993272573683,92.19999999999999,48.01816408047714
1306893775.69,2.9203118,5.7207529,2286.37,-1.3,4.6,350.9,290162.84,-34396.5,-1.0,394.28295128904284,375937716.8682946,375937716.8682946,28.22464260367282,7.8053941794228265,25366.512734773223,92.19999999999999,48.23727387925229
1306893776.11,2.919939,5.7221986,2298.1,-1.3,4.6,350.7,290123.59,-34237.69,-1.0,392.6566456942272,375382141.87767017,375382141.87767017,30.57747808049629,7.768690568871583,25613.721703762058,90.2,48.4225319719907
1306893925.95,2.7840253,5.8623762,604.43,-75.1,4.6,154.2,278441.31,-19308.88,-1.0,125.34098145427696,374485382.05891734,374485382.05891734,30.660857965221247,7.684375543035341,25241.63250792006,87.0,47.285414736645116
1306893926.37,2.7844992,5.8617436,624.51,-77.2,24.1,148.5,278482.91,-19376.94,-1.0,197.96694078483526,353364949.7355171,353364949.7355171,32.14154231141243,7.546902310029134,24614.40608242939,88.9,46.15504181451038
1306893926.58,2.7847636,5.8614434,634.31,-78.2,23.9,145.5,278505.75,-19409.05,-1.0,195.24009700549536,251301840.97262424,251301840.97262424,33.12858176570463,7.443117824270038,25178.31345638494,90.60000000000001,45.023137833757986
1306893926.79,2.7850576,5.8611421,644.34,-79.0,23.7,142.8,278530.97,-19441.16,-1.0,201.92444078873152,146750423.99134594,146750423.99134594,30.776074543633705,7.232488520355816,25472.052419627154,90.80000000000001,43.89032287312806
1306893927.0,2.7853603,5.8608614,653.86,-79.9,23.4,139.8,278556.72,-19470.92,-1.0,194.3489846284471,81361977.0584638,81361977.0584638,32.00543282370308,7.241257817992131,25041.73676608657,88.50000000000001,42.74723450917355
1306893927.21,2.7856878,5.8605854,663.41,-80.6,23.2,137.1,278584.41,-19500.06,-1.0,198.118976541596,167766266.86945307,167766266.86945307,31.82583063871285,7.339548105823933,24806.46180112479,85.4,41.6027988136355
1306893927.42,2.7860443,5.8603129,673.04,-81.3,22.8,134.1,278614.34,-19528.67,-1.0,203.61786543012275,212441385.354967,212441385.354967,31.104127917730743,7.343865140309895,24525.379720618967,87.20000000000002,40.4568779912383
1306893927.84,2.7867875,5.8598211,691.04,-82.5,22.1,128.3,278676.31,-19579.83,-1.0,196.98616741492657,181936906.51028866,181936906.51028866,30.162468581922887,7.0808284212702395,24330.949371334187,90.9,39.24461639893734
1306893928.05,2.7871897,5.8595908,699.81,-82.9,21.7,125.6,278709.59,-19603.54,-1.0,199.64721520727167,133617933.84620866,133617933.84620866,29.261570924989886,6.855363889601017,23688.081498092488,89.8,38.03005821870986
1306893928.26,2.78759,5.8593833,707.96,-83.3,21.3,122.6,278742.56,-19624.71,-1.0,191.0165336240476,73169220.84192352,73169220.84192352,29.336034557763327,6.935843295916273,23064.599828127226,90.4,36.81275944355676
1306893928.9,2.7889383,5.8588173,731.93,-84.0,19.9,113.9,278852.81,-19681.29,-1.0,197.269901580406,40030871.83074836,40030871.83074836,28.116548563580523,7.080869114748825,23764.21822259249,91.5,36.91036443043339
1306893929.11,2.789406,5.8586626,739.2,-84.1,19.4,111.1,278890.78,-19696.3,-1.0,197.1420051855456,36852972.3162166,36852972.3162166,28.294573221449806,7.11925858040208,24219.095850053196,90.39999999999999,36.99816298686384
1306893929.32,2.7898891,5.8585229,746.23,-84.1,18.9,108.1,278929.88,-19709.56,-1.0,198.89398767428622,39338806.278861225,39338806.278861225,27.85043816473689,7.17813450867996,23645.258507177034,88.9,37.08384102710881
1306893929.53,2.7903749,5.8584016,752.86,-83.9,18.5,105.4,278969.06,-19720.77,-1.0,195.87345801759983,40164149.54163432,40164149.54163432,29.05645793954264,7.244995119089985,23380.53132644733,88.60000000000001,37.16691626770374
1306893929.74,2.7908715,5.8582967,759.22,-83.7,18.0,102.4,279009.0,-19730.1,-1.0,196.71195083798654,40624472.182329446,40624472.182329446,27.775974304080542,7.40391676978024,23669.907286692007,89.00000000000001,37.24757243568275
1306893930.59,2.7929522,5.8580512,782.71,-82.2,16.9,91.0,279175.0,-19747.65,-1.0,196.89690983888548,40459696.18625395,40459696.18625395,28.033019264753392,7.270436434874533,23613.972552413285,89.00000000000001,37.33890008222693
1306893930.8,2.7934771,5.8580364,788.21,-81.7,16.7,88.1,279216.56,-19746.84,-1.0,197.77818785895974,37185157.74790599,37185157.74790599,28.445639977799942,7.194784573162383,24504.83314542818,88.00000000000001,37.42706609272561
1306893931.01,2.7939951,5.8580396,793.61,-81.2,16.2,85.5,279257.47,-19744.06,-1.0,194.88224009595777,33523933.809767652,33523933.809767652,27.10898904175667,7.216321182903677,23898.1979535673,86.4,37.50558643393297
1306893931.22,2.7945204,5.8580603,799.07,-80.5,15.1,82.8,279298.84,-19739.31,-1.0,197.76627874143873,32810920.579440378,32810920.579440378,26.81146358759229,7.085049474949413,24199.239042777932,86.9,37.58157287312807
1306893931.43,2.7950256,5.8580946,804.3,-79.7,13.6,80.8,279338.53,-19733.14,-1.0,190.52472601731108,36917277.83211228,36917277.83211228,26.462093334780874,7.338125698832528,24592.834278761133,88.19999999999999,37.65532396674136
1306893931.64,2.7955435,5.8581422,809.62,-78.6,12.6,79.0,279379.13,-19725.43,-1.0,195.94055676982833,47398056.993319556,47398056.993319556,26.492574115152383,7.358149774757241,24437.23957561441,87.9,37.71479793874486
1306893932.06,2.7965979,5.858272,820.3,-76.0,11.8,75.9,279461.59,-19706.07,-1.0,200.6574290689637,55188306.85948181,55188306.85948181,24.522714523778628,7.241513831336386,24312.50107863249,87.60000000000001,37.7768823656915
1306893932.27,2.7971093,5.85835,825.44,-74.6,11.0,74.6,279501.47,-19695.03,-1.0,195.82742676141794,59479604.84469889,59479604.84469889,23.63001628426124,7.147878437944256,24050.181983914266,88.9,37.83751994224443
1306893932.9,2.7986733,5.8586337,840.8,-68.5,8.4,72.0,279623.19,-19656.19,-1.0,201.41187119778576,65973115.426570915,65973115.426570915,22.22196307008798,7.353202705994892,23950.945579528343,86.5,37.9048405896635
1306893933.95,2.8013627,5.8591992,864.08,-51.6,10.1,69.9,279831.97,-19580.78,-1.0,209.6027995378095,66906689.31250122,66906689.31250122,22.019941389408324,7.159531615660237,23554.17642118418,89.20000000000002,37.98511399298808
1306893934.37,2.8024145,5.8594582,874.12,-16.9,12.8,67.6,279913.38,-19547.09,-1.0,208.0420373480706,65120075.87878285,65120075.87878285,22.500376718969225,7.327219321769297,23477.360479811592,89.6,38.05509102710882
1306893934.58,2.8029322,5.8595946,880.42,3.0,12.2,67.3,279953.38,-19529.52,-1.0,207.05753991791937,66303368.83028301,66303368.83028301,21.186040614793257,7.327407213314859,23518.473088115126,88.89999999999999,38.12568048467662
1306893934.79,2.8034591,5.8597335,887.45,14.4,12.1,67.5,279994.09,-19511.61,-1.0,211.286360301009,68172093.45330371,68172093.45330371,22.659895962746486,7.411327941747443,23898.43332850753,88.60000000000002,38.19751775501783
1306893935.0,2.8040091,5.8598767,895.19,19.9,12.2,67.8,280036.59,-19493.13,-1.0,220.62584763184296,64648070.3921986,64648070.3921986,23.761603473726776,7.556697487972892,24019.448237291002,88.4,38.27110043218318
1306893935.42,2.805063,5.8601445,910.74,25.9,12.4,68.5,280118.09,-19458.45,-1.0,211.02014679551135,61748549.037712984,61748549.037712984,24.133509717883584,7.3587030666667514,24088.22301731452,86.70000000000002,38.35258337181572
1306893936.05,2.8066449,5.8605249,935.3,42.7,13.6,70.0,280240.56,-19408.78,-1.0,210.3286484981411,57697542.964617096,57697542.964617096,25.643082582552097,7.500156606232693,23913.866044779552,89.60000000000001,38.44879509535029
1306893936.68,2.8082396,5.8608668,961.17,48.8,13.9,72.2,280364.31,-19363.32,-1.0,210.3115936560238,49930159.1471837,49930159.1471837,24.756915360703733,7.834009440936912,23733.313206734594,87.9,38.55663520908607
1306893936.89,2.8087863,5.8609736,970.16,50.1,14.0,73.0,280406.78,-19348.9,-1.0,214.95488928760338,45306822.997648574,45306822.997648574,26.189514020459427,7.821975547038486,24382.587951486337,86.2,38.66742261066088
1306893937.52,2.8103862,5.8612527,996.72,55.4,14.6,75.5,280531.38,-19310.39,-1.0,208.46943327445985,43595664.62725012,43595664.62725012,28.24144904690986,7.7183943262126125,24492.285889180406,86.0,38.786783940494644
1306893937.73,2.8109118,5.8613326,1005.5,56.2,14.7,76.4,280572.38,-19299.05,-1.0,204.14030833005108,44933057.521425724,44933057.521425724,30.748690585055584,7.704642607416976,25050.19317828383,83.89999999999999,38.895045095350284
1306893938.36,2.8125194,5.8615405,1032.41,57.8,14.8,79.1,280698.0,-19268.42,-1.0,207.03305794964578,46965450.13834821,46965450.13834821,30.255114248998417,7.6375674426701785,25548.94479521438,85.30000000000001,39.016220729645994
1306893938.57,2.8130701,5.8615991,1041.62,58.4,14.8,80.0,280741.13,-19259.32,-1.0,211.92971363804278,50165545.20525262,50165545.20525262,31.80432634245725,7.538027151861741,24965.356686126022,85.30000000000001,39.13962405423043
1306893938.78,2.8135973,5.861649,1050.43,59.0,14.9,81.0,280782.44,-19251.3,-1.0,202.27894371877707,51694184.041389346,51694184.041389346,30.211317962499052,7.594350725152195,25367.552401159788,86.2,39.26439002098458
1306893939.62,2.8157237,5.8617871,1085.87,60.0,14.9,84.9,280949.53,-19225.97,-1.0,203.24777926449624,55218304.987687334,55218304.987687334,27.938358327173077,7.475265541246995,25474.364277743356,85.4,39.410361149593506
1306893939.83,2.8162437,5.8618055,1094.5,60.2,14.9,85.8,280990.5,-19221.5,-1.0,198.33262007370195,58390387.305692375,58390387.305692375,26.545046371949145,7.546654487466499,25236.71794647994,87.5,39.55103481538528
1306893940.67,2.8183697,5.8618155,1129.7,60.8,14.9,89.8,281158.41,-19210.39,-1.0,202.63526697743214,62642144.35563342,62642144.35563342,24.27235900994438,7.286010844331016,25549.902777862935,84.8,39.69985371302308
1306893940.88,2.8188906,5.8618016,1138.31,60.8,14.9,90.9,281199.63,-19209.49,-1.0,198.6943734438399,69566640.44475032,69566640.44475032,26.314311678935432,7.248781807397467,25953.329708372647,87.49999999999999,39.83545957479036
1306893941.51,2.8204216,5.8617227,1163.6,60.8,15.3,93.9,281321.13,-19211.06,-1.0,195.2590373614354,73799573.72177336,73799573.72177336,23.92397438345229,7.374478304529557,26116.571048054746,87.99999999999999,39.983543564291665
1306893941.93,2.8214399,5.8616377,1180.44,60.8,15.3,95.9,281402.13,-19215.72,-1.0,195.7095579927812,74916738.16567141,74916738.16567141,23.381233764698024,7.529815383604417,26826.20265113798,88.0,40.12418660891109
1306893942.14,2.8219468,5.8615852,1188.84,60.8,15.3,97.0,281442.53,-19219.16,-1.0,195.69602022360803,75456977.98769808,75456977.98769808,23.03174587000125,7.4420485409951365,26706.56974243844,87.5,40.26453875239315
1306893942.77,2.8234514,5.861389,1213.86,60.8,15.5,100.2,281562.69,-19233.88,-1.0,194.8761915116378,74005976.42570798,74005976.42570798,23.91016231687277,7.385652264223225,26681.588915817683,87.8,40.40344404548152
1306893943.19,2.8244184,5.8612294,1230.04,61.3,15.5,102.3,281640.16,-19247.07,-1.0,189.8710157315743,68310462.06689599,68310462.06689599,21.359512144285887,7.514905550453779,27175.565817347182,89.39999999999999,40.54768507785247
1306893943.82,2.8258444,5.8609428,1254.13,61.3,15.5,105.6,281754.72,-19272.19,-1.0,189.07174869476006,66044415.2933166,66044415.2933166,22.551178167066706,7.529754490214651,26415.70455202952,88.1,40.70362339806245
1306893944.03,2.8263308,5.8608305,1262.42,61.3,15.5,106.7,281793.88,-19282.38,-1.0,195.862874047712,63195860.895780705,63195860.895780705,22.993112688757826,7.715349475882223,26772.904443499378,87.89999999999999,40.838777597537515
1306893944.45,2.8272399,5.8605994,1278.05,61.3,15.7,108.9,281867.25,-19303.78,-1.0,185.02872917215717,59737054.18648684,59737054.18648684,21.854293741070006,7.7712581307208195,26965.80831203908,86.89999999999999,40.97929050217443
1306893944.66,2.8277041,5.8604703,1286.11,61.3,15.7,110.0,281904.78,-19315.94,-1.0,191.15079473822772,57672374.885187745,57672374.885187745,24.52762035234574,7.729048308496207,26631.183608055297,87.89999999999999,41.09902694136953
1306893945.29,2.8290277,5.8600584,1309.41,61.3,15.7,113.3,282012.06,-19355.46,-1.0,184.77231046278206,53976957.07580146,53976957.07580146,24.18592004105106,7.744832832554567,26486.400086410227,86.6,41.230009006111445
1306893945.5,2.8294629,5.8599078,1317.2,61.3,15.7,114.5,282047.44,-19370.14,-1.0,185.8682253671087,50239732.22096936,50239732.22096936,26.2889711300552,7.929618531757715,25938.143066685945,88.50000000000001,41.34759430794871
1306893945.93,2.83031,5.8595916,1332.58,61.3,15.7,116.8,282116.47,-19401.27,-1.0,179.55452414785853,49177168.09084898,49177168.09084898,24.77214103437401,7.939725048899708,25649.3928640194,90.30000000000001,41.46406193699508
1306893946.15,2.8307426,5.8594176,1340.55,61.3,16.0,118.0,282151.81,-19418.57,-1.0,182.4650918473355,49214748.984454975,49214748.984454975,25.11163063834784,8.049637994864394,25887.32239643055,91.60000000000001,41.58020038843865
1306893946.78,2.8319347,5.8588896,1363.05,61.3,16.2,121.6,282249.5,-19471.61,-1.0,180.1754382964732,48846281.69118847,48846281.69118847,24.221570844326983,8.088523026845328,25513.46185786071,90.2,41.69440970602395
1306893946.99,2.8323204,5.8587021,1370.51,61.3,16.2,122.7,282281.22,-19490.61,-1.0,179.9424971082524,50914890.196653575,50914890.196653575,24.30154487790942,7.931685125620284,25234.988770244312,89.0,41.801943608036204
1306893947.42,2.833064,5.8583146,1385.23,61.5,16.4,125.3,282342.53,-19530.15,-1.0,173.5375379361022,52971240.61520515,52971240.61520515,23.74701530693882,7.713636506455634,25306.759068977924,90.8,41.90230450042465
1306893947.63,2.8334285,5.8581112,1392.61,61.5,16.4,126.4,282372.66,-19551.03,-1.0,178.651799188943,52121871.03253209,52121871.03253209,23.7367835641427,7.639113598172272,24503.079274035576,93.80000000000001,42.00196876114207
1306893948.26,2.8344408,5.8574921,1413.84,61.5,16.6,130.2,282456.75,-19615.04,-1.0,171.86625142350206,52402065.421471,52402065.421471,25.8623532614325,7.38427357635361,24937.12663579503,93.10000000000001,42.10591998598895
1306893948.89,2.8353627,5.8568464,1434.35,61.5,16.6,134.0,282533.88,-19682.42,-1.0,166.82700741445635,51370208.425558634,51370208.425558634,24.518053764230014,7.495166724348819,24913.73907158773,92.19999999999999,42.219402050730864
1306893949.1,2.8356551,5.8566219,1441.15,61.5,16.8,135.3,282558.47,-19705.98,-1.0,166.57956524662734,49801229.37318816,49801229.37318816,25.426551955007554,7.25462484858571,24395.750989460543,92.90000000000002,42.32025288187697
1306893949.73,2.8364885,5.8559198,1461.53,61.5,16.8,139.2,282628.97,-19780.04,-1.0,166.88128729878088,48446264.75969114,48446264.75969114,25.106775360638583,7.173055545211642,25018.68213646615,89.90000000000002,42.43074172702133
1306893950.36,2.8372382,5.8551914,1481.47,61.5,16.8,143.2,282693.03,-19857.42,-1.0,164.21012887377992,47155786.81821545,47155786.81821545,26.569693500158213,7.1388112487259745,24872.185272527884,88.70000000000003,42.54472138581397
1306893950.58,2.8374861,5.8549259,1488.49,61.5,16.8,144.5,282714.38,-19885.75,-1.0,166.18402551210855,45756154.293292046,45756154.293292046,26.134406346969367,7.1869666716305165,24337.49318999501,90.20000000000002,42.657973791763226
1306893951.01,2.8379492,5.8543898,1502.32,61.5,16.8,147.1,282754.53,-19943.12,-1.0,167.92801912111915,45397961.35133004,45397961.35133004,24.76137496918738,7.293849647153036,24650.286257400134,90.1,42.76458905860488
1306893951.44,2.8383799,5.8538348,1516.22,61.5,16.8,149.8,282792.25,-20002.74,-1.0,169.32231166674305,45220304.79009668,45220304.79009668,26.00576308232776,7.39220248168172,24448.664583040223,89.9,42.876134334195434
1306893951.65,2.8385801,5.8535546,1523.1,61.5,16.8,151.1,282809.94,-20032.92,-1.0,171.98644215168844,44806212.643723376,44806212.643723376,26.14609587293479,7.53600093367694,24355.062296019438,88.4,42.98167786000471
1306893952.29,2.8391411,5.8526785,1544.0,56.0,14.4,154.4,282860.06,-20127.6,-1.0,172.89899460677822,46811391.39358667,46811391.39358667,26.104096487526633,7.622493609371624,24454.407022275187,87.6,43.09757134206944
1306893952.93,2.8396479,5.8517915,1563.74,42.2,14.4,156.0,282906.0,-20223.74,-1.0,171.81371518015257,47758217.41161611,47758217.41161611,25.74761821254586,7.78236365208133,23914.902979348833,89.6,43.21232418546402
1306893953.14,2.8398129,5.8514875,1570.19,38.5,13.1,156.5,282921.06,-20256.73,-1.0,177.95026137334673,47315302.79137074,47315302.79137074,26.20735587956058,7.952978954741515,24436.32293781639,88.49999999999999,43.31631368677636
1306893953.79,2.8402864,5.8505689,1589.33,28.2,13.3,157.9,282964.56,-20356.54,-1.0,172.67770309810751,50108008.11064746,50108008.11064746,25.975612832254125,8.09967945670331,25109.62654438317,90.1,43.42974981975974
1306893954.42,2.8407214,5.8496676,1608.11,17.5,13.4,158.9,283004.91,-20454.61,-1.0,173.61470095919722,50034357.72544575,50034357.72544575,26.08073134544207,7.893490360430281,24947.186380000916,92.99999999999999,43.541961105848976
1306893954.63,2.8408572,5.8493769,1614.23,14.8,13.5,159.1,283017.56,-20486.26,-1.0,167.60039931808367,48240736.93033111,48240736.93033111,25.826857053777655,7.846298418413566,24896.909049243426,93.39999999999999,43.64359277689009
1306893955.26,2.8412697,5.8484762,1633.46,7.1,12.7,159.3,283056.16,-20584.38,-1.0,172.83736682014901,45465185.532585144,45465185.532585144,25.99952528270444,7.752068919424604,24812.729619130045,93.50000000000001,43.7545715607921
1306893955.89,2.8416959,5.8475649,1652.59,2.8,11.9,158.7,283095.88,-20683.6,-1.0,175.0347466045115,40581852.26782838,40581852.26782838,26.777408623111807,7.71273070750248,24334.872712360277,93.9,43.86960765003095
1306893956.1,2.8418332,5.847276,1658.44,2.6,11.6,158.6,283108.66,-20715.04,-1.0,166.6780075244304,34171576.919757865,34171576.919757865,27.635355940981288,7.765547183534393,24816.391828746684,95.6,43.97848122833366
1306893956.52,2.8421233,5.8466671,1670.36,2.3,11.1,158.6,283135.59,-20781.31,-1.0,175.34989119178385,26565473.699860636,26565473.699860636,26.68327497459543,7.860167975916141,25127.433698624263,94.10000000000001,44.09121307435291
1306893956.94,2.8424031,5.8460791,1681.3,1.6,10.7,158.6,283161.63,-20845.3,-1.0,169.22708314847057,22869567.99018559,22869567.99018559,28.545348749616515,7.924625766742565,25014.731611083513,93.0,44.19632024845614
1306893957.15,2.8425474,5.8457757,1686.73,1.3,10.5,158.6,283175.03,-20878.33,-1.0,174.38765677913014,19633613.044374906,19633613.044374906,26.762894630099833,8.089474558460276,24691.42200167364,92.4,44.29047269814993
1306893957.79,2.8429827,5.8448601,1702.22,0.9,9.8,158.6,283215.53,-20977.98,-1.0,172.49977749688793,20513425.538280632,20513425.538280632,27.137559279685217,8.10891113558311,24551.92864520567,92.80000000000001,44.391545532795604
1306893958.42,2.8434115,5.8439583,1716.16,0.5,9.1,158.6,283255.41,-21076.14,-1.0,172.32639328878165,23739803.59766662,23739803.59766662,27.37663349653938,8.166204221725682,24834.53248270835,92.00000000000001,44.48863761503533
1306893958.63,2.8435511,5.8436648,1720.43,0.4,8.9,158.6,283268.38,-21108.08,-1.0,168.11465154082737,28922071.44690022,28922071.44690022,26.141380251110622,8.227654467850273,24837.61605502278,90.00000000000001,44.574621867003835
1306893959.26,2.8439817,5.8427599,1732.76,0.4,8.3,158.6,283308.41,-21206.57,-1.0,172.58766166784358,29733657.88487615,29733657.88487615,25.10888982618163,8.262911861426732,25443.412688195738,90.7,44.665360055980216
1306893959.9,2.8444163,5.841847,1743.99,0.4,7.7,158.6,283348.81,-21305.93,-1.0,171.21583507946997,30929719.40754092,30929719.40754092,23.20861370383899,8.386299670938193,25408.137654753402,88.30000000000001,44.7499740104859
1306893960.11,2.844561,5.8415431,1747.47,0.1,7.5,158.6,283362.28,-21339.0,-1.0,173.55085550068793,30292391.830223765,30292391.830223765,24.96366144428496,8.4203584637591,25218.537696389412,90.20000000000002,44.82260743130829
1306893960.53,2.8448522,5.840932,1754.09,0.1,7.2,158.6,283389.34,-21405.51,-1.0,174.39615667662287,27514307.513767283,27514307.513767283,25.104816429289993,8.338038041502292,24902.504054266483,88.69999999999999,44.8958303096985
1306893960.95,2.8451445,5.8403187,1760.26,0.1,6.8,158.6,283416.53,-21472.26,-1.0,174.94488369736175,28441178.07700178,28441178.07700178,26.535918404418485,8.116562798137045,25135.506709067497,89.0,44.964651394562885
1306893961.16,2.845287,5.8400197,1763.09,0.0,6.7,158.6,283429.75,-21504.8,-1.0,170.50792637065717,29386586.744253285,29386586.744253285,26.370217322727274,8.031842499218019,25921.9019512158,88.99999999999999,45.02726403673262
1306893961.79,2.8457204,5.8391107,1771.08,0.0,6.2,158.6,283470.06,-21603.73,-1.0,172.75214530636313,30347849.572821043,30347849.572821043,26.711411976186575,7.7048736622352045,26363.768858904754,89.5,45.09183643393296
