timestamp,longitude,latitude,altitude,roll,pitch,yaw,u,v,heading,air_speed,engine_0,engine_1,temperature_in,humidity_in,pressure_in,heart_rate,oxygen_mask
1306893619.75,2.9873018,5.9620634,-3.28084,-1.0,0.0,-1.0,963972.8326843999,-23840.453518799997,-1.0,77.57404679436088,2840.9898923381274,2840.9898923381274,299.5619343266165,0.07264919918201913,3.4941640242975835,82.4,0.3123297680271077
1306893621.64,2.9878126,5.9624516,-3.28084,-1.0,-0.1,-1.0,964096.2578852001,-23690.8144064,-1.0,77.57404679436088,2662.6291654880806,2662.6291654880806,299.83822919937984,0.07595797505073,3.4763154708611523,83.6,0.3121545383683151
1306893622.9,2.9882154,5.9627577,-3.28084,-1.0,-0.2,-1.0,964193.5675996,-23572.8354,-1.0,90.34668959729272,2084.4434598846633,2084.4434598846633,300.5355354012315,0.0730895074300985,3.374820413066327,84.30000000000001,0.3119793087095224
1306893623.95,2.9885933,5.9630449,-3.28084,-1.0,-0.3,-1.0,964284.9061852001,-23462.10705,-1.0,100.79410028459617,1471.7098507328033,1471.7098507328033,301.12903175403557,0.07374629814711996,3.496236557594062,84.9,0.31180407905072977
1306893624.79,2.9889188,5.9632923,71.7847792,-1.0,-0.4,-1.0,964363.54792,-23366.765839599997,-1.0,123.91644719911154,937.6207239343328,937.6207239343328,299.69965634143983,0.07550176673007734,3.5293089513587668,84.1,0.3118040024977989
1306893625.42,2.9891776,5.963489,71.8175876,-1.0,-0.5,-1.0,964426.0807303999,-23290.9456272,-1.0,113.9470050114973,937.6207239343325,937.6207239343325,299.69965634143983,0.07550176673007734,3.529308951358767,84.1,0.3118040024977989
1306893626.68,2.9897376,5.9639146,71.8175876,-1.0,-0.7,-1.0,964561.4153804,-23126.9036272,-1.0,122.65720287364867,1471.7098507328033,1471.7098507328033,301.12903175403557,0.07374629814711996,3.496236557594063,84.9,0.31180407905072977
1306893629.62,2.9912416,5.9650576,71.8175876,-1.0,-1.0,-1.0,964924.8668356001,-22686.286815199997,-1.0,140.03846722944928,2084.443459884663,2084.443459884663,300.5355354012315,0.07308950743009851,3.374820413066328,84.30000000000001,0.31197930870952245
1306893630.46,2.9917223,5.9654229,71.8175876,-1.0,-1.1,-1.0,965041.04138,-22545.473162399998,-1.0,155.74900668760236,2662.6291654880806,2662.6291654880806,299.83822919937984,0.07595797505073,3.476315470861153,83.60000000000001,0.3121545383683151
1306893631.3,2.9922253,5.9658051,71.8175876,-1.0,-1.2,-1.0,965162.5308852001,-22398.1634464,-1.0,162.56135026345265,2840.9898923381265,2840.9898923381265,299.5619343266165,0.07264919918201915,3.4941640242975844,82.4,0.3123297680271077
1306893632.14,2.9927517,5.9662051,72.1456716,-1.0,-0.6,-1.0,965289.7618604,-22243.9639664,-1.0,169.83955836109172,2552.2811940584766,2552.2811940584766,300.45470557954656,0.07446474537284437,3.563146549544931,82.89999999999999,0.31250576321520923
1306893632.56,2.993025,5.9664128,72.6377976,-1.0,3.1,-1.0,965355.8051696,-22163.878662,-1.0,176.08808618633014,2265.9617409190837,2265.9617409190837,299.5826002515244,0.07200902263068935,3.6115896092339788,81.49999999999999,0.31268290669727394
1306893632.98,2.9933041,5.9666249,72.96588159999999,-1.0,5.5,-1.0,965423.25924,-22082.1529376,-1.0,179.59710807299996,2284.81756518248,2284.81756518248,297.46302815442743,0.07114300382901088,3.7406449172785767,81.69999999999999,0.3128608157086476
1306893633.4,2.9935841,5.9668377,73.1955404,-1.0,7.0,-1.0,965490.9429692,-22000.1319376,-1.0,180.20392995116512,2286.4480924994077,2286.4480924994077,297.86164695317973,0.07080724469627181,3.628394529242015,80.9,0.3130392605905373
1306893633.82,2.9938739,5.9670578,73.3595824,-1.0,8.1,-1.0,965560.9560947999,-21915.2566068,-1.0,186.184537802732,1980.4554510745784,1980.4554510745784,297.4505328555669,0.07045558271170867,3.5717731411130536,82.10000000000001,0.3130429351312197
1306893634.24,2.9941722,5.9672845,73.490816,-1.0,8.7,-1.0,965633.0361496,-21827.8878376,-1.0,191.44141695634195,1835.7795097193325,1835.7795097193325,298.6555883446582,0.07348777099973218,3.6297356872288637,84.2,0.3130468393306948
1306893634.66,2.9944706,5.9675112,73.490816,-1.0,9.2,-1.0,965705.1162044,-21740.48626,-1.0,191.48288147527091,1623.0094687306414,1623.0094687306414,297.34780484415165,0.0740249545723771,3.7048105126231405,84.0,0.3130507435301699
1306893635.08,2.9947759,5.9677433,73.72047479999999,-1.0,9.6,-1.0,965778.9351043999,-21651.017753199998,-1.0,195.86703185348262,1038.9605008997828,1038.9605008997828,296.1037007769643,0.0732478001644188,3.7431498203034765,86.3,0.3130551836001611
1306893635.5,2.9950907,5.9679824,74.3438344,-1.0,10.1,-1.0,965854.8865503999,-21558.826149200002,-1.0,201.48380436239634,879.7845819746145,879.7845819746145,294.71823680846313,0.07098511153834147,3.6421650782501542,88.9,0.3130610781758392
1306893635.92,2.9954074,5.968223,75.7217872,-1.0,10.5,-1.0,965931.4941643999,-21466.1096108,-1.0,202.8248309069822,850.9146309896497,850.9146309896497,295.68442875172366,0.07100198225447568,3.7097633236186964,90.1,0.31307018797461433
1306893636.34,2.9957271,5.9684658,78.083992,-1.0,10.7,-1.0,966008.6923296,-21372.5072456,-1.0,204.57017896043627,539.1447551589204,539.1447551589204,295.3513683697931,0.06946208539584225,3.6744721105810827,90.6,0.3130840440551042
1306893636.76,2.9960585,5.9687173,81.6272992,-1.0,10.9,-1.0,966088.7448256001,-21275.5256152,-1.0,211.79106685415604,449.77764293387736,449.77764293387736,296.50231977120325,0.0707876875145499,3.663943658493101,90.4,0.31310501955816633
1306893637.6,2.9967279,5.9692247,92.5524964,-1.0,11.2,-1.0,966250.5558543999,-21079.889126,-1.0,213.82319244946734,503.94402860480835,503.94402860480835,298.3824186579666,0.0725903366025589,3.5682257473010677,89.7,0.3131507216579038
1306893638.44,2.9974243,5.9697512,109.2847804,-1.0,11.3,-1.0,966418.8957548,-20876.9035552,-1.0,222.02526522347787,606.2875077639428,606.2875077639428,296.39733274129816,0.07360278198979385,3.6769158111976417,92.60000000000002,0.31323492988187585
1306893641.38,3.0000472,5.9717093,215.84646360000002,-1.0,11.1,-1.0,967053.3117856,-20121.2932948,-1.0,237.64179900002506,815.603339207216,815.603339207216,296.98809873464603,0.07357736905130055,3.6910022814089967,93.10000000000001,0.3135673992607035
1306893642.22,3.0008572,5.9723026,260.00657,-1.0,11.0,-1.0,967249.5716343999,-19892.0938124,-1.0,254.9712676088856,955.8183073658313,955.8183073658313,295.840953327133,0.07406989766180172,3.632308619139982,92.0,0.31400260267277696
1306893642.64,3.001267,5.9726003,283.8910852,-0.7,11.0,-1.0,967348.8170443999,-19777.0347536,-1.0,257.1148130891775,1245.2857113432701,1245.2857113432701,294.9643841116716,0.07397466142978783,3.566384078480531,92.2,0.3144935366185338
1306893643.06,3.0016884,5.9729049,309.383212,-0.8,10.9,-1.0,967450.9167852001,-19659.285406,-1.0,263.7678009687645,1770.9705232509418,1770.9705232509418,296.60628210564687,0.07352605328431429,3.5560440660466264,90.20000000000002,0.31504341632107097
1306893643.48,3.0021198,5.9732149,336.25329159999995,-1.0,10.8,-1.0,967555.6083896,-19539.4035124,-1.0,269.41876652072136,2091.050580819508,2091.050580819508,297.71488697449905,0.07424910328674234,3.632788913937111,88.50000000000001,0.3156545383683151
1306893643.9,3.0025531,5.9735246,363.4842636,-1.2,10.5,-1.0,967660.6936947999,-19419.5872356,-1.0,269.84416110623675,2478.431549854238,2478.431549854238,296.2477437056193,0.0771016517357965,3.521508855020642,88.80000000000001,0.3163259841250955
1306893644.32,3.0029982,5.9738409,391.14174479999997,-1.4,10.2,42.8,967768.7645644,-19297.2119036,-1.0,276.1829270704844,3162.5101762612726,3162.5101762612726,298.3717677826577,0.07907717887510719,3.5388695935447463,91.40000000000002,0.3170564521915872
1306893644.74,3.0034437,5.9741557,418.01182439999997,-1.6,9.9,42.8,967876.8026256001,-19175.3286976,-1.0,275.346745766224,3635.1290019809367,3635.1290019809367,299.2189406699315,0.0803223623883937,3.552576323402978,91.10000000000001,0.31784134939193714
1306893645.16,3.0039061,5.9744808,444.6522452,-1.9,9.5,42.8,967989.1713956001,-19049.4428668,-1.0,284.6904202315114,4396.290851756977,4396.290851756977,297.69075651997446,0.08176185106067775,3.6380537773290813,91.5,0.3186629154461804
1306893645.58,3.0043693,5.974805,469.7506712,-2.2,9.3,42.8,968101.6713992,-18923.88512,-1.0,284.06306579211474,4992.802537184604,4992.802537184604,298.0045802453946,0.08247707628236974,3.553845993620377,89.1,0.3195040024977989
1306893646.0,3.0048515,5.9751411,493.99607879999996,-2.5,9.0,42.8,968218.8301956,-18793.635772,-1.0,294.4813972374886,5768.206930164731,5768.206930164731,297.8769946470728,0.08199573149109934,3.5628670966010567,90.4,0.3201530182458304
1306893646.42,3.0053325,5.9754752,516.1089404,-2.8,8.8,42.8,968335.7265248,-18664.1738256,-1.0,292.8074129295868,5783.903592323863,5783.903592323863,297.2754649490456,0.08201047491942816,3.633054072384133,90.30000000000001,0.3207505904243081
1306893646.84,3.0058296,5.9758197,536.745424,-3.2,8.8,42.8,968456.4942452001,-18530.643637600002,-1.0,301.576164424463,6099.897173766189,6099.897173766189,299.2850547384753,0.08221022651346939,3.7058054324658123,90.2,0.3213405838626283
1306893647.26,3.0063348,5.9761693,555.3805952,-3.6,8.8,42.8,968579.3288947999,-18395.1449456,-1.0,305.82666074963214,5968.307494146425,5968.307494146425,297.2445441403583,0.08295139937651523,3.729347650325954,90.99999999999999,0.3219145777383938
1306893647.68,3.00685,5.9765261,572.4737716000001,-4.0,8.7,42.4,968704.6241743999,-18256.890348,-1.0,311.56267490745097,5771.897112228686,5771.897112228686,295.9387982718445,0.08251203302110782,3.720832964959204,90.19999999999999,0.322465758840756
1306893648.1,3.0073643,5.9768837,588.2218035999999,-4.3,8.9,42.3,968829.4929448,-18118.3076664,-1.0,311.3159717142051,5771.118589189198,5771.118589189198,296.8975490228837,0.08268161417310356,3.815480467756237,87.1,0.32299014641730894
1306893648.52,3.0079008,5.9772587,603.9698356,-4.5,9.2,42.2,968959.8079096,-17973.0320712,-1.0,325.2679147810855,5950.281060292502,5950.281060292502,295.2387235314998,0.08284429836104178,3.798770711624898,85.5,0.32348674527995114
1306893648.94,3.0084252,5.9776273,619.1929332,-4.5,9.5,42.1,969087.2357352001,-17830.2827228,-1.0,319.0462036782907,5680.390321244659,5680.390321244659,295.0200677163471,0.08027048187904832,3.7391505252956163,85.0,0.3239561678521296
1306893649.36,3.0089755,5.9780164,635.4330912,-4.5,9.8,41.9,969220.7331148,-17679.6593584,-1.0,335.23612418855873,6271.333362260231,6271.333362260231,295.4355925764675,0.0800561574323817,3.641484281165993,85.19999999999999,0.32440132314521797
1306893649.78,3.0095246,5.978407,652.2966088,-4.5,10.0,41.8,969354.0008356001,-17528.511059599998,-1.0,335.71501612066106,6416.591187218287,6416.591187218287,295.9373797731566,0.07864485318466312,3.604627745181256,85.30000000000001,0.3248272636526546
1306893650.2,3.0100733,5.9787995,670.0131448,-4.5,10.2,41.6,969487.0060892,-17376.640976,-1.0,336.4374519156348,6289.596303300232,6289.596303300232,297.35452233678325,0.07678386645908725,3.569131686061532,84.70000000000002,0.32523797012684524
1306893650.62,3.0106388,5.9792062,689.3372924,-4.8,12.6,41.7,969624.1780096,-17219.3903148,-1.0,347.6580945542197,7553.6145117786655,7553.6145117786655,298.97945166054984,0.07711243817365601,3.4910505470435247,84.00000000000001,0.3256421696019109
1306893656.92,3.0210295,5.9841123,1317.8806196,60.9,18.8,69.0,972200.8513204,-15264.5346092,-1.0,363.1913992267379,7757.1529600783015,7757.1529600783015,296.6138990090441,0.07514805540186818,3.4023116794755373,83.10000000000002,0.3274648183333195
1306893657.13,3.0214689,5.9842078,1342.5525364,60.9,18.8,70.1,972312.3998804,-15222.671090799999,-1.0,400.12829573244437,8591.81709309995,8591.81709309995,298.34312628304735,0.07590624880252833,3.3674462570119705,82.4,0.3293015528040106
1306893657.34,3.0219093,5.9842966,1367.0604112,61.0,18.7,71.3,972424.2765243999,-15183.235394000001,-1.0,398.2404263147733,24828.209884339674,24828.209884339674,298.2758177607533,0.0756833876661204,3.339767450845645,84.50000000000001,0.3311555882370816
1306893657.55,3.0223567,5.98438,1391.732328,61.1,18.7,72.4,972538.0560556,-15145.669775999999,-1.0,402.03075226964904,48832.148104545675,48832.148104545675,298.29932486454675,0.07460988555933146,3.3377124218894463,84.6,0.3330304460673527
1306893657.76,3.0227981,5.9844555,1415.8793104,61.2,18.6,73.6,972650.5560592,-15111.056914,-1.0,394.831262928998,73341.26815685429,73341.26815685429,297.154390519238,0.0750354273974786,3.4198463676408615,83.1,0.3349249014479301
1306893657.97,3.0232656,5.9845285,1441.273012,61.2,18.5,74.7,972769.88021,-15076.936178,-1.0,415.879304921877,95166.22165465051,95166.22165465051,295.24992911938983,0.07642308969765614,3.4721632382069743,85.2,0.3368430882370815
1306893658.18,3.0237115,5.9845914,1465.2887608,61.3,18.5,76.0,972883.7909747999,-15046.8180668,-1.0,394.8757416955215,95682.36394427311,95682.36394427311,295.72228255475983,0.0745634650622392,3.516444990815542,84.89999999999999,0.33877941807085227
1306893658.39,3.0241901,5.984652,1490.9121212,61.3,18.4,77.1,973006.1991152001,-15017.028039599998,-1.0,421.73296109693,66218.35946090633,66218.35946090633,296.3457039594271,0.07243625285655511,3.628599061784644,84.7,0.340736187537169
1306893658.6,3.0246553,5.984704,1515.6496548,61.3,18.3,78.3,973125.3264156,-14990.6172776,-1.0,408.42349733829593,44425.82974564076,44425.82974564076,295.5533671185615,0.07206482677280206,3.750947153060277,82.5,0.3427093393306948
1306893658.81,3.0251242,5.9847498,1540.4528051999998,61.3,18.3,79.4,973245.60201,-14966.4046784,-1.0,410.46246008890563,25333.28808910042,25333.28808910042,294.04633225042295,0.07061944056840645,3.8010421484660704,84.69999999999999,0.34469527546367823
1306893659.02,3.0255969,5.9847892,1565.2887640000001,61.4,18.2,80.6,973366.8946647999,-14944.4230504,-1.0,412.19800623089543,29001.466544169554,29001.466544169554,295.546269074986,0.07360065577919674,3.839023083864094,84.80000000000001,0.3452725611154717
1306893659.23,3.0260845,5.984823,1590.8136992,61.4,18.1,81.7,973492.2883696,-14924.2786928,-1.0,424.38318848946983,30079.518780315746,30079.518780315746,294.31205095752705,0.07506388069806691,3.9517685871329435,84.0,0.3458518371434682
1306893659.44,3.0265503,5.9848486,1615.0919152,61.4,18.1,82.9,973612.1374548,-14907.4479836,-1.0,395.67494175208475,30314.8543330189,30314.8543330189,294.337213471154,0.07654459123231713,3.9368891594576287,81.9,0.3464305773009485
1306893659.65,3.0270375,5.9848689,1640.3543832,61.4,18.0,84.0,973737.72801,-14892.224885999998,-1.0,413.90203070791216,39295.50825358802,39295.50825358802,293.95657649375113,0.07528061029457139,3.8602585775245712,85.39999999999999,0.3470106954111848
1306893659.86,3.0275232,5.9848823,1665.4856175999998,61.4,17.9,85.1,973863.0232896,-14879.528035199999,-1.0,412.1451608992167,41195.778444466996,41195.778444466996,295.2587771608154,0.07515760277122713,3.8665815287116154,87.5,0.34759311010934746
1306893660.07,3.0280257,5.9848893,1691.4042536,61.4,17.9,86.2,973992.81332,-14868.8981136,-1.0,426.4430847498963,38480.316437082714,38480.316437082714,296.1788280030297,0.07669958227918841,3.870667960421921,87.10000000000001,0.34817674965440437
1306893660.28,3.0285215,5.9848893,1716.8963803999998,61.4,17.8,87.4,974121.0613556001,-14860.925672399999,-1.0,420.82088591459365,41679.956048239845,41679.956048239845,296.70876401250007,0.07607200577636344,3.905427852690324,85.60000000000001,0.34876383408135103
1306893660.49,3.0290126,5.9848826,1742.0932316,61.4,17.7,88.5,974248.3251392,-14855.446669599998,-1.0,417.2375803554784,36352.010402612235,36352.010402612235,294.6513303708498,0.07939922083851343,3.8125601495188364,85.4,0.3493499233201962
1306893660.7,3.0295179,5.9848688,1767.9790592,61.4,17.7,89.7,974379.2306552001,-14852.329871599999,-1.0,429.16497006999674,36485.725122827615,36485.725122827615,294.01564346781305,0.08092740794975167,3.73687857682479,84.60000000000001,0.3499386919116222
1306893660.91,3.0300085,5.9848489,1793.1102936,61.4,17.6,90.7,974506.6912892,-14851.739320400002,-1.0,417.7598057814155,37485.50205503004,37485.50205503004,294.35235264470134,0.08201327454440782,3.637895744400251,84.2,0.3505282260323571
1306893661.12,3.0305034,5.9848221,1818.40557,61.4,17.6,91.9,974635.2346004,-14853.510974,-1.0,421.49572555449924,45963.194245866995,45963.194245866995,293.8938945939281,0.08267538747735223,3.6160585477994425,85.4,0.35111883189412446
1306893661.33,3.0310167,5.9847875,1844.65229,61.4,17.5,93.0,974768.8304052001,-14857.8744912,-1.0,438.5273069957525,51857.75535366822,51857.75535366822,295.23568331002593,0.08199101555014435,3.585431713625944,88.20000000000002,0.3517111219203711
1306893661.54,3.0315171,5.9847468,1870.2756504,61.4,17.4,94.2,974899.14537,-14864.633021599999,-1.0,428.17635465626984,54654.73256807199,54654.73256807199,296.22539802154995,0.08173846110315992,3.657631787447924,87.10000000000001,0.35230655061678406
1306893661.75,3.0320332,5.984698,1896.6864124,61.4,17.4,95.2,975033.7582352001,-14874.1146492,-1.0,443.0180578287766,57822.032449561855,57822.032449561855,296.73416403432003,0.08258418372323424,3.6126304036366754,83.70000000000002,0.35290465866577797
1306893661.96,3.0325311,5.9846441,1922.1785392,61.4,17.3,96.4,975163.7779243999,-14885.7288228,-1.0,428.556923074266,56587.73200206362,56587.73200206362,298.00048882671916,0.08026394204807284,3.580336261834601,81.6,0.3535036087970115
1306893662.17,3.0330347,5.9845829,1948.0315584,61.4,17.3,97.4,975295.4052252001,-14899.93486,-1.0,434.8454395292847,53091.62527379627,53091.62527379627,299.9063081444652,0.07650265700710773,3.5472148594305275,79.3,0.3541024058223834
1306893662.38,3.0335561,5.9845124,1974.8360211999998,61.4,17.2,98.6,975431.8881692,-14917.2248868,-1.0,452.105375432215,56677.91091975927,56677.91091975927,298.8543983756471,0.07949148242488563,3.536796837060392,82.6,0.3547042649649905
1306893662.59,3.0340585,5.9844376,2000.7218488,61.4,17.2,99.6,975563.51547,-14936.384992399999,-1.0,437.16742226316774,57676.50211861667,57676.50211861667,300.58761358283436,0.0776004952511026,3.591346724198734,84.50000000000001,0.3553077317191463
1306893662.8,3.0345613,5.984356,2026.7061016,61.4,17.1,100.8,975695.3724296,-14958.0713448,-1.0,439.34359754086563,61310.557585926064,61310.557585926064,299.956126735829,0.07964532261293994,3.5392822732034803,85.80000000000001,0.35591142813209464
1306893663.01,3.0350763,5.9842653,2053.3793308,61.4,17.1,101.8,975830.7070796,-14982.808878400001,-1.0,452.50677437447484,68043.12816770186,68043.12816770186,301.55514665657313,0.07642633614095967,3.544819755472084,85.70000000000002,0.35651872253279465
1306893663.22,3.0355962,5.9841665,2080.4134524,61.4,17.0,102.9,975967.3540656001,-15010.433551200002,-1.0,458.7388850025393,66029.31792456552,66029.31792456552,303.0814850794281,0.07617746883395073,3.532622820857247,86.7,0.35713007423883125
1306893663.43,3.036106,5.9840625,2107.0538732,61.4,16.9,104.0,976101.57323,-15040.125153199999,-1.0,452.4498990892054,64420.05311202652,64420.05311202652,303.49422977258706,0.07597632655720955,3.5368318272240518,87.6,0.3577423445800387
1306893663.64,3.0366203,5.9839503,2134.022378,61.4,16.9,105.1,976237.2031556001,-15072.7367028,-1.0,459.2871222865677,69484.74738773884,69484.74738773884,304.7087300982183,0.07632613436484051,3.556571785932102,89.8,0.35835775359141225
1306893663.85,3.037117,5.9838351,2160.2034811999997,61.4,16.8,106.1,976368.2399052001,-15106.726205199999,-1.0,445.8218571592217,62889.30021572446,62889.30021572446,304.7416884860199,0.07864993747121346,3.570129598632186,90.40000000000002,0.3589726267322697
1306893664.06,3.0376226,5.9837106,2186.9751356,61.3,16.8,107.2,976501.83571,-15143.9309308,-1.0,456.88118056412145,70843.3698551031,70843.3698551031,302.2306903272752,0.08145499356241992,3.5880236864049935,90.30000000000001,0.3595904854374315
1306893664.27,3.0381344,5.9835774,2214.2061076,61.3,16.7,108.2,976637.2687852001,-15184.252454399999,-1.0,465.6995294551499,79100.14054889078,79100.14054889078,301.1918823977998,0.082052562984126,3.6098724661093797,93.80000000000001,0.3602115593656904
1306893664.48,3.0386377,5.983439,2241.1746124,61.3,16.7,109.4,976770.5693144,-15226.542482,-1.0,461.0441353674357,78117.46896307149,78117.46896307149,300.3921716825046,0.07999004987178568,3.525187851822179,91.10000000000001,0.36083301605860385
1306893664.69,3.0391445,5.9832924,2268.5040096000002,61.3,16.7,110.4,976904.9853292,-15271.818074,-1.0,467.7619665739624,83671.1032490057,83671.1032490057,298.6196579342323,0.07924724487888646,3.4620289237560966,90.5,0.36145784108047607
1306893664.9,3.0396544,5.9831372,2296.1942992,61.3,16.7,111.5,977040.4184043999,-15320.1776556,-1.0,474.4309756867291,84074.8545945241,84074.8545945241,298.9484048073964,0.07820384079058447,3.508719331105459,89.5,0.36208664685475433
1306893665.11,3.0401435,5.9829811,2322.9003368,61.3,16.6,112.5,977170.5037104,-15369.160596800002,-1.0,458.6610189159385,77592.48519705156,77592.48519705156,299.282805643713,0.07887942575922627,3.517595313331355,87.2,0.3627155291819635
1306893665.32,3.0406592,5.9828087,2351.3124112,61.3,16.6,113.6,977307.8068643999,-15423.688157600001,-1.0,487.70511264820556,80325.92322895929,80325.92322895929,297.7447235622953,0.07899962862171096,3.548838292597205,86.5,0.36334762673226967
1306893665.53,3.041149,5.9826374,2378.5105748,61.3,16.5,114.6,977438.3186796,-15478.2157184,-1.0,467.0705809856865,77734.53713072622,77734.53713072622,298.4153420712266,0.07771612024077003,3.511121033625824,85.9,0.3639810256824009
1306893665.74,3.0416388,5.9824585,2405.9383972,61.3,16.5,115.6,977569.1257703999,-15535.4991848,-1.0,471.68614584915156,79542.55345265855,79542.55345265855,295.8044755557166,0.07782325312727842,3.524768462529191,85.8,0.36461549637356455
1306893665.95,3.0421263,5.982273,2433.4318364,61.3,16.5,116.6,977699.4407352001,-15595.2432812,-1.0,473.65729461790437,87748.24547593108,87748.24547593108,294.85820818940425,0.0770160549307037,3.523947205524881,86.39999999999999,0.36525302918196345
1306893666.16,3.0426227,5.9820761,2461.7126772,61.3,16.4,117.7,977832.3147552001,-15659.0228108,-1.0,487.14966032985507,88965.32245794903,88965.32245794903,296.4821076930189,0.07339112435558369,3.426361089876513,87.19999999999999,0.36589408342518304
1306893666.37,3.0431069,5.9818762,2489.5670088,61.3,16.4,118.7,977962.1047856001,-15724.049059599998,-1.0,479.9649266663034,87980.44340955846,87980.44340955846,295.5729808574444,0.07559611600538019,3.436268227933684,86.5,0.36653659217408935
1306893666.58,3.0435835,5.9816716,2517.2572984,61.3,16.3,119.8,978090.0575456001,-15790.9453872,-1.0,477.5226821260283,92872.35823139125,92872.35823139125,294.96405054569965,0.07601670036143615,3.461737870168376,86.2,0.36718078508747515
1306893666.79,3.0440661,5.9814564,2545.5709475999997,61.3,16.3,120.7,978219.7819592,-15861.581872399998,-1.0,488.6536725527045,91810.53328547718,91810.53328547718,296.819574651876,0.07604660651168418,3.5199231934182382,85.2,0.3678272745887876
1306893667.0,3.0445385,5.9812377,2573.5893211999996,61.3,16.2,121.8,978346.9145092,-15933.661927199999,-1.0,483.64032826582894,88383.08830450561,88383.08830450561,296.4325397939794,0.07388337361139889,3.564779372847727,86.6,0.36847452961940874
1306893667.21,3.0450299,5.9810016,2603.0840728,61.0,16.0,122.7,978479.36202,-16011.778727600002,-1.0,509.00216472593667,94220.6894899199,94220.6894899199,294.33072051019593,0.07312861399838969,3.5802660242360167,86.1,0.36912829164915506
1306893667.42,3.0454909,5.9807722,2630.9712127999996,59.7,15.2,123.7,978603.8370896,-16087.959832399998,-1.0,483.19995209231286,88306.25272209183,88306.25272209183,294.0559101656061,0.07284045890342278,3.5633108725443163,86.39999999999999,0.36978082883200714
1306893667.63,3.0459513,5.9805363,2658.9895864,57.2,14.2,124.4,978728.3121592,-16166.503142000001,-1.0,487.37908416948585,90764.6440940046,90764.6440940046,293.8812693606983,0.0716762033446657,3.6018412434577294,84.49999999999999,0.3704352798381314
1306893667.84,3.0464189,5.980291,2687.336044,53.5,13.2,125.0,978854.8213496,-16248.327291599999,-1.0,498.78055244475036,92532.81973119488,92532.81973119488,294.08179103026276,0.07094754489652408,3.5366732634045475,85.8,0.3710918743263204
1306893668.26,3.0473578,5.9797853,2743.60245,46.1,12.5,125.9,979109.1848747999,-16417.487402,-1.0,505.3872633244485,92298.85708203289,92298.85708203289,295.93930456174553,0.06801604867161683,3.529983954651219,86.2,0.37181560573489425
1306893668.68,3.0482722,5.9792778,2797.6378848,40.1,12.5,126.8,979357.2819956001,-16587.6973812,-1.0,497.5153885661612,91075.7116756115,91075.7116756115,296.3253665196483,0.06957103519551476,3.6312664114436033,85.4,0.37259943119421196
1306893669.1,3.0492018,5.9787475,2852.526338,34.2,12.4,127.5,979609.8082504,-16765.945418400002,-1.0,511.02477770313965,90899.56066702219,90899.56066702219,297.64747317279745,0.06795210551615401,3.651583775208383,83.0,0.3734463362685776
1306893669.52,3.0501161,5.9782131,2906.9554736,28.0,12.3,128.2,979858.5615392,-16945.9651092,-1.0,507.7404400371741,85509.91732290876,85509.91732290876,300.1283558468133,0.06744066582490056,3.6903687334146316,85.40000000000002,0.3743556319816135
1306893669.94,3.0510426,5.9776606,2962.7297535999996,22.5,12.3,128.7,980110.75971,-17132.349629599998,-1.0,518.6600007061661,80782.82118004592,80782.82118004592,300.21505059851546,0.07042962652482443,3.729816408133384,84.80000000000001,0.37532900249779894
1306893670.36,3.0519531,5.9771088,3018.4056084,17.8,12.3,129.1,980358.8896392001,-17318.73415,-1.0,513.4884115385871,79248.873876251,79248.873876251,301.3013292958318,0.07198996540875324,3.652336094908027,86.00000000000001,0.3763669071347194
1306893670.79,3.0528931,5.9765317,3076.8701772,13.4,12.3,129.5,980615.18886,-17513.845704800002,-1.0,520.8075001650066,74443.37855754574,74443.37855754574,303.2016241835992,0.07311697808494559,3.7328518745486785,86.9,0.37747240800961
1306893671.21,3.0538114,5.9759623,3134.9082368,9.8,12.3,129.7,980865.6481856001,-17706.529437999998,-1.0,523.3241661258049,74618.96777541285,74618.96777541285,304.75015368562447,0.07373913464228987,3.758689172383633,87.00000000000001,0.37864826102798266
1306893671.63,3.0547325,5.9753892,3194.0289736,6.8,12.6,129.7,981117.0589547999,-17900.4926988,-1.0,526.1045090441274,74952.14942569933,74952.14942569933,304.5047620600653,0.07517608911704733,3.772856430979107,85.7,0.379896686224833
1306893672.05,3.0556374,5.9748268,3252.8872432,4.8,12.7,129.7,981363.9421647999,-18090.8470356,-1.0,516.7869623353776,73707.84872144766,73707.84872144766,304.4470880566385,0.07502675516162449,3.8310573607352394,84.20000000000002,0.3812163056474052
1306893672.47,3.0565619,5.9742521,3313.6484,3.5,12.7,129.7,981616.1403356001,-18285.3352308,-1.0,528.1004030462052,72344.48541944294,72344.48541944294,304.17856154190747,0.07526322719590178,3.8822212892207473,83.50000000000001,0.3825464128215084
1306893672.89,3.0574642,5.973691,3373.52373,2.5,12.8,129.7,981862.4329943999,-18475.23025,-1.0,515.9017562746316,70823.96106935723,70823.96106935723,302.1803616853568,0.07573712684641679,3.790757905815857,83.3,0.38389014641730895
1306893673.31,3.058383,5.9731194,3434.9738632,1.8,12.8,129.7,982113.0891703999,-18668.701384800002,-1.0,525.3785508135034,69611.23420822756,69611.23420822756,301.50994869336745,0.07831625428219327,3.764685886348717,86.60000000000001,0.3852491905992862
1306893673.73,3.0592686,5.972568,3494.6195344000002,1.3,12.8,129.7,982354.85427,-18855.315564,-1.0,506.9290891208189,68596.64779608339,68596.64779608339,301.31969971114427,0.07938533339830457,3.713700398955726,85.4,0.38662040669727404
1306893674.15,3.0601643,5.9720101,3555.282266,0.9,12.8,129.7,982599.27685,-19044.1607144,-1.0,512.7725565306911,68031.0694954129,68031.0694954129,300.69534707015384,0.07590670375249052,3.7475671983245147,85.2,0.3880030291819634
1306893674.57,3.0610742,5.971443,3617.2573336,0.7,12.8,129.7,982847.6036296,-19236.0898544,-1.0,521.108774383998,68016.62159570491,68016.62159570491,299.84268189402275,0.07644206947958969,3.7976840947972463,85.2,0.3894003498293825
1306893674.99,3.0619751,5.9708813,3678.8715088,0.5,12.8,129.7,983093.4697792,-19426.214532399998,-1.0,516.1395882385635,67043.50606487789,67043.50606487789,297.7449372701775,0.07760328831676348,3.789688303415069,87.3,0.3908050195581664
1306893675.41,3.0628609,5.9703287,3739.7310907999995,0.3,12.8,129.7,983335.2020704,-19613.255220799998,-1.0,507.6934511736826,66386.0178345216,66386.0178345216,295.5688130205866,0.07656752855946967,3.803803980029514,85.80000000000001,0.3922162728390063
1306893675.83,3.063749,5.9697745,3800.9187567999998,0.2,13.0,129.7,983577.6889547999,-19800.8864604,-1.0,509.32315144372285,65577.04674346124,65577.04674346124,294.80893334617673,0.07648040677275655,3.7073626169213174,89.60000000000001,0.39363234895449184
1306893676.67,3.0655286,5.9686632,3924.1471072,0.1,13.0,129.7,984063.4501252001,-20177.0675748,-1.0,510.4048853569628,64440.054993438294,64440.054993438294,296.7090427630517,0.0765846179997945,3.596514306563511,89.3,0.3951986219203711
1306893677.93,3.0681679,5.9670136,4108.0381892000005,0.0,13.0,129.7,984784.0210144,-20735.4993512,-1.0,505.02487093954625,63558.26053647338,63558.26053647338,296.3252987702296,0.07964097123885754,3.56070223337147,90.7,0.39705219803585673
1306893689.94,3.0931613,5.9513393,5880.0526816,0.0,13.2,129.7,991610.3007604,-26041.7987336,-1.0,502.84383232121087,63871.655575360266,63871.655575360266,297.09483134610605,0.07725476894877767,3.592429258291249,92.2,0.4029007654024359
1306893697.52,3.1088289,5.9414983,6997.3427436,0.0,13.3,129.7,995891.60011,-29372.737160399996,-1.0,501.77382083754077,62048.86802088524,62048.86802088524,295.7970436796218,0.07600099484573856,3.540206263687797,89.6,0.4112129591907124
1306893704.68,3.1236091,5.9322116,8051.640677599999,0.0,13.4,129.7,999931.7577196,-32515.388179600002,-1.0,501.2525799758498,60905.16012078456,60905.16012078456,295.2070697170436,0.07397350204672955,3.577278138097072,89.89999999999999,0.4218460081845881
1306893724.85,3.1652662,5.9060246,11024.278568,0.0,13.7,129.7,1011325.3932547999,-41373.688988,-1.0,501.7044395447536,59088.3875311612,59088.3875311612,295.9063926153161,0.07426371846276353,3.511318863499607,91.30000000000001,0.43927366566490306
1306893731.17,3.1783214,5.8978192,11955.807469200001,0.0,13.8,129.7,1014898.1295896,-44148.164142400004,-1.0,501.86293079274657,56025.13854970048,56025.13854970048,296.79947775475284,0.07287769278381452,3.467885361837673,88.80000000000001,0.45873028202535804
1306893736.21,3.1887204,5.891291,12697.2116924,1.4,13.8,129.7,1017744.45514,-46354.9227432,-1.0,501.0667346898564,53043.823180858606,53043.823180858606,299.2951926525993,0.07175684861648707,3.4518200184017833,88.10000000000002,0.47977307511372197
1306893736.63,3.189595,5.8907418,12759.514844,11.2,13.8,129.8,1017983.8580347999,-46540.5526704,-1.0,505.69965279118617,50610.27077035796,50610.27077035796,301.0563759181336,0.07208634790626813,3.3485916251533987,87.70000000000002,0.5008192365310448
1306893737.05,3.1904604,5.8901946,12821.2274444,26.2,14.0,130.1,1018220.8002996,-46725.6248548,-1.0,501.83369495575533,47589.29658529163,47589.29658529163,300.81280091070323,0.0719846692521624,3.3491124561449412,87.7,0.5218666227952617
1306893737.47,3.1913365,5.889631,12883.9242968,42.3,14.5,130.8,1018460.9249792,-46916.504126,-1.0,511.74220255285053,45434.63316442579,45434.63316442579,300.85479343892064,0.07050087336183024,3.398333115629908,88.30000000000001,0.5427727689019984
1306893737.89,3.1921822,5.8890703,12944.7510704,51.8,15.3,131.8,1018693.1428344,-47106.792846,-1.0,500.5861596826974,43766.15636200727,43766.15636200727,301.0802247335793,0.06716581514266029,3.4437910897534203,87.00000000000001,0.5633917649649907
1306893738.31,3.1930253,5.8884873,13006.1355868,59.3,16.3,133.2,1018925.2622643999,-47305.2508576,-1.0,508.7387727933817,44415.91495861598,44415.91495861598,300.42574884752185,0.06775529315724378,3.385282027015711,88.30000000000001,0.5800192912117097
1306893738.73,3.1938438,5.8878891,13066.8967436,65.5,17.5,135.0,1019151.2137152001,-47509.679998,-1.0,507.1082297752442,46779.625278532134,46779.625278532134,302.81011540098984,0.0666184907520991,3.408509279340812,88.40000000000002,0.5941815834251831
1306893739.15,3.1946489,5.8872567,13128.412493599999,70.8,19.2,137.3,1019374.6389192,-47726.7731808,-1.0,517.7729542907972,51423.23811910164,51423.23811910164,302.6834013660676,0.06921968670481916,3.3506500926914984,90.50000000000001,0.6060273839501175
1306893739.57,3.1954008,5.886608,13188.386248800001,75.4,21.7,140.3,1019584.6126792,-47950.6905108,-1.0,509.4607863221417,58062.574663117375,58062.574663117375,301.3110054675381,0.07111746416736152,3.4125416367914454,92.70000000000002,0.611076968377064
1306893739.99,3.1961109,5.8859132,13248.85213,79.6,25.8,144.3,1019784.8423443999,-48192.1275264,-1.0,519.530132502128,66855.79253324379,66855.79253324379,299.8566762264176,0.073094732209205,3.4579994097511255,94.50000000000001,0.61409407248905
1306893740.41,3.1967288,5.8851879,13307.5135492,83.7,31.6,149.9,1019961.9092792,-48446.195776,-1.0,511.59811796019966,78027.1165076597,78027.1165076597,299.0278628277129,0.07339361452907447,3.454940074824548,93.20000000000002,0.6155181101093475
1306893740.83,3.1972257,5.8844259,13363.5502964,85.0,32.6,156.6,1020108.4972104,-48715.651165200004,-1.0,504.7636001263405,92056.98544498117,92056.98544498117,299.46430805270353,0.07325451872718736,3.5099162988959294,94.7,0.6169275261198462
1306893741.25,3.1975881,5.8836438,13416.3062036,76.1,30.4,162.9,1020220.6691299999,-48994.6537988,-1.0,492.74743152407257,108956.3775571491,108956.3775571491,299.24639299410063,0.07495711336590122,3.614807732055421,91.2,0.6183160431802136
1306893741.67,3.1978361,5.8828512,13469.455811599999,70.4,25.7,167.9,1020303.51034,-49279.3979024,-1.0,485.02741828150755,125571.42807775944,125571.42807775944,298.5842260897786,0.07666534021220818,3.5963853242795087,89.6,0.6196822833376939
1306893742.09,3.1980031,5.8820477,13524.278648,69.9,19.8,171.3,1020365.5510243999,-49569.456966800004,-1.0,484.78567264620114,138358.14266283292,138358.14266283292,299.57360818075256,0.07776066098043759,3.5728216201688086,92.0,0.6210345143088225
1306893742.51,3.1981188,5.8812396,13578.412508,67.4,13.1,173.2,1020414.4355404,-49862.0750864,-1.0,484.15227754443464,144000.95147473188,144000.95147473188,301.65251100447875,0.07999840175002511,3.6862263879905237,91.5,0.6223698270822259
1306893742.93,3.1982118,5.8804257,13629.6920372,64.5,7.1,173.8,1020457.6113947999,-50157.1210276,-1.0,485.5276379490515,140134.1932428099,140134.1932428099,300.58735577359766,0.08167807247072918,3.6357665568413524,91.30000000000001,0.6236830160586038
1306893743.35,3.1983036,5.8795972,13676.575240799999,63.5,5.4,173.7,1020500.7872492,-50457.5475464,-1.0,492.8631852720126,128081.462246257,128081.462246257,300.4420804736147,0.08202658442918956,3.7005181782855066,89.80000000000001,0.6249620624278077
1306893743.77,3.1983978,5.8787718,13717.356082,62.7,5.4,173.6,1020544.4552296,-50756.8257712,-1.0,489.74054019184615,113144.68587678608,113144.68587678608,302.35762513117663,0.07985832967798939,3.673520032588125,89.70000000000002,0.6261963253324447
1306893744.19,3.1984951,5.8779371,13752.7563456,61.7,5.0,173.6,1020589.2386956001,-51059.4176444,-1.0,494.20520799411076,98876.93789119743,98876.93789119743,302.23033511109725,0.07993151372137242,3.7088906348606225,88.8,0.6273721017978865
1306893744.61,3.1985942,5.8770889,13783.104115600001,61.2,4.4,173.7,1020634.7767547999,-51366.8979692,-1.0,501.3083661968796,88901.06738179659,88901.06738179659,301.7474798292613,0.07848691017517721,3.7213416948726947,87.8,0.6284818130839757
1306893745.03,3.1986924,5.8762287,13808.4650088,61.0,4.0,173.8,1020680.2820056,-51678.7746196,-1.0,507.5811589225063,85824.1940043189,85824.1940043189,301.84328547555305,0.07598950309252891,3.6884984822133142,89.7,0.6295199473796886
1306893745.45,3.1987857,5.8753709,13828.806216800001,60.7,3.6,174.1,1020724.5733456,-51989.8638684,-1.0,505.4034231215815,85901.57609402157,85901.57609402157,301.8926498056408,0.07620818345406292,3.5612439185425355,92.10000000000001,0.6304824473796887
1306893745.87,3.1988732,5.8745009,13844.849524399999,60.5,3.2,174.6,1020767.6507747999,-52305.480676399995,-1.0,511.9273638734144,86387.59757677626,86387.59757677626,300.3135558091602,0.07573367960003834,3.6146543538237066,94.10000000000002,0.6313583660148594
1306893746.29,3.198952,5.8736206,13856.824590400001,60.5,2.9,175.1,1020808.6612747998,-52625.001684,-1.0,517.38097102287,89678.22466851836,89678.22466851836,299.8169010907219,0.07609754041759927,3.658693206495951,92.59999999999998,0.6321343065222959
1306893746.71,3.1990195,5.8727362,13864.928265199998,60.5,2.5,175.7,1020846.7846356,-52946.19592,-1.0,519.1965591041507,92519.81026002203,92519.81026002203,298.12278249403835,0.07513335813445733,3.6272955591335427,90.29999999999998,0.6328028432677028
1306893747.13,3.1990742,5.8718371,13869.554249599998,59.7,2.2,176.4,1020882.0536656001,-53272.967584,-1.0,527.4384242350467,93490.44710285903,93490.44710285903,297.87657056395375,0.073237201256139,3.6509686039044578,90.1,0.6333625217453931
1306893747.55,3.1991138,5.8709339,13870.8665856,57.5,1.7,177.1,1020913.4513043999,-53601.4780932,-1.0,529.4259057347463,97302.47914665691,97302.47914665691,296.56188971799463,0.07083439093358378,3.6743222021634137,89.3,0.633815868202086
1306893747.97,3.1991384,5.8700203,13869.094932,54.2,1.0,177.8,1020941.1087856,-53934.05684399999,-1.0,535.3303036976579,100159.25823729286,100159.25823729286,296.2468028228436,0.07074715914980383,3.678639648990076,89.4,0.6341699255074228
1306893748.39,3.1991489,5.8691095,13864.337714000001,50.7,0.2,178.4,1020965.2229596,-54265.8481932,-1.0,533.543760515977,102733.9144191496,102733.9144191496,296.67581617183,0.07121795278082012,3.605515903110061,88.3,0.634430282025358
1306893748.81,3.1991471,5.8681795,13856.5293148,47.0,-0.5,178.9,1020986.5484196,-54604.7917736,-1.0,544.8063907429652,104692.88597313121,104692.88597313121,297.89064448764464,0.07454639509567781,3.562786064055493,91.4,0.6346016074846755
1306893749.23,3.1991342,5.8672526,13845.8665848,43.2,-1.1,179.4,1021004.78989,-54942.84952720001,-1.0,543.1108041251271,108443.99194561584,108443.99194561584,296.82515501261946,0.07743005103914682,3.624724290266229,87.70000000000002,0.634688877825883
1306893749.65,3.1991106,5.8662995,13832.0542484,39.6,-1.6,179.8,1021020.9972396,-55290.5857588,-1.0,558.7301254364326,108686.46944366765,108686.46944366765,297.8940960065751,0.07709037938619819,3.6986906604727006,86.90000000000002,0.6346964565660403
1306893750.08,3.1990772,5.8653359,13815.3547728,36.1,-2.1,180.2,1021034.9408096,-55642.357423600006,-1.0,551.9384232616981,112344.65333433569,112344.65333433569,298.4311500618207,0.07821154530120779,3.6328223342969963,85.60000000000001,0.634627635481176
1306893750.5,3.1990352,5.8643753,13796.1290504,32.9,-2.5,180.6,1021046.5221747999,-55993.144836399995,-1.0,563.6501375448344,114601.1678912551,114601.1678912551,298.57790744098213,0.0775001645658266,3.650144487448131,83.70000000000002,0.6344860125590412
1306893750.92,3.1989839,5.8633947,13774.1474224,29.9,-2.8,181.0,1021056.1678443999,-56351.346947599995,-1.0,575.7635499371993,117995.66227932756,117995.66227932756,298.7639643705467,0.07784525107762139,3.6178170460363512,83.7,0.6342741905992864
1306893751.34,3.1989251,5.8624196,13750.131673599999,27.1,-3.1,181.3,1021063.7465848,-56707.711788399996,-1.0,572.8633659313372,124477.41003593181,124477.41003593181,298.371434821197,0.07884021050304092,3.640605893322313,86.5,0.6339955379308698
1306893751.76,3.1988589,5.8614408,13724.1474208,24.4,-3.4,181.6,1021069.4880547998,-57065.553007200004,-1.0,575.3687272861667,127411.05593727046,127411.05593727046,299.83305924844655,0.07980893837357407,3.559079573063219,86.10000000000001,0.6336531932239582
1306893752.18,3.1987836,5.8604298,13695.538496,22.0,-3.6,181.9,1021073.5891047999,-57435.2708668,-1.0,594.8243729881696,130253.9045490132,130253.9045490132,300.06174483604707,0.08309524877055263,3.5467330221909745,83.10000000000001,0.6332482282195838
1306893752.6,3.198703,5.8594339,13665.846894,19.7,-3.8,182.1,1021075.9513096,-57799.575340400006,-1.0,586.1346626399145,136923.37373050995,136923.37373050995,301.91943548477525,0.0800742099149898,3.6102800597492997,86.39999999999999,0.6327850829877377
1306893753.02,3.1986149,5.8584173,13634.186787999999,17.6,-4.0,182.3,1021076.8699447999,-58171.589788000005,-1.0,598.821115659083,138020.95781675036,138020.95781675036,300.40648466259984,0.08037551151961617,3.664322258971065,85.00000000000001,0.6322662837751393
1306893753.44,3.1985222,5.8574089,13601.608046800002,15.7,-4.2,182.6,1021076.4434356,-58540.6186712,-1.0,594.0850462384137,139644.6944117958,139644.6944117958,299.5232578787869,0.07855023584158241,3.6672499487475534,87.50000000000001,0.6316963472047106
1306893753.86,3.1984221,5.8563742,13567.159226800002,13.9,-4.3,182.7,1021074.7045904,-58919.391649200006,-1.0,610.0821607131817,144138.34277158752,144138.34277158752,297.3048878377406,0.0762892303452985,3.6368054539224373,86.80000000000001,0.6310782588407562
1306893754.28,3.198318,5.855345,13531.9558136,12.2,-4.4,182.9,1021071.8502596,-59296.2289316,-1.0,607.0475634016963,145502.73935925122,145502.73935925122,297.5470470930823,0.07569721548235922,3.674258841627663,89.00000000000001,0.6304169946237832
1306893754.7,3.1982085,5.8543038,13495.571297999999,10.8,-4.5,183.1,1021067.7492096,-59677.528156399996,-1.0,614.4253044946453,145897.72724326595,145897.72724326595,296.5142661374278,0.0782319431204216,3.6672626826619856,91.80000000000001,0.6297156932239582
1306893755.12,3.1980979,5.853287,13459.350824399999,9.4,-4.6,183.2,1021062.8279496,-60049.9691132,-1.0,600.080760030254,150421.73865602442,150421.73865602442,296.94127118768597,0.07940173722054039,3.7015031280538433,91.60000000000001,0.6289811678521297
1306893755.54,3.197981,5.8522447,13421.6539728,8.2,-4.6,183.2,1021056.9880544,-60431.76046399999,-1.0,615.4187615112108,147873.34003065102,147873.34003065102,297.77900683730434,0.07998669411318826,3.6437341465530624,91.7,0.6282147199081226
1306893755.96,3.197863,5.8512204,13384.0555464,7.1,-4.6,183.2,1021050.3279492001,-60807.0229432,-1.0,604.8567516914532,146659.97807342157,146659.97807342157,296.3223752181669,0.07932711941218626,3.6680013669941705,94.1,0.6274211722265829
1306893756.38,3.1977417,5.850191,13345.8665688,6.1,-4.7,183.2,1021042.9460592,-61184.25392639999,-1.0,608.1354541736819,143737.5657772301,143737.5657772301,294.2016388324363,0.07727254815924224,3.647303686084574,97.3,0.626605271089225
1306893756.8,3.1976198,5.8491787,13307.90725,5.3,-4.7,183.2,1021035.0392347999,-61555.1856968,-1.0,597.9282956828179,137465.69719975558,137465.69719975558,294.41010316834013,0.07890319880805355,3.652080782285544,94.0,0.6257700786132845
1306893757.22,3.1974953,5.8481619,13269.455805200001,4.5,-4.7,183.7,1021026.5418592,-61927.82350399999,-1.0,600.7702571992542,133038.97454032712,133038.97454032712,294.53355789589915,0.07827052579404399,3.6853219835921758,95.6,0.624919039680651
1306893757.64,3.1973694,5.8471506,13230.9387436,3.8,-4.7,183.7,1021017.5195492,-62298.5256156,-1.0,597.6617695661198,127115.22662375716,127115.22662375716,295.96316287220384,0.07883321494340424,3.611156872966198,92.9,0.6240541446675276
1306893758.06,3.1972423,5.8461422,13192.290448400001,3.2,-4.7,183.7,1021008.07073,-62668.14505,-1.0,595.9421061819179,122889.64527922028,122889.64527922028,296.3266418781231,0.08182105169630416,3.587958828853812,92.40000000000002,0.6231794508792513
1306893758.48,3.1971161,5.8451536,13154.167087599999,2.7,-4.7,183.7,1020998.5234856001,-63030.546636399995,-1.0,584.201532289429,119002.9563201186,119002.9563201186,295.78102213678943,0.0804225505902298,3.5653204308289643,92.30000000000003,0.622297943880126
1306893758.9,3.1969878,5.8441587,13115.650026,2.3,-4.7,183.7,1020988.4841152001,-63395.2776192,-1.0,588.0371370704385,115671.23998172372,115671.23998172372,296.3453347780925,0.08036969730716031,3.4857459396887625,92.30000000000001,0.6214114609404936
1306893759.32,3.1968575,5.8431575,13076.7392636,1.9,-4.6,183.7,1020978.1494692,-63762.33799839999,-1.0,591.8705402223078,111162.25533228133,111162.25533228133,295.5930908551306,0.07782959250427635,3.527136496399726,96.10000000000002,0.6205187006605286
1306893759.74,3.1967297,5.842183,13038.7471364,1.6,-4.6,183.7,1020967.7820147999,-64119.6214744,-1.0,575.931291138253,112062.9733390819,112062.9733390819,296.41407625708314,0.07629081405753414,3.606401766230374,93.10000000000002,0.6196252514041857
1306893760.16,3.1966021,5.8412163,13000.9518596,1.3,-4.6,184.0,1020957.21771,-64474.083428000005,-1.0,571.346991750888,107114.1973195336,107114.1973195336,298.86158818474746,0.07731602880704744,3.5772751919447368,92.30000000000001,0.6187313428302573
1306893760.59,3.1964673,5.8402019,12961.1880788,1.0,-4.6,184.0,1020946.0300456,-64846.0322588,-1.0,585.7986111648764,105300.13390781265,105300.13390781265,299.7030424365095,0.07673231424633781,3.5595906427571005,90.3,0.6178337597156467
1306893761.01,3.1963406,5.8392529,12923.884928,0.8,-4.6,184.0,1020935.3673156,-65193.9981492,-1.0,560.7792106045631,106753.14778358807,106753.14778358807,299.82820734601864,0.07601346281644698,3.5723734483024074,91.5,0.6169377076596537
1306893761.43,3.1962109,5.8382864,12885.859992400001,0.8,-4.5,184.0,1020924.3108847999,-65548.4272944,-1.0,571.3444246306229,100426.50884694462,100426.50884694462,299.5241775423069,0.076260190620467,3.4859142616874004,88.30000000000001,0.6160426507917621
1306893761.86,3.1960808,5.8373207,12847.8350568,0.5,-4.5,184.0,1020913.1232204,-65902.5283556,-1.0,557.3681217354855,98915.29708092553,98915.29708092553,298.6558182054537,0.07500299900755482,3.606984204707589,90.50000000000001,0.6151487422178339
1306893762.28,3.1959518,5.8363672,12810.203822000001,0.4,-4.5,184.0,1020901.9683643999,-66252.2002828,-1.0,563.6005635660175,98977.07808594104,98977.07808594104,299.9568932348356,0.07300380382153236,3.5887336462536754,91.80000000000001,0.6142572067847631
1306893763.12,3.1956966,5.8344892,12736.0240296,0.4,-4.4,184.0,1020879.5930356,-66940.88140720001,-1.0,554.9030250076095,94886.33989911113,94886.33989911113,301.6271974166364,0.07213713093532415,3.621986911821764,91.7,0.6132815396806511
1306893766.1,3.1947993,5.8279681,12477.7234964,0.4,-4.2,184.0,1020799.3436892,-69332.4497252,-1.0,543.0476125348158,93115.13236266,93115.13236266,302.2283699816855,0.06986383490730062,3.678498544698927,89.2,0.6117930444925496
1306893766.94,3.1945507,5.8261811,12406.8573524,0.4,-4.2,184.1,1020776.5746596,-69987.863132,-1.0,527.7745353653662,95548.26692852064,95548.26692852064,303.16816947205433,0.07159994915045143,3.5853050688220067,86.50000000000001,0.6102299867497674
1306893771.15,3.1933222,5.8174606,12060.827157599999,0.0,-4.2,184.1,1020661.5484092,-73186.55089839999,-1.0,513.74279395637,92363.59665975817,92363.59665975817,300.96374621639256,0.07136206865666915,3.5897296102168945,87.00000000000001,0.6079481735389188
1306893771.57,3.1932001,5.8166038,12026.8376552,0.0,-3.8,184.1,1020649.8358104,-73500.822562,-1.0,505.85034031541727,88687.43158402546,88687.43158402546,300.82959367857427,0.07116183119446275,3.596333508373957,87.30000000000001,0.6056752404680527
1306893771.99,3.1930801,5.8157632,11993.4715124,-0.1,-3.8,184.1,1020638.3528704,-73809.1887136,-1.0,496.20475684565594,85863.90902360785,85863.90902360785,300.94635011272595,0.07149206632112826,3.609437790399497,87.1,0.6034172352187088
1306893772.83,3.1928409,5.8140899,11927.0673108,-0.6,-4.7,184.0,1020615.3869904,-74423.0010692,-1.0,493.8201814449941,75412.99717920825,75412.99717920825,298.1784628348986,0.07045301822365363,3.527693354639598,89.20000000000002,0.6010913275196712
1306893773.25,3.1927229,5.8132574,11892.6184908,-6.0,-6.0,183.9,1020604.2321343999,-74728.3816564,-1.0,491.5759221432462,69401.17243405124,69401.17243405124,300.1283746828702,0.06963436100832757,3.5336660135557385,91.70000000000002,0.5987737640900999
1306893773.67,3.1926066,5.8124253,11855.5778072,-6.7,-6.6,183.9,1020593.4709792,-75033.5982016,-1.0,491.7982869764346,61847.273527905556,61847.273527905556,299.544983485473,0.07070549084293569,3.477343050451005,92.10000000000002,0.5964584972484551
1306893774.09,3.1924933,5.8116131,11816.6998532,-6.4,-6.9,183.9,1020583.0050996,-75331.4656652,-1.0,480.3367944403043,58650.72624127049,58650.72624127049,299.5067447455008,0.06920427731179936,3.5208945114231156,91.80000000000003,0.5941403213954367
1306893774.51,3.1923772,5.8107856,11774.639484399999,-6.2,-6.9,183.9,1020572.2439443999,-75634.97617360001,-1.0,490.118591243514,56519.028644126614,56519.028644126614,298.01297426867643,0.06977711985006332,3.5566130996073473,88.70000000000002,0.5918970908617535
1306893774.93,3.1922627,5.8099756,11731.46363,-6.0,-6.9,184.0,1020561.4827892,-75932.1218524,-1.0,480.1508814832617,59239.048500878744,59239.048500878744,297.505907271996,0.07182095283228823,3.6129111604147606,89.5,0.5901558178958741
1306893775.77,3.1920311,5.8083547,11640.6499788,-6.2,-6.9,184.0,1020539.2058856001,-76526.7084856,-1.0,480.93950116357615,59356.03062265892,59356.03062265892,298.78907423550345,0.07295428651399068,3.6998856172813657,88.70000000000002,0.5883680007480176
1306893776.19,3.1919169,5.807551,11593.996433999999,-6.5,-6.9,184.0,1020528.3463052001,-76821.4919596,-1.0,477.22373230956396,60016.896073421914,60016.896073421914,300.64283038762136,0.07452414084999011,3.6363954585973683,89.40000000000002,0.5872787290944743
1306893776.61,3.1918067,5.8067597,11547.3100808,-6.8,-6.9,183.7,1020518.2085096,-77111.7478744,-1.0,469.9609983323559,60882.5171387736,60882.5171387736,300.71333497145235,0.07350734745569079,3.7688002719079066,87.60000000000001,0.5861598314566792
1306893777.03,3.1916991,5.8059607,11499.4754336,-6.8,-7.2,183.5,1020508.8581156001,-77404.694078,-1.0,474.55762199235636,58655.42732544388,58655.42732544388,299.99172391733197,0.07259347914126624,3.7104010570730734,88.2,0.5850071739763641
1306893777.45,3.191595,5.8051596,11450.787768,-6.7,-7.4,183.3,1020500.5575904,-77698.4276832,-1.0,476.0319908014186,57228.601427056994,57228.601427056994,300.4336662448932,0.07374951238048456,3.697354085863582,88.2,0.5838958550787264
1306893777.87,3.1914934,5.8043597,11401.4439344,-5.9,-7.7,183.3,1020492.8804247999,-77991.63635399999,-1.0,475.36448354047326,57801.28659622859,57801.28659622859,299.0828633931697,0.07379807501107745,3.722171072985611,85.8,0.5827497811504674
1306893778.29,3.1913934,5.8035762,11352.198526,-5.4,-7.7,183.4,1020485.2032592,-78278.8410876,-1.0,465.7322237492499,59173.556357830785,59173.556357830785,299.9765940104168,0.07340973867079655,3.759898471072773,84.5,0.5815752295319198
1306893778.71,3.1912892,5.8027764,11301.017422,-5.1,-8.1,183.5,1020476.8699256001,-78572.0825668,-1.0,475.9345234040088,58457.16079454449,58457.16079454449,299.2239961659136,0.0764874620928901,3.7482778122617746,83.3,0.5803719705642907
1306893778.92,3.1912367,5.8023812,11275.3940616,-5.0,-8.1,183.6,1020472.4736,-78716.99726959999,-1.0,470.5061065080849,62731.969674553424,62731.969674553424,299.9791328489288,0.07840944534704647,3.7286108060279424,85.9,0.5792070646150344
1306893779.34,3.1911275,5.8015751,11222.605346,-4.9,-8.1,183.7,1020462.9263556001,-79012.5681452,-1.0,480.13518853673025,61518.31208006051,61518.31208006051,298.4935935731074,0.0760127115000284,3.70516218560647,88.10000000000001,0.5780197286570291
1306893779.76,3.1910188,5.8007891,11170.5712236,-4.9,-8.1,183.8,1020453.0838356001,-79300.85555600001,-1.0,468.2892312907967,62360.09853565529,62360.09853565529,298.2589818734679,0.07480124935685847,3.585645895317407,88.7,0.5769228782633283
1306893779.97,3.1909631,5.8003909,11144.0620364,-4.9,-8.0,183.8,1020447.8673,-79446.8857444,-1.0,474.61442975647554,62210.22332056553,62210.22332056553,296.9122707301489,0.07243996509292974,3.648712218450916,87.39999999999999,0.57587303136919
1306893780.18,3.1909085,5.7999963,11117.7168912,-4.7,-8.0,183.7,1020442.94604,-79591.6364052,-1.0,470.4201085187713,63064.550327633595,63064.550327633595,295.13477820261545,0.07205584446733396,3.6488616158343583,88.8,0.5748706472921996
1306893780.4,3.1908529,5.7995823,11089.9937932,-4.3,-7.9,183.5,1020438.2216303999,-79743.44087199999,-1.0,470.96576415076987,63332.47677226242,63332.47677226242,296.93410126038333,0.07233510101909961,3.651066567606108,86.8,0.5739151901618409
1306893780.61,3.1907986,5.799166,11062.0738448,-3.7,-7.7,183.4,1020433.8253048,-79896.0327404,-1.0,496.36674697798543,64287.45401893272,64287.45401893272,298.0952232009887,0.0731749907187124,3.6377287661621223,85.9,0.5730081910367316
1306893780.82,3.1907483,5.7987703,11035.630274399999,-3.1,-7.6,183.2,1020430.0195303999,-80041.1114852,-1.0,471.4954725193803,76620.2925245987,76620.2925245987,299.0561686726768,0.07124997641812833,3.663155098712236,86.7,0.572154625857379
1306893781.03,3.1906994,5.798378,11009.4819796,-2.6,-7.4,183.1,1020426.4434147999,-80184.9107024,-1.0,467.23322420006207,76949.3437517517,76949.3437517517,299.1717021318888,0.07114017683996397,3.667098508044936,88.80000000000001,0.5713549539413685
1306893781.25,3.1906485,5.7979625,10981.955732,-2.1,-7.2,183.1,1020422.9657243999,-80337.2072952,-1.0,472.33464401245897,76766.28520194741,76766.28520194741,300.44323634919647,0.07098252450965634,3.7026656600440857,89.30000000000001,0.570610476688525
1306893781.46,3.190598,5.7975465,10954.6591432,-1.6,-7.0,183.0,1020419.5864592,-80489.6351216,-1.0,495.4606364093818,77840.92817054782,77840.92817054782,301.7964531189342,0.0681400999695617,3.6672859155817146,88.80000000000001,0.5698620952362066
1306893781.67,3.1905496,5.7971473,10928.6748904,-1.3,-6.9,183.1,1020416.3056192,-80635.9277772,-1.0,475.0998350396086,79933.26105760077,79933.26105760077,304.0076783580947,0.068970904110286,3.628809920712977,86.4,0.5691762575284202
1306893781.88,3.1905011,5.7967496,10903.0843384,-1.0,-6.4,183.1,1020413.0247792,-80781.66269,-1.0,473.09164469646265,70270.23812056296,70270.23812056296,302.9058477707461,0.06900781854754338,3.6493944279621178,88.7,0.5685521214829258
1306893782.09,3.190453,5.7963533,10877.9859124,-0.3,-4.9,183.1,1020409.7439392,-80926.9054768,-1.0,471.240310577669,74059.53052948353,74059.53052948353,302.11478523638266,0.07112681120969978,3.5763064054559774,91.0,0.5679312772134595
1306893782.3,3.1904043,5.7959522,10853.4780376,0.8,-3.9,183.1,1020406.4630992,-81073.8871088,-1.0,476.4775042586789,75273.78590148153,75273.78590148153,303.6427486384036,0.07306229414833694,3.479794961274499,91.9,0.5673147199081228
1306893782.51,3.1903552,5.7955481,10829.888798,1.8,-3.3,183.1,1020403.1822592,-81221.9842264,-1.0,479.56344097211587,66853.15311443467,66853.15311443467,302.0128788773525,0.07556391548740905,3.5588729016770606,91.90000000000002,0.5667078082720771
1306893782.72,3.1903059,5.7951446,10807.513469200001,2.6,-2.8,183.1,1020399.7701856,-81369.85168519999,-1.0,478.21330221894186,69046.61882668473,69046.61882668473,300.58748391996943,0.07410344278631215,3.5981733743618047,91.3,0.5661138340813511
1306893782.93,3.1902547,5.7947281,10785.6302664,2.9,-2.5,183.2,1020396.19407,-81522.50917040001,-1.0,493.35943307472087,69987.76009085559,69987.76009085559,299.3240618896848,0.07421626131781872,3.6035456589607926,91.3,0.5655305007480177
1306893783.14,3.1902048,5.7943257,10765.6499508,3.0,-2.1,183.2,1020392.6179543999,-81669.9829284,-1.0,475.8287220534915,77672.84289802014,77672.84289802014,299.6158520984384,0.0751796925801745,3.4897139711929244,90.30000000000001,0.5649615593656905
1306893783.36,3.1901513,5.7938983,10745.604018400001,3.0,-1.8,183.3,1020388.7137547999,-81826.6430384,-1.0,482.11382229273204,78815.48732651428,78815.48732651428,299.773691422926,0.07579960301283346,3.4385590307672773,89.4,0.5644100720516048
1306893783.57,3.1900996,5.7934888,10727.52659,3.1,-1.5,183.3,1020384.8095552,-81976.7414684,-1.0,483.4877181495485,89073.26052267267,89073.26052267267,297.9609610820425,0.07898439109223354,3.4841377389032786,89.00000000000001,0.5638800961110974
1306893783.78,3.190045,5.79306,10709.744437199999,3.2,-1.0,183.4,1020380.7085052001,-82133.9593212,-1.0,506.3331678896723,90827.78913905425,90827.78913905425,295.43072289868473,0.08065441338608476,3.5013878853959652,91.30000000000001,0.5633692584033109
1306893783.99,3.1899932,5.7926571,10694.1604472,3.3,-0.5,183.4,1020376.6074552,-82281.662738,-1.0,474.84294991269957,95887.81818941295,95887.81818941295,295.10821186566426,0.08205368908375442,3.4798527379541193,88.3,0.5628817693394439
1306893784.21,3.1899372,5.7922248,10678.6748824,3.2,0.4,183.5,1020372.2111296,-82440.12731,-1.0,486.06944241574337,87362.6098490384,87362.6098490384,297.34775981585426,0.08066499135380381,3.5185308362807874,88.89999999999999,0.5624167102843257
1306893784.42,3.1898806,5.791793,10664.6656956,3.0,2.0,183.6,1020367.5851452001,-82598.42784,-1.0,508.597145219209,90137.32953521251,90137.32953521251,296.8863660082563,0.07874408474384487,3.5578662282617204,86.39999999999999,0.5619761481670903
1306893784.63,3.1898259,5.7913807,10653.1499472,2.8,7.9,183.7,1020362.9919692,-82749.6417556,-1.0,484.99338781164397,101608.62200605228,101608.62200605228,296.5705145271939,0.07935734372953404,3.475904065386819,87.9,0.5615637575284201
1306893784.84,3.1897695,5.790971,10645.2103144,2.6,14.2,183.9,1020357.8410503999,-82899.8714192,-1.0,481.06719513435866,91543.21244530058,91543.21244530058,297.69396027830106,0.0791284151254682,3.5580916190793266,89.60000000000001,0.5611850501793387
1306893785.05,3.1897096,5.790554,10642.3559836,0.4,18.9,184.1,1020352.0995804,-83052.85698839999,-1.0,489.43955180203807,89151.24954208819,89151.24954208819,297.9058652699513,0.08181914353505444,3.4674944077373424,89.39999999999999,0.5608507435301698
1306893785.26,3.1896493,5.7901463,10645.768057199999,-2.3,23.1,184.2,1020345.9644096,-83202.4632924,-1.0,478.533915588916,91834.83506551507,91834.83506551507,296.9380104917541,0.07965519762965972,3.5998201256573097,90.3,0.560571019120721
1306893785.48,3.1895857,5.7897189,10656.4635956,-3.1,26.8,184.2,1020339.4027296,-83359.254636,-1.0,479.74964529250616,77056.64538194975,77056.64538194975,296.0750742561151,0.07852012639751652,3.588701433251917,90.79999999999998,0.5603630248075102
1306893785.69,3.1895234,5.7892992,10674.4425988,-3.3,29.9,184.1,1020333.0379,-83513.2572656,-1.0,496.13836027367824,61941.82497945631,61941.82497945631,295.9716299507122,0.07675890319210246,3.563791650790451,91.6,0.5602391621653404
1306893785.9,3.1894651,5.7889035,10698.6223896,-3.4,33.1,184.1,1020327.0995796,-83658.4344356,-1.0,470.60972876404117,74801.60881485298,74801.60881485298,297.02072919334574,0.07692375075285252,3.4828278448676544,88.7,0.5602132107217709
1306893786.11,3.1894097,5.7885247,10728.4124168,-3.4,35.5,184.0,1020321.55496,-83797.410818,-1.0,454.2788963895158,60231.70490651671,60231.70490651671,298.85651627465376,0.0744635165267456,3.5877169984643222,89.7,0.5602931319816135
1306893786.32,3.1893551,5.7881482,10764.600082,-3.4,36.5,183.9,1020316.2399992,-83935.56699040001,-1.0,456.5643172311871,42897.36519187126,42897.36519187126,296.91342886945074,0.07492522570362495,3.5500276931529715,86.4,0.5604936241075978
1306893786.53,3.1893007,5.7877702,10807.1525768,-3.3,37.8,183.8,1020310.89223,-84074.2152888,-1.0,463.8405699292321,39825.31723138244,39825.31723138244,296.2417750788098,0.07439466099236441,3.507398477041061,88.4,0.5608260934864253
1306893786.74,3.1892495,5.7874119,10853.1499536,-3.3,39.5,183.7,1020305.97097,-84205.6457392,-1.0,445.134074174353,24951.46124756032,24951.46124756032,296.85504238077857,0.07384849349534006,3.624394300147379,90.50000000000001,0.561292760153092
1306893786.95,3.1891964,5.7870388,10906.8901128,-3.3,41.3,183.6,1020300.8528596,-84342.4895756,-1.0,470.4693411640686,24021.797120298437,24021.797120298437,296.32469243265456,0.07639697254637491,3.5312049803836665,87.39999999999999,0.56190334632982
1306893787.16,3.1891482,5.7866988,10961.122398,-3.3,43.1,183.6,1020296.2268752,-84467.2271124,-1.0,434.83842806750624,27067.659598474347,27067.659598474347,296.92796444907765,0.07535602782508038,3.51055945179724,89.20000000000002,0.5626471346062853
