timestamp,longitude,latitude,altitude,roll,pitch,yaw,u,v,heading,air_speed,engine_0,engine_1,temperature_in,humidity_in,pressure_in,heart_rate,oxygen_mask
1306893630.65,7.487179,3.1783563,-3.28084,-1.0,-0.8,-1.0,2245197.9393004,-934220.6335696,-1.0,303.5816715974697,9008.481578812305,9008.481578812305,303.4853681915473,0.07622261299715452,3.6196512237052354,93.19999999999999,0.304940309525422
1306893631.07,7.4868134,3.1783103,155.64304959999998,-1.0,2.4,-1.0,2245100.5639692,-934248.6191347999,-1.0,303.5816715974697,10034.899300312809,10034.899300312809,304.2533900005026,0.07846479241201094,3.7002302284156134,94.6,0.30493510392612194
1306893631.49,7.4864484,3.1782644,155.77428319999999,-1.0,4.7,-1.0,2245003.35268,-934276.4078496,-1.0,159.65793042418497,13353.349084313753,13353.349084313753,304.1855976108655,0.07995644130557687,3.746704057646046,96.30000000000001,0.304933113549919
1306893631.91,7.4860695,3.1782167,155.8727084,-1.0,6.3,-1.0,2244902.46685,-934305.31205,-1.0,165.88203772515539,17931.101716150486,17931.101716150486,305.6387563269067,0.08198928907791324,3.7951933224629393,96.4,0.30493250112647186
1306893632.33,7.4856834,3.1781682,155.9383252,-1.0,7.3,-1.0,2244799.7437496,-934334.83961,-1.0,169.01983381369686,21325.089285028247,21325.089285028247,306.188883645378,0.08116322788531508,3.8457782940424905,99.20000000000002,0.30493227146767926
1306893632.75,7.4852914,3.1781188,156.003942,-1.0,7.9,-1.0,2244695.3802292,-934364.6624456,-1.0,171.72038194631227,21325.08928502825,21325.08928502825,306.188883645378,0.08116322788531508,3.8457782940424905,99.2,0.3049322714676792
1306893633.17,7.4848934,3.1780688,156.03675040000002,-1.0,8.4,-1.0,2244589.5731392,-934395.1414492,-1.0,174.25051800835467,17931.101716150486,17931.101716150486,305.6387563269067,0.08198928907791324,3.7951933224629397,96.39999999999999,0.3049325011264719
1306893633.59,7.4844819,3.178017,156.1351756,-1.0,8.8,-1.0,2244480.0587,-934426.5062796,-1.0,180.43850493703007,13353.349084313757,13353.349084313757,304.1855976108655,0.07995644130557684,3.746704057646046,96.3,0.304933113549919
1306893634.01,7.4840754,3.1779659,156.6273016,-1.0,9.2,-1.0,2244371.79098,-934457.5758343999,-1.0,178.36027590990253,10034.89930031281,10034.89930031281,304.2533900005026,0.07846479241201093,3.7002302284156143,94.60000000000001,0.30493510392612194
1306893634.43,7.4836482,3.1779121,157.87402079999998,-1.0,9.7,-1.0,2244258.2082992,-934490.1545756,-1.0,187.33395449898157,9008.481578812305,9008.481578812305,303.4853681915473,0.07622261299715452,3.6196512237052354,93.2,0.30494030952542206
1306893634.85,7.4832194,3.177858,160.10499199999998,-1.0,9.9,-1.0,2244143.9694504,-934522.8645504,-1.0,188.44309459441874,9542.782521501462,9542.782521501462,302.40530138097876,0.07687535546868622,3.5599962614506597,91.9,0.3053215431212225
1306893635.27,7.4827808,3.1778026,163.4842572,-1.0,10.1,-1.0,2244027.30278,-934556.4931604,-1.0,192.6717664218702,10102.090082273613,10102.090082273613,303.05541037451104,0.07415969062320249,3.4976949419093724,90.7,0.3053398392717038
1306893638.63,7.4789812,3.1773113,238.81234360000002,0.2,10.1,-1.0,2243016.6072095996,-934851.2766343999,-1.0,209.6549217672517,10428.750023942754,10428.750023942754,302.0731163327931,0.0736580698488197,3.455350350444186,87.9,0.30553359473977026
1306893639.47,7.4779076,3.1771663,273.91733159999995,0.3,10.1,-1.0,2242731.1741295997,-934936.87375,-1.0,238.97818371760826,11082.241508674799,11082.241508674799,300.4617836265882,0.07134515238083054,3.520309528650393,86.5,0.30580903218508954
1306893639.89,7.4773579,3.1770906,294.12730600000003,0.4,10.1,-1.0,2242585.1767495996,-934981.16509,-1.0,245.25335095697062,12794.01929091175,12794.01929091175,298.22460655094943,0.07096892370757162,3.4603287110440375,85.5,0.3061314731299714
1306893640.31,7.4767896,3.1770113,316.5026348,0.5,10.1,-1.0,2242434.2581096,-935027.2937004,-1.0,254.15307187098927,14830.501514769267,14830.501514769267,296.5359885369884,0.0710074474127377,3.3435332944034104,87.2,0.30650597006785424
1306893640.73,7.4762083,3.1769289,340.8464676,0.6,10.1,-1.0,2242279.8617792,-935075.0955392,-1.0,260.7252555172878,17717.393936610984,17717.393936610984,295.7392115880969,0.06999133727169625,3.371184913263286,86.2,0.30693719272752173
1306893641.57,7.4750054,3.1767539,394.8162856,0.9,10.1,-1.0,2241960.5704304003,-935175.4564347999,-1.0,270.53714730296286,21388.366659634186,21388.366659634186,294.9360415598692,0.07090629537452575,3.455111476854387,87.6,0.30749411529970017
1306893641.99,7.4743848,3.1766615,423.4580188,1.1,9.8,-1.0,2241796.1347295996,-935228.0483,-1.0,279.42291906229894,24329.190014681433,24329.190014681433,292.6645846628394,0.07150954370239546,3.550588881128746,86.6,0.3081167202865769
1306893642.41,7.473747,3.1765649,452.49345279999994,1.3,9.4,-1.0,2241626.9746192,-935282.7070944,-1.0,287.72133458231554,27031.710180839407,27031.710180839407,293.990992311118,0.0713364800459747,3.5323031967899694,86.0,0.308804165605912
1306893642.83,7.4731023,3.1764658,480.8399104,1.6,9.0,-1.0,2241456.1412804,-935338.4813743999,-1.0,290.62276999170274,29392.772659013903,29392.772659013903,293.9626146716975,0.06814998670323566,3.559861065295147,87.5,0.30955254705823043
1306893643.25,7.4724376,3.1763622,508.46458319999994,1.9,8.6,-1.0,2241280.0257892,-935396.3882003999,-1.0,299.54322930252584,31029.155541977125,31029.155541977125,294.69051468792685,0.06793172265695901,3.543973696060489,86.8,0.31035750112647187
1306893643.67,7.4717502,3.1762539,535.0065787999999,2.2,8.3,-1.0,2241097.9391692,-935456.7884647999,-1.0,309.6344980533007,32694.36143303526,32694.36143303526,294.21127934440204,0.06853143655919963,3.6162636675737336,87.10000000000002,0.3110486209864894
1306893644.09,7.4710542,3.176143,559.5144536,2.6,8.0,-1.0,2240913.5887696,-935518.40264,-1.0,313.2526986785382,35321.91760703833,35321.91760703833,295.16606861220254,0.06892590079923305,3.6245135396058945,89.70000000000002,0.3117150142498314
1306893644.51,7.4703358,3.1760277,582.2834832,3.0,7.8,260.9,2240723.4969,-935582.2805947999,-1.0,322.83160663605213,37407.97941338112,37407.97941338112,297.22190494181734,0.06805334415862624,3.7290361582637006,87.30000000000001,0.3123873786417824
1306893644.93,7.4696081,3.1759103,602.8215416,3.4,7.8,260.9,2240530.74755,-935647.2740352001,-1.0,327.07124692590776,40222.61369939263,40222.61369939263,296.9729918580875,0.06542676989223341,3.737463197483856,87.3,0.31305545606960394
1306893645.35,7.4688531,3.1757881,621.6207548,3.8,7.8,261.0,2240331.0428192,-935714.7281056001,-1.0,338.71572400481125,42998.216967372566,42998.216967372566,298.19940915981914,0.06514674156910231,3.751886650501665,90.20000000000002,0.31371059605210616
1306893645.77,7.4680852,3.1756639,639.0092068,4.2,8.0,261.0,2240127.6307392,-935783.33047,-1.0,344.7958637342694,45738.29415190737,45738.29415190737,300.8751390101332,0.06625920857184328,3.689116744286715,86.9,0.3142803795166731
1306893646.19,7.4672915,3.1755363,656.2008083999999,4.4,8.3,261.0,2239917.6569792,-935854.0653803999,-1.0,355.9347753535747,48649.66594541201,48649.66594541201,302.73397820718907,0.06475339134729097,3.666467627818134,87.9,0.31482344600836165
1306893646.61,7.4664834,3.1754082,673.8189192,4.6,8.7,261.3,2239703.5821692,-935925.3252252,-1.0,362.5750091391793,52357.16751215968,52357.16751215968,302.72641626274805,0.06415594866979067,3.704129691876913,89.1,0.31533987208010267
1306893647.03,7.4656615,3.1752798,692.5197072000001,4.6,9.1,261.4,2239485.80001,-935997.1100043999,-1.0,368.696376470042,55907.48422653919,55907.48422653919,302.9284392272715,0.06716630388652935,3.755466546228791,87.8,0.3158337915901639
1306893647.46,7.4648061,3.1751484,713.254616,4.6,9.4,261.4,2239259.0283492,-936071.0273296,-1.0,374.8509089349301,59499.21553061018,59499.21553061018,301.9539521567689,0.06756284599641366,3.7471101552070514,87.4,0.3163116349847396
1306893647.88,7.4639434,3.175018,735.6299448,4.9,9.6,261.7,2239030.3866096,-936144.7478043999,-1.0,386.92842808158696,63023.644809869766,63023.644809869766,301.16904380895005,0.06733614303311498,3.7315455358434195,89.1,0.31677975615709303
1306893648.3,7.4630679,3.1748878,759.8753524,4.9,9.6,261.7,2238798.0703292,-936218.86198,-1.0,393.0902719449428,66625.54807901027,66625.54807901027,300.4973643706969,0.06852670588907421,3.636612981654827,86.2,0.31724726490599947
1306893648.72,7.4621758,3.1747573,785.9580304,4.9,9.6,262.0,2238561.42334,-936293.50109,-1.0,400.33981465671684,70062.34931744923,70062.34931744923,298.375213487998,0.07157991848931218,3.575347753596914,87.7,0.31772250550092507
1306893649.14,7.4612787,3.1746271,813.7795536,4.4,12.6,261.8,2238323.3655895996,-936368.2386252001,-1.0,402.8750154718994,73448.08839876443,73448.08839876443,299.49361168282326,0.07319549077903453,3.702697926077785,87.60000000000001,0.31821474084650686
1306893649.56,7.4603565,3.1744862,847.1785048,0.3,12.9,261.0,2238078.9430095996,-936447.6021447999,-1.0,415.94700706141197,76990.7462762481,76990.7462762481,297.68956473831906,0.07230095330923951,3.6404601513096413,85.00000000000001,0.3187410422463319
1306893649.98,7.4594439,3.1743389,884.678506,-1.2,13.2,260.7,2237837.17791,-936529.0982104,-1.0,413.8198029946984,80480.10358541802,80480.10358541802,296.53323793167044,0.06997228068958548,3.6600909975001716,86.10000000000001,0.31931427059278855
1306893650.4,7.4585214,3.1741877,925.853048,0.5,13.4,260.7,2237593.1818392,-936612.2675043999,-1.0,418.96376829488577,82247.03052857127,82247.03052857127,296.49789020993524,0.07329294764835811,3.5757360716255393,87.39999999999999,0.31994345913172123
1306893650.82,7.4576106,3.1740387,968.9960940000001,0.5,13.6,260.7,2237352.0400992,-936694.1900792,-1.0,414.525600038611,83249.24369974871,83249.24369974871,296.60674476068357,0.07618954097134424,3.587460749229565,87.5,0.3206322058508813
1306893656.92,7.4435867,3.17335,1764.1732848000001,60.6,13.6,281.6,2233575.1698995996,-937370.6336704,-1.0,443.50344410134454,82594.31560155636,82594.31560155636,295.75538984279405,0.07660026605970004,3.576361990991218,88.4,0.3231327307852645
1306893657.13,7.4430612,3.1734144,1795.3084564,60.7,16.0,282.5,2233429.9927295996,-937363.05493,-1.0,486.450247057705,81468.26915137349,81468.26915137349,294.76840322621035,0.07677422440991052,3.6381756060921915,88.80000000000001,0.3256575229987378
1306893657.34,7.4425393,3.1734851,1826.2795859999999,60.8,16.0,283.5,2233285.6357695996,-937353.1139848,-1.0,484.0574928550856,97544.82112668673,97544.82112668673,296.48830995425146,0.075612885495976,3.659805348412455,87.8,0.3282023720801026
1306893657.55,7.4420136,3.173563,1857.5131827999999,60.8,15.9,284.3,2233139.83524,-937340.6139843999,-1.0,489.2925105378034,115759.09534618566,115759.09534618566,296.14119812071397,0.07432487574624097,3.668279137321085,89.89999999999999,0.3307635269357457
1306893657.76,7.4414992,3.1736459,1888.1562284,60.9,15.8,285.3,2232996.7249992,-937325.9486296,-1.0,480.89487470846143,138879.0782499658,138879.0782499658,295.98535268535784,0.07150507045256431,3.713486265191178,88.80000000000001,0.3333353226487816
1306893657.97,7.4409589,3.17374,1920.4396940000001,60.9,15.8,286.2,2232846.3969104,-937308.0024347999,-1.0,505.7914985676752,161416.72087653397,161416.72087653397,296.14004540901715,0.0709756603860395,3.6206581374088285,87.0,0.33591752956041765
1306893658.18,7.4404478,3.1738357,1951.0171228,61.0,15.7,287.1,2232703.9100292,-937288.6126704,-1.0,480.3834612083319,177406.71140614568,177406.71140614568,296.67732860783093,0.07412618322901576,3.681905380850247,87.89999999999999,0.33849315291999765
1306893658.39,7.4399039,3.1739445,1983.6614808,61.0,15.7,288.0,2232551.74467,-937265.3515147999,-1.0,513.8156444349597,168701.56957619765,168701.56957619765,295.3187017941659,0.07433403288090555,3.7611120983916573,89.0,0.34105744644580693
1306893658.6,7.4393802,3.1740564,2015.2231616,61.0,15.6,288.9,2232405.1239304002,-937240.4499392,-1.0,496.39179109297396,167850.5326107092,167850.5326107092,294.69955871312845,0.07369428458295768,3.850222306228592,87.8,0.34359930996286736
1306893658.81,7.4388574,3.1741749,2046.8176508,61.1,15.6,289.8,2232258.5359992,-937213.0549252001,-1.0,497.55967967424635,159778.00943009855,159778.00943009855,293.2758756514023,0.07417263893530225,3.90919568587414,89.60000000000001,0.3461142268482566
1306893659.02,7.4383366,3.1742999,2078.41214,61.1,15.6,290.7,2232112.11211,-937183.2320896,-1.0,498.3869801911604,145282.031119523,145282.031119523,294.04346071452875,0.07326419392909159,3.876457407188638,89.0,0.34684745082026014
1306893659.23,7.4378064,3.1744341,2110.728414,61.1,15.6,291.6,2231962.83389,-937150.3252643999,-1.0,509.63348515238533,145173.80973907094,145173.80973907094,295.66294560453247,0.07327669744239695,3.882957283591172,90.6,0.34758343069777553
1306893659.44,7.4373065,3.1745675,2141.3386511999997,61.1,15.6,292.5,2231821.75777,-937116.7950796,-1.0,483.39360692226114,144586.01688552147,144586.01688552147,294.0970487212993,0.07333342124309075,3.872298368412723,91.2,0.34831856849305104
1306893659.65,7.4367902,3.1747122,2173.0971824,61.1,15.6,293.4,2231675.76039,-937079.6887792,-1.0,501.9200722054095,131820.99535231307,131820.99535231307,295.55950927493114,0.07271046226521756,3.9238411542467175,89.6,0.3490549311352208
1306893659.86,7.4362821,3.1748617,2204.4948212,61.1,15.6,294.3,2231531.8299392,-937040.5155496,-1.0,496.8526258681233,126110.21066488694,126110.21066488694,296.9113870315832,0.0751376875624292,3.941609770509079,90.4,0.34979305449480086
1306893660.07,7.4357631,3.1750218,2236.7782868,61.1,15.6,295.2,2231384.58584,-936997.8646296,-1.0,510.42395485302154,125951.93646437877,125951.93646437877,296.3631386223968,0.07418781858106688,3.9259876986262197,91.1,0.3505311778543809
1306893660.28,7.4352576,3.1751851,2268.4055844,61.1,15.6,296.2,2231240.6553892,-936953.5732896,-1.0,501.2437239747037,118233.91262808083,118233.91262808083,297.516435019572,0.07173848616364416,3.9055257647111405,91.0,0.35127175090774926
1306893660.49,7.4347631,3.175352,2299.540756,61.1,15.6,297.0,2231099.7761195996,-936907.6415296,-1.0,493.1010609974987,122636.53728993193,122636.53728993193,299.5317688595942,0.07241342784234402,3.8103549074526017,91.00000000000001,0.35200880252629685
1306893660.7,7.4342609,3.1755291,2331.364904,61.1,15.6,298.0,2230956.2393695996,-936858.3305044,-1.0,504.83559143044255,121809.40509227534,121809.40509227534,299.6571311394351,0.07204756661311126,3.763757538476202,89.8,0.3527464665682916
1306893660.91,7.4337794,3.175706,2362.1063748,61.1,15.6,298.9,2230818.4440896,-936808.2976944,-1.0,487.522759549208,120730.43441164886,120730.43441164886,300.6421590229235,0.07143870601387638,3.656440111409499,89.10000000000001,0.3534821402340835
1306893661.12,7.4332999,3.1758895,2392.9462708,61.1,15.6,299.8,2230680.84566,-936755.9026796,-1.0,489.4802414828564,112144.76569826927,112144.76569826927,301.9932792801845,0.07265812447580518,3.5658693146502496,90.2,0.35421605318246485
1306893661.33,7.4328088,3.176085,2424.7704188000002,61.1,15.6,300.7,2230539.76954,-936699.4066147999,-1.0,505.0157763314944,105616.8584406752,105616.8584406752,302.72576312751335,0.07495229573501189,3.4727418429538814,89.10000000000001,0.3549488178368831
1306893661.54,7.4323363,3.1762808,2455.6431232,61.1,15.6,301.7,2230403.61468,-936642.2871904,-1.0,490.51931322275374,100385.81793372665,100385.81793372665,303.1240069838976,0.07478573948254189,3.3961738551283656,89.9,0.35568219491474834
1306893661.75,7.4318551,3.176488,2487.3360376,61.2,15.6,302.5,2230264.6054892,-936581.2963747999,-1.0,504.1047067804345,95511.95698015312,95511.95698015312,302.5131313654572,0.07700789347449023,3.3220629162864994,91.50000000000001,0.3564154188867519
1306893661.96,7.4313968,3.1766931,2517.8150412,61.2,15.6,303.5,2230131.9283196,-936520.4039843999,-1.0,484.66194184313736,94226.74788619245,94226.74788619245,303.7951316798654,0.07413470794388898,3.3257559834037447,90.70000000000002,0.3571464993766906
1306893662.17,7.430939,3.1769055,2548.5565119999997,61.2,15.6,304.4,2229999.0542996,-936456.72288,-1.0,489.0160990606644,96599.38805231276,96599.38805231276,304.8994736149479,0.0747238694485367,3.396750466576643,91.80000000000001,0.3578739818788778
1306893662.38,7.4304712,3.1771308,2580.2494264,61.2,15.6,305.3,2229862.8994396,-936388.7438752,-1.0,504.869482759883,92764.55183812224,92764.55183812224,305.3242972620942,0.07590515580035015,3.4351753910486935,91.30000000000003,0.35860161748692676
1306893662.59,7.4300259,3.1773531,2610.72843,61.2,15.6,306.2,2229733.1094092,-936321.0929543999,-1.0,485.4166839860475,90250.5199142113,90250.5199142113,303.09363947015174,0.07465583347524209,3.513834712261625,89.10000000000001,0.35932772203635815
1306893662.8,7.4295859,3.1775808,2641.1746252,61.2,15.6,307.2,2229604.5332895997,-936251.3751043999,-1.0,484.9243072151252,86402.5872750497,86402.5872750497,302.1237598641107,0.07522074430255088,3.4863919186196353,90.0,0.3600506113626924
1306893663.01,7.4291406,3.1778195,2672.3426052,61.2,15.6,308.1,2229473.9230492,-936177.85148,-1.0,496.7672748592203,78676.47012090287,78676.47012090287,301.2912258566896,0.0742350967841745,3.515629611326951,90.1,0.36077449587712807
1306893663.22,7.4286969,3.1780659,2703.740244,61.2,15.6,309.1,2229343.5096592,-936101.3750996,-1.0,500.89329102508776,78267.65893045999,78267.65893045999,300.06441045608494,0.07279624087386262,3.6104666534593464,88.6,0.3614996817913888
1306893663.43,7.428267,3.1783131,2734.5473316000002,61.2,15.6,309.9,2229216.9676604,-936024.1769343999,-1.0,490.96405617571844,78110.19796411057,78110.19796411057,297.86892297749114,0.07215130632224089,3.7278915741661423,89.7,0.36222249456479205
1306893663.64,7.4278388,3.1785681,2765.6168864,61.2,15.6,310.9,2229090.2616196,-935944.09163,-1.0,496.2787906783789,72428.49888996694,72428.49888996694,298.5446437460299,0.07463210128042418,3.7954645744055133,88.80000000000001,0.36294576665578077
1306893663.85,7.4274302,3.1788198,2795.6365724,61.2,15.6,311.8,2228969.2642404004,-935864.7281104,-1.0,478.9366575044934,76909.09388606972,76909.09388606972,297.9467201122011,0.07588591959631406,3.8916837585304234,88.7,0.3636651345472942
1306893664.06,7.4270193,3.1790815,2826.2140012,61.2,15.6,312.8,2228847.0529504004,-935781.69005,-1.0,488.852342381582,69900.80040390405,69900.80040390405,295.42993527695273,0.07895447257377808,3.871203821232169,90.9,0.36438473209760047
1306893664.27,7.4266085,3.1793522,2857.2179392,61.2,15.6,313.7,2228724.64481,-935695.3711496,-1.0,495.42829580947983,61956.69250999451,61956.69250999451,293.0451761198118,0.07956502796427883,3.9092033819189598,89.1,0.36510494207135374
1306893664.48,7.4262094,3.1796242,2887.795368,61.2,15.6,314.7,2228605.3206592,-935608.2320392,-1.0,488.55469080644207,60816.429141829685,60816.429141829685,292.95768672781327,0.07922541014919349,3.9606968078339597,89.80000000000001,0.365822549245457
1306893664.69,7.4258126,3.1799038,2918.635264,61.2,15.6,315.5,2228486.3902092,-935518.2057896,-1.0,493.0461845605045,54554.34318036261,54554.34318036261,295.1411496578251,0.0814221004157388,3.8841457041309835,91.60000000000001,0.36654099850179994
1306893664.9,7.4254183,3.1801913,2949.7376272,61.2,15.6,316.5,2228367.6566096,-935425.3252092,-1.0,498.1155241855079,51410.84203264077,51410.84203264077,296.4338289735076,0.07962059143427241,3.8900781348691753,92.60000000000001,0.3672609788167606
1306893665.11,7.4250448,3.1804727,2979.6916964,61.2,15.6,317.4,2228254.8613304,-935333.9538152001,-1.0,479.45194392148744,54028.30885760606,54028.30885760606,297.435938256755,0.08061399013704758,3.948502427691372,89.80000000000001,0.36797812667327856
1306893665.32,7.4246561,3.1807756,3011.3846108,61.2,15.6,318.4,2228137.1775995996,-935235.2333396,-1.0,507.2963644229524,50944.14231381917,50944.14231381917,297.467424489856,0.08026789865599326,3.8944934424949222,91.4,0.3686959635061744
1306893665.53,7.4242916,3.1810694,3041.6011472,61.2,15.6,319.3,2228026.2523992,-935139.0719192,-1.0,484.55490316202076,50923.716695348354,50923.716695348354,299.4170389114365,0.08134518416808494,3.8853114817804926,92.39999999999999,0.3694124223863144
1306893665.74,7.4239318,3.1813692,3071.9817256,61.2,15.6,320.3,2227916.5411095996,-935040.6467192,-1.0,486.3794618255429,48947.193126922306,48947.193126922306,297.6643009029122,0.08018124712927557,3.855833258020991,92.7,0.3701272736549058
1306893665.95,7.4235785,3.1816735,3102.3294956,61.2,15.6,321.2,2227808.2733895998,-934940.2530152001,-1.0,487.04064857447725,41905.96082069182,41905.96082069182,298.5080013722179,0.0778334171774343,3.733141431784431,92.9,0.37084289045280605
1306893666.16,7.4232235,3.1819898,3133.4318588,61.2,15.6,322.1,2227699.1854596,-934835.6926443999,-1.0,498.37711158727234,39229.78608479125,39229.78608479125,298.5809444933004,0.07567722511011804,3.6813543532957853,91.2,0.3715597320976005
1306893666.37,7.422882,3.1823046,3163.9108624,61.2,15.6,323.0,2227593.7720704,-934731.1978904,-1.0,489.3113773530019,37945.806320019685,37945.806320019685,299.35223490540915,0.07728396288479127,3.6795900636873595,93.80000000000001,0.3722753488955008
1306893666.58,7.4225506,3.1826206,3194.1273988000003,61.2,15.6,324.0,2227491.04897,-934625.9157347999,-1.0,484.74789759267605,33719.585752434425,33719.585752434425,296.9116290630584,0.07558626044529561,3.5893339624330656,92.60000000000002,0.37299012361116124
1306893666.79,7.4222198,3.182947,3224.901678,61.2,15.6,324.9,2227387.8993604,-934516.92623,-1.0,494.42212545108947,32612.102752379033,32612.102752379033,295.2771838980075,0.07720941752567498,3.627500047175636,93.4,0.37370474522096003
1306893667.0,7.4219007,3.1832728,3255.2166396000002,61.2,15.6,325.9,2227288.2602496,-934407.7398747999,-1.0,486.8261365021305,33144.66485756608,33144.66485756608,295.9938290282491,0.07931205870390308,3.728213784552764,94.0,0.3744175295604177
1306893667.21,7.4215739,3.1836186,3287.0079792,61.2,15.6,326.8,2227185.5371492,-934291.4669052,-1.0,510.97457822669895,30396.37406579352,30396.37406579352,294.79586896151545,0.07934685136822649,3.6388368409008662,95.99999999999999,0.3751346008640047
1306893667.42,7.4212724,3.1839493,3317.0276652,61.2,15.6,327.8,2227090.1631304002,-934179.9183452001,-1.0,483.0101552843044,31150.487148966666,31150.487148966666,295.1596986627452,0.07874359733186478,3.616393174195026,93.70000000000002,0.3758477679681167
1306893667.63,7.4209765,3.1842853,3347.1785848,61.2,15.6,328.6,2226996.2654895997,-934066.3356643999,-1.0,484.8870561670774,30660.971453497306,30660.971453497306,292.75424021664503,0.07622559325364943,3.5695304631658638,90.5,0.37656078196636683
1306893667.84,7.4206825,3.1846316,3377.8872472,61.2,15.6,329.6,2226902.5646992,-933948.9472092,-1.0,494.10844354285405,30621.728938305325,30621.728938305325,295.4980061973975,0.0766243251647838,3.5146687717928824,87.60000000000001,0.37727456149392596
1306893668.26,7.4201135,3.1853401,3439.7638896000003,61.2,15.6,331.5,2226719.23136,-933707.6742356,-1.0,498.23569771838726,30671.861947005116,30671.861947005116,296.4458178823554,0.07599316346342092,3.5148503650821947,86.50000000000001,0.37806190838806414
1306893668.68,7.4195886,3.1860456,3500.1313456,61.2,15.6,333.4,2226548.2339792,-933466.23722,-1.0,486.0758245505746,32288.731839357846,32288.731839357846,296.7298621668056,0.0760318621398408,3.5350410374840666,89.00000000000003,0.37891754049655063
1306893669.1,7.4190852,3.1867777,3561.6142871999996,61.2,15.6,335.3,2226381.9281996,-933214.43275,-1.0,495.5752299606475,35150.73135796513,35150.73135796513,297.1481590983329,0.07438726024940631,3.5063186449467745,86.70000000000002,0.37984551512472203
1306893669.52,7.4186208,3.1875116,3622.211402,61.2,15.6,337.1,2226226.0882996,-932960.7910096,-1.0,488.5491799255504,35873.84559349419,35873.84559349419,297.8237942612211,0.07433703713570862,3.458493765899156,89.50000000000001,0.38084437776689184
1306893669.94,7.4181826,3.1882674,3683.5959184,61.2,15.6,339.0,2226076.6132292,-932698.3238096,-1.0,495.4744522390693,38351.56210432433,38351.56210432433,297.85803486243896,0.07141055879183221,3.5067379664445,88.5,0.38191466429357596
1306893670.36,7.4177844,3.1890211,3743.9633744000002,61.2,15.6,340.9,2225937.9977392,-932435.4301004,-1.0,487.19132368910465,42884.17790446509,42884.17790446509,295.6749662463213,0.07071806454532784,3.4695335731351813,86.69999999999999,0.3830550733049495
1306893670.79,7.4174073,3.1898102,3806.3321428000004,61.2,15.6,342.8,2225803.6801496,-932159.0193304,-1.0,491.853606430894,44686.11609755693,44686.11609755693,296.4212162585149,0.06776277797540266,3.583622381600463,85.69999999999999,0.3842668296479067
1306893671.21,7.4170725,3.1905918,3867.3885752,61.2,15.6,344.7,2225681.0423504002,-931884.05213,-1.0,493.1030313761577,50483.53040120119,50483.53040120119,296.0170591282412,0.06933984911321989,3.6748274365763627,87.3,0.3855510050634798
1306893671.63,7.4167708,3.1913852,3928.7074748,61.2,15.6,346.6,2225567.0331604,-931603.8355856001,-1.0,495.2550821089274,56516.211161199804,56516.211161199804,298.1852588411561,0.0711083107136524,3.721077327021062,88.0,0.38690790576339223
1306893672.05,7.4165083,3.1921726,3989.0093139999994,61.2,15.6,348.4,2225463.6867004,-931324.5704847999,-1.0,487.1565908811605,60926.765781060094,60926.765781060094,297.74408760238595,0.07076582132012837,3.7448331806890756,88.4,0.3883338572069618
1306893672.47,7.416275,3.1929853,4050.7219144,61.2,15.6,350.3,2225367.52528,-931035.13478,-1.0,498.8711642234482,66102.07076447831,66102.07076447831,298.04006000088395,0.07122004099451663,3.8653881365193983,90.0,0.3897594258858769
1306893672.89,7.4160818,3.1937862,4111.1549872,61.2,15.6,352.2,2225282.6499492,-930748.8814899999,-1.0,488.0356975385813,70582.62768550024,70582.62768550024,297.5312778329926,0.07397211282076512,3.8411027744733524,89.0,0.3911851476706538
1306893673.31,7.4159205,3.1946089,4172.867587600001,61.2,15.6,354.2,2225205.3205504003,-930453.7043152001,-1.0,498.6980415046516,76000.58101256678,76000.58101256678,298.23748792274546,0.07599415059293889,3.862425541970117,90.89999999999999,0.39261140532594696
1306893673.73,7.4157993,3.195408,4232.5460672,61.2,15.6,356.0,2225140.1302596,-930165.9090304,-1.0,481.849832680559,81015.42467483977,81015.42467483977,298.7997392993591,0.07730528648135493,3.9737607336365923,88.6,0.39403551949917526
1306893674.15,7.4157117,3.1962213,4293.0775652,61.2,15.7,357.9,2225083.1092604003,-929871.8801496,-1.0,488.97849999598634,86350.06918591152,86350.06918591152,299.8724452111798,0.07877019274972456,3.926618289688586,87.7,0.3954576432962007
1306893674.57,7.415659,3.1970518,4354.7573572,61.2,15.7,359.8,2225035.1433796,-929570.5349956001,-1.0,498.1233829786929,91703.64094375052,91703.64094375052,299.74176619922105,0.07616400083885315,3.8794751275273915,88.60000000000001,0.39688282921046136
1306893674.99,7.4156434,3.1978772,4416.01064,61.2,15.7,1.7,2224997.4137195996,-929270.04286,-1.0,494.17342614858245,95215.91702186514,95215.91702186514,301.1639502293718,0.07774801258799306,3.8441922937245843,87.60000000000001,0.398305412325072
1306893675.41,7.4156638,3.1986905,4476.378096,61.2,15.7,3.5,2224969.9202804,-928972.7331392,-1.0,486.9248505472589,98899.91000037812,98899.91000037812,300.946555455162,0.07690540793697334,3.801698390141321,88.70000000000002,0.3997263878281342
1306893675.83,7.4157202,3.1995065,4537.040827600001,61.2,15.7,5.4,2224952.1053192,-928673.3564892,-1.0,488.97704695436494,102262.62570418086,102262.62570418086,300.0508278352292,0.07419663802231433,3.6958747199439914,91.2,0.40114583227257866
1306893676.25,7.4158115,3.2003126,4597.113008,61.2,15.7,7.3,2224944.1000695997,-928376.6373196,-1.0,483.74119803974946,104953.5318898765,104953.5318898765,299.41605875563465,0.07511757141483004,3.7659854796163437,92.30000000000001,0.4025647408465069
1306893676.67,7.4159421,3.2011388,4658.9240336,61.2,15.7,9.2,2224945.93734,-928071.3223492,-1.0,497.6748149799517,108612.63827302656,108612.63827302656,297.2215484606273,0.0770432990127189,3.7818874719184334,90.00000000000001,0.40398387907922784
1306893677.09,7.4161054,3.2019417,4719.2586812,61.2,15.7,11.1,2224957.6171304,-927773.5861192,-1.0,485.3647403852959,111890.28467398699,111890.28467398699,299.9019363253054,0.07508480775213937,3.725895865956493,88.2,0.40540278765315607
1306893677.51,7.416306,3.2027473,4780.1510716,61.2,15.7,13.0,2224979.1722492,-927473.6845347999,-1.0,489.73538687593134,113612.37815897669,113612.37815897669,300.0846727408383,0.07178303677228895,3.648428527407918,87.7,0.4068197824038122
1306893677.93,7.4165387,3.2035356,4840.1904435999995,61.2,15.7,14.9,2225010.3402292,-927179.1307196,-1.0,482.2222505783339,115760.9704799998,115760.9704799998,299.6687149440715,0.07346656362618141,3.602805350341638,87.9,0.4082376192367081
1306893678.35,7.4168113,3.2043323,4901.4109180000005,61.2,15.7,16.8,2225051.74443,-926880.2461956001,-1.0,491.31747221874684,117144.33003448525,117144.33003448525,298.2077629585639,0.07433537721134406,3.5512026996990067,87.80000000000001,0.4096570636811525
1306893678.77,7.4171186,3.2051194,4962.434542,61.2,15.7,18.6,2225103.2208096,-926583.85511,-1.0,489.70663817315636,117097.08284293626,117097.08284293626,298.88937911710633,0.07536119766815594,3.6394818045502335,88.00000000000001,0.4110749770669793
1306893679.19,7.417461,3.2058978,5023.490974400001,61.2,15.7,20.5,2225164.3100504,-926289.5965703999,-1.0,489.1642520584897,117801.27756260475,117801.27756260475,296.74433961210315,0.07618795050581852,3.551533239767175,88.20000000000002,0.41249243113522077
1306893679.61,7.4178352,3.2066613,5084.0880892000005,61.2,15.7,22.4,2225234.8481104,-925999.86559,-1.0,485.217967848579,118146.55190244885,118146.55190244885,297.4740062911926,0.0753800018115776,3.590079548436665,85.9,0.41391042107397846
1306893680.25,7.4184676,3.2078003,5176.0500344,61.2,15.7,25.3,2225360.14339,-925565.2527152001,-1.0,482.8881979112296,118024.89264603677,118024.89264603677,295.98956946989625,0.07589236338538603,3.6153559989611095,86.5,0.41540144250879907
1306893680.67,7.4189316,3.2085451,5237.368934,61.2,15.7,27.2,2225455.4846004,-925279.6227847999,-1.0,489.9646758263447,118358.28835028189,118358.28835028189,296.8898871183483,0.07252556297512702,3.634134320066357,85.0,0.4168953729549933
1306893681.09,7.419423,3.2092687,5297.9660488,61.2,15.7,29.1,2225559.45442,-925000.84981,-1.0,483.97534086483716,116747.18708081928,116747.18708081928,298.12937790234537,0.07003499313854704,3.5935044410222514,86.5,0.4183864709427448
1306893681.51,7.4199515,3.2099857,5359.1537148,61.2,15.7,31.0,2225673.46361,-924723.3235543999,-1.0,488.1167654848763,116640.28274704823,116640.28274704823,296.4972492643945,0.07187953803549924,3.6679282900720414,87.30000000000001,0.41987955930669935
1306893681.94,7.4205189,3.2106967,5421.030357199999,61.2,15.7,33.0,2225798.5620392,-924446.9127843999,-1.0,481.98999229955956,114430.0473379132,114430.0473379132,296.0850794268227,0.07183666453222737,3.6770873464605653,88.0,0.42137494425858035
1306893682.36,7.4211026,3.2113746,5481.3321964,61.2,15.7,34.8,2225929.1722795996,-924181.9849543999,-1.0,480.39181294742525,112861.62459836723,112861.62459836723,296.27745351846113,0.07115016388979475,3.6291077873088518,90.4,0.4228709416339085
1306893682.79,7.4217403,3.2120623,5543.9306236,61.2,15.7,36.7,2226074.1525992,-923911.9062056001,-1.0,487.07500647081366,110476.05261246607,110476.05261246607,297.6094865132909,0.0717691554686156,3.64228741563527,92.3,0.4243701542323336
1306893683.21,7.4223858,3.2127095,5604.3636964,61.2,15.7,38.6,2226222.8074596,-923656.3287696,-1.0,480.91168835397826,107359.00178039748,107359.00178039748,298.37123004968146,0.07051902515816613,3.6008119406154564,90.10000000000001,0.4258679888780029
1306893683.63,7.4230631,3.2133428,5665.0920448,61.2,15.7,40.5,2226380.6814804003,-923404.8195752001,-1.0,483.07808754557743,104412.67567178413,104412.67567178413,298.3113521300951,0.0686831695054445,3.6110499472298603,90.7,0.42736505799436336
1306893684.05,7.4237754,3.213964,5726.4109444000005,61.2,15.7,42.4,2226548.62768,-923156.7224543999,-1.0,487.50908888337807,101302.15821905347,101302.15821905347,297.18279654823493,0.06790255619218788,3.6208831416071483,89.39999999999999,0.42886381127520323
1306893684.47,7.4245085,3.2145607,5787.1392928000005,61.2,15.7,44.3,2226723.1355596,-922916.8930504,-1.0,482.5935079252059,96941.90401187577,96941.90401187577,297.5313898725427,0.07013246310097347,3.622068238508562,87.3,0.43028968616584196
1306893684.89,7.4252552,3.2151287,5846.8505808,61.2,15.9,46.2,2226902.5646992,-922687.1358252001,-1.0,474.23665890999683,92792.18888632738,92792.18888632738,296.76474622797383,0.07104247211508356,3.5488717107580503,88.2,0.43171180996286734
1306893685.31,7.4260475,3.2156919,5908.136672,61.2,15.9,48.1,2227094.2641804,-922457.8051092,-1.0,486.5525744315784,89830.60032763758,89830.60032763758,296.90565576298616,0.07081348399062679,3.565775962724491,89.20000000000002,0.4331355413714413
1306893685.74,7.426869,3.2162367,5969.7180388,61.2,15.9,50.1,2227295.01878,-922234.1830547999,-1.0,477.7131922819508,84980.4644940152,84980.4644940152,297.51563693788347,0.07027786504535287,3.615660118685975,89.4,0.4345601914151858
1306893686.16,7.4277129,3.2167587,6031.168172,61.2,15.9,51.9,2227502.53191,-922018.2709743999,-1.0,487.66893689873723,81885.61952218208,81885.61952218208,297.5362597437822,0.07114757104807243,3.6545304387221766,89.19999999999999,0.4359838462708288
1306893686.58,7.4285741,3.217255,6092.158987600001,61.1,15.8,53.8,2227715.78651,-921811.1515452,-1.0,484.1418143869949,78050.61539310133,78050.61539310133,297.51822835839465,0.06979846412809802,3.6349006647198348,88.89999999999999,0.4374091087380204
1306893687.0,7.4294463,3.2177241,6152.3295932,58.8,14.9,55.6,2227933.14216,-921613.6777856001,-1.0,478.22725393707714,72830.56275502003,72830.56275502003,297.9031507674331,0.06681458467965448,3.6930608246121888,87.10000000000001,0.43882870628832665
1306893687.42,7.4303481,3.2181826,6212.5658156,52.5,13.5,56.7,2228159.1264192,-921419.1895904,-1.0,485.471190524265,69136.5194607398,69136.5194607398,296.2236197858547,0.06808708501587672,3.681071963075019,90.10000000000001,0.44024784452104754
1306893687.84,7.4312579,3.2186273,6271.0631928,45.8,13.2,57.6,2228387.5385,-921229.4258047999,-1.0,483.0676761731682,65181.13104428341,65181.13104428341,296.04943961132096,0.06812749415829676,3.7735668483276874,91.30000000000001,0.44166177715446836
1306893688.26,7.4321624,3.2190549,6327.428024,40.1,13.1,58.4,2228615.3600295996,-921046.0924656001,-1.0,475.2417341571941,61130.20745571521,61130.20745571521,296.815551296927,0.07115481090141201,3.7001128689276865,93.50000000000001,0.44306415029532575
1306893688.68,7.4330819,3.2194762,6383.6616216,34.1,13.1,59.2,2228847.4794595996,-920864.6292052001,-1.0,478.7683324064383,58930.02442952093,58930.02442952093,297.2081643087196,0.06992850175025085,3.777227142409831,92.3,0.44445603568465203
1306893689.1,7.4340241,3.219896,6440.617004,28.2,13.1,59.8,2229085.9637192,-920682.9690944,-1.0,487.26340233960667,57001.67226285294,57001.67226285294,296.85439392832865,0.0691808445816635,3.840823817392273,93.0,0.44584149062778416
1306893689.52,7.4349721,3.2203083,6497.7364284,23.0,13.1,60.3,2229326.0555904,-920503.9336556001,-1.0,486.883322039083,54280.64459539613,54280.64459539613,295.2566137188764,0.07005390070649457,3.8462847470363566,93.1,0.44721722334869407
1306893689.94,7.43592,3.2207124,6554.9214696,18.3,13.2,60.8,2229566.6067792,-920327.8181643999,-1.0,484.7632766622247,53972.95132511313,53972.95132511313,296.30175457906506,0.06907103911812039,3.8114327975886093,91.89999999999999,0.4485826979768656
1306893690.36,7.4368597,3.2211066,6611.9096604,14.1,13.2,61.1,2229805.2878892,-920155.5740643999,-1.0,499.14790578533916,52937.48127517852,52937.48127517852,297.4569857526222,0.06926847563340505,3.761246434371442,89.60000000000001,0.4499377614064369
1306893690.78,7.4378106,3.2215007,6669.9805284,10.4,13.2,61.3,2230047.0201804,-919983.0018804,-1.0,503.7334524706866,53480.71538240661,53480.71538240661,297.951729219197,0.06834669905688634,3.8404869900264917,88.10000000000001,0.4512860116251596
1306893691.2,7.4387466,3.2218856,6727.657695600001,7.4,13.2,61.3,2230285.1107392,-919814.2682792,-1.0,495.33359746015714,55878.19331744892,55878.19331744892,298.2166914066855,0.06758206915883391,3.7390728114406127,89.80000000000001,0.45262844382113504
1306893691.62,7.4397092,3.2222813,6787.6314508,5.1,13.5,61.3,2230529.92702,-919640.77746,-1.0,509.17271971208646,59447.62254789764,59447.62254789764,299.67506286788114,0.06868620177331097,3.7232482384969887,86.1,0.4539702635936635
1306893692.04,7.440646,3.2226669,6846.5553371999995,3.6,13.5,61.3,2230768.2144292,-919471.8142,-1.0,496.1875927566774,61812.15167118202,61812.15167118202,300.90047201262735,0.06871380714469862,3.6575916594489684,84.0,0.4553130785542935
1306893692.46,7.4416071,3.2230627,6907.513344399999,2.7,13.5,61.3,2231012.6370092,-919298.3561892,-1.0,508.9388479469452,65206.529154366384,65206.529154366384,300.4059660524231,0.06710702960934663,3.6499404683442904,82.5,0.4566666109252471
1306893692.88,7.4425497,3.2234508,6967.651141599999,1.9,13.5,61.3,2231252.3351796,-919128.2446352001,-1.0,499.46073019710605,66242.63337643481,66242.63337643481,300.9425099964328,0.0679025270464272,3.5345755282525837,85.19999999999999,0.4580292530949759
1306893693.3,7.4434808,3.2238342,7027.3624296,1.4,13.7,61.3,2231489.1790192,-918960.2000104,-1.0,493.71532868221277,66612.81078301034,66612.81078301034,300.6025619684887,0.06918742756870272,3.4983907098906553,84.10000000000001,0.4593983257108989
1306893693.73,7.4444502,3.2242332,7089.7640064,1.0,13.7,61.3,2231735.63572,-918785.2000047999,-1.0,501.8071747209112,67615.69146433915,67615.69146433915,301.1084548915984,0.06808322303746185,3.3965359254998178,81.7,0.46077972334869416
1306893694.15,7.4454149,3.2246303,7152.0999664,0.7,13.7,61.3,2231981.0753604,-918611.2170596,-1.0,511.181705365204,67512.42487412375,67512.42487412375,300.4486867989999,0.06761236106753912,3.3878235278702307,84.50000000000001,0.46217313979663815
1306893694.57,7.4463572,3.2250181,7213.1235904,0.5,13.7,61.3,2232220.5766804,-918441.1055056001,-1.0,499.48874491219004,66927.38636146074,66927.38636146074,299.31220392049835,0.06931889924388197,3.40069634291247,85.00000000000001,0.4635759722550808
1306893696.25,7.4501333,3.2265721,7458.8585064,0.1,13.7,61.3,2233180.84574,-917759.8390796,-1.0,500.54390446249363,67296.43894137672,67296.43894137672,298.73545597564464,0.07195165355797832,3.4074563642642866,84.5,0.46541668747817794
1306893708.88,7.4786077,3.2382816,9323.2614532,0.1,13.7,61.3,2240420.6425595996,-912624.0777604,-1.0,502.0489304147891,66850.15948809036,66850.15948809036,297.98533140722,0.07300693076375228,3.5086838778946112,84.6,0.47147309605210624
1306893709.3,7.4795476,3.2386679,9384.84282,0.1,14.0,61.3,2240659.52052,-912454.6223743999,-1.0,498.25646966808495,65154.618130966745,65154.618130966745,298.9791012641336,0.07094253734782406,3.5209457773204247,87.3,0.4775332557196478
1306893726.11,7.5174519,3.2542312,11866.962322000001,0.1,14.2,61.3,2250293.0838204003,-905622.4699247999,-1.0,501.9032395333936,66638.48617359059,66638.48617359059,300.10684197722964,0.07095355271414984,3.606710516483672,90.9,0.48924753830932416
1306893753.02,7.5786137,3.2792049,15838.780034399999,0.1,14.4,61.3,2265832.1919292,-894638.7425392,-1.0,504.94149126694657,65935.02809505723,65935.02809505723,299.49174991694053,0.06992664970736617,3.7050185835897533,92.5,0.510087159919123
1306893753.44,7.5795706,3.2795927,15899.2131072,0.1,12.0,61.3,2266075.1709395996,-894467.9092004,-1.0,504.48339082174357,64190.76697388525,64190.76697388525,300.88471401774734,0.06921163932805949,3.80281600721301,92.20000000000002,0.5309274705052995
1306893753.86,7.580549,3.279989,15957.3167836,0.1,10.8,61.3,2266323.8914199998,-894293.2044704,-1.0,514.8070354159993,62359.93652016976,62359.93652016976,302.14906806292464,0.06823613053541161,3.859088169323241,92.60000000000002,0.5517640299978629
1306893754.28,7.5815217,3.280383,16010.4992,0.1,10.0,61.3,2266570.9714804003,-894119.6480344,-1.0,510.1988448093958,57844.54666638248,57844.54666638248,302.03592628900407,0.0714051802662687,3.972057421308203,93.70000000000002,0.572579078116848
1306893754.7,7.5825073,3.280782,16059.777416800001,0.1,9.4,61.3,2266821.3651892,-893943.6965852,-1.0,515.7201277319776,52570.007217875616,52570.007217875616,300.5621508414995,0.07312637836556894,3.925707416393135,91.6,0.5933636581693414
1306893755.12,7.5834728,3.2811728,16103.839097999999,0.1,8.8,61.3,2267066.8048296,-893771.4524852001,-1.0,504.53348263386624,48597.8774647897,48597.8774647897,300.85900013237415,0.07330227687175475,3.9262274594439273,93.89999999999999,0.6141086603565681
1306893755.54,7.584467,3.2815752,16145.1448736,0.1,8.2,61.3,2267319.2326592,-893594.1886999999,-1.0,517.7649472786778,46697.47401822746,46697.47401822746,300.9393263157736,0.07177486312755017,3.912159165483569,96.19999999999999,0.6343766612314587
1306893755.96,7.5854498,3.2819728,16182.2183656,0.1,7.7,61.3,2267568.9702,-893418.8606104,-1.0,511.5768009323048,45229.33384629119,45229.33384629119,302.2503728341949,0.07284313472785361,3.948874329339819,95.19999999999999,0.6503808935149233
1306893756.38,7.5864445,3.2823752,16216.2734848,0.1,7.3,61.3,2267821.7917304,-893241.4984,-1.0,516.9837194003148,46131.11563048112,46131.11563048112,300.34779710734085,0.07631432295101173,3.9811042946279014,95.6,0.6663208978893764
1306893756.8,7.5874295,3.2827735,16246.7852968,0.1,6.8,61.3,2268071.9557804,-893065.8750347999,-1.0,511.2716370462553,46942.47869867641,46942.47869867641,298.8017026113263,0.07722668197343074,3.926030574894475,92.9,0.6765404845035498
1306893757.22,7.5884257,3.2831764,16274.705245199999,0.1,6.4,61.3,2268325.20382,-892888.2831656,-1.0,516.7915472912354,47877.71890906663,47877.71890906663,300.97981730960095,0.0787051534668539,3.785803541023757,92.69999999999999,0.6775576432962008
1306893757.64,7.5894235,3.2835797,16299.9020964,0.1,6.1,61.3,2268578.64871,-892710.4288292,-1.0,516.9273942632168,48499.78597653094,48499.78597653094,299.5113888231371,0.0798518376240034,3.7559579110664423,91.19999999999999,0.6784925842410826
1306893758.06,7.5904248,3.2839845,16322.638317600002,0.1,5.8,61.3,2268833.1106604002,-892531.9183247999,-1.0,518.5853384252866,48788.584744831445,48788.584744831445,300.00473197279354,0.08195300472065085,3.6334529423041073,91.9,0.679345001126472
1306893758.48,7.5914129,3.2843839,16342.848292,0.1,5.5,61.3,2269084.0949204,-892355.8684504,-1.0,511.40734351735955,49304.44845183279,49304.44845183279,300.0121036230971,0.07979443753506807,3.5762388123887874,92.2,0.6801204823163232
1306893758.9,7.5924136,3.2847883,16361.1553792,0.1,5.2,61.3,2269338.3600204,-892177.5876047999,-1.0,517.6479329893774,49936.50745869722,49936.50745869722,302.1040115212338,0.07898565473927478,3.6465582319046588,93.5,0.6808236975394203
1306893759.32,7.5934269,3.2851977,16377.756429599998,0.1,5.0,61.3,2269595.9059604,-891997.0429796,-1.0,523.958768435939,50952.93660378135,50952.93660378135,300.9043509344439,0.07606768945711788,3.6223200699778637,91.7,0.6814628379593678
1306893759.74,7.5944192,3.2855986,16392.2905508,0.1,4.8,61.3,2269847.9400892,-891820.1728952001,-1.0,513.0567029859878,50432.53455305413,50432.53455305413,302.4869589986455,0.0763531666334822,3.5567229124597493,91.0,0.6820395111877143
1306893760.16,7.5954094,3.2859986,16405.184252,0.1,4.6,61.3,2270099.5149004003,-891643.8277452001,-1.0,511.8421147508715,51930.64315515686,51930.64315515686,302.4771412049034,0.0770253207065033,3.4359136350227093,91.2,0.6825597649059995
1306893760.59,7.5964547,3.2864209,16417.2577432,0.1,4.4,61.3,2270365.06609,-891457.54165,-1.0,527.3583313113891,52234.26777995962,52234.26777995962,303.93160817082776,0.07400502091963942,3.4144355754826368,91.00000000000001,0.6830287281605927
1306893761.01,7.5974383,3.2868182,16427.329922,0.1,4.2,61.3,2270615.0332895997,-891282.3119856,-1.0,508.50036623825645,51415.60525427435,51415.60525427435,304.8758970845555,0.07516231520252,3.4269984315278608,93.5,0.6834499989392454
1306893761.43,7.5984459,3.2872251,16436.4506572,0.1,4.1,61.3,2270871.13566,-891102.9156543999,-1.0,520.4864698543886,53363.90562815504,53363.90562815504,302.13760013689114,0.07649806321971793,3.548236600149477,92.10000000000002,0.6838274048885016
1306893762.28,7.6004641,3.2880401,16451.5425212,0.1,3.8,61.3,2271383.76691,-890743.4340156001,-1.0,515.0437506197369,53315.81715819465,53315.81715819465,301.26829153363826,0.07408384327130227,3.48102079447606,93.39999999999999,0.6841812325350459
1306893762.7,7.6014603,3.2884423,16457.644883599998,0.1,3.7,61.3,2271636.8180992,-890565.97338,-1.0,514.5114450324744,52085.29744519356,52085.29744519356,299.9468720383452,0.07286280399496657,3.540287862619418,95.7,0.684496247845632
1306893764.4,7.6055161,3.2900797,16475.2958028,0.1,3.4,61.3,2272667.1987095997,-889843.6636456001,-1.0,517.4011269691055,53234.47750068209,53234.47750068209,300.2840872848332,0.07527731645617522,3.5705029622951505,95.30000000000001,0.6848052920276092
1306893765.25,7.6075509,3.2909011,16480.807614,0.1,3.3,61.3,2273184.12786,-889481.3604844,-1.0,519.0424658354073,53157.027064827525,53157.027064827525,299.3949584458748,0.07529157380769357,3.5990741869475773,93.70000000000002,0.6850844805665419
1306893781.67,7.6467507,3.3067115,16484.4493464,0.1,3.3,61.6,2283140.2633492,-882502.7841456,-1.0,517.529962130748,51672.765513094295,51672.765513094295,299.56287578348247,0.07520990748133517,3.6960055276787056,95.10000000000002,0.6853334306977754
1306893838.56,7.7826767,3.3613592,16484.4493464,0.1,3.3,61.7,2317627.4035604,-858328.603582,-1.0,517.4249987532153,52522.474469789704,52522.474469789704,299.05412510614957,0.07524916828754909,3.753693962011024,95.9,0.6855484678806276
1306893895.47,7.9188649,3.4158386,16484.4493464,0.1,3.3,61.8,2352125.6658192,-834145.9256428,-1.0,517.4151601214403,53107.89190955667,53107.89190955667,298.20901265660564,0.073285023176486,3.853510453576278,97.4,0.6857334197616426
1306894065.02,8.3258785,3.5770302,16484.4493464,0.1,3.3,62.1,2454900.4394492,-762097.5637571999,-1.0,517.4036858428067,52086.00615792933,52086.00615792933,297.8278334815534,0.07438015637107015,3.8124192906201064,94.80000000000001,0.6858902001640921
1306894147.62,8.5248543,3.6549502,16484.4493464,0.8,3.3,62.1,2504967.27176,-726995.6925552,-1.0,517.3983047362698,53280.371219614535,53280.371219614535,298.0617880293653,0.07439708336478378,3.7867088592217124,91.8,0.6860234788167606
1306894148.46,8.5268968,3.6557428,16482.9073516,23.7,3.3,62.6,2505480.72322,-726637.3264019999,-1.0,520.9078998335723,53142.69330217462,53142.69330217462,299.9637221621208,0.07356999873985098,3.739438144795274,91.6,0.6861318777668919
1306894149.3,8.5289478,3.6565103,16482.3496088,39.5,3.7,63.9,2505997.6523704003,-726287.8185168,-1.0,519.1571242247538,53109.68883038589,53109.68883038589,302.0950846389749,0.07471465451156513,3.8493901304381346,91.5,0.6862037609689915
1306894149.72,8.5299838,3.6568791,16481.791866,45.0,4.0,64.8,2506259.7258695997,-726118.1662804,-1.0,519.4628105537461,53110.12874437908,53110.12874437908,302.9334964416611,0.0762819566579059,3.8230555778468522,89.9,0.6862601039261219
1306894149.93,8.530511,3.6570608,16481.4309736,47.3,4.2,65.3,2506393.4200995998,-726034.0127344,-1.0,525.5518744174649,52699.84060240427,52699.84060240427,304.08316898058604,0.07501545594467895,3.8398895828289255,89.30000000000001,0.6862744193241972
1306894150.14,8.5310465,3.6572407,16481.0044644,49.6,4.3,65.8,2506529.1484504,-725950.2528892,-1.0,530.473451965721,50487.266513611634,50487.266513611634,302.88012241811634,0.07533663377875494,3.7547837192612303,91.5,0.6862748786417825
1306894150.35,8.5315777,3.6574144,16480.545146800003,51.5,4.5,66.4,2506664.28625,-725868.8224404,-1.0,524.8889184648399,47373.83599292511,47373.83599292511,303.37908498314533,0.07684139905664913,3.756074223835038,88.5,0.6862657688430075
1306894150.56,8.5320944,3.6575784,16480.0858292,53.4,4.7,67.1,2506795.9463592,-725791.4602332,-1.0,508.41755916602347,45941.67269195402,45941.67269195402,301.6427944435024,0.07867092738028125,3.7819013354048123,87.2,0.6862555873031999
1306894150.77,8.5326427,3.657747,16479.5280864,54.9,4.8,67.7,2506935.77576,-725711.4077371999,-1.0,535.7313277784829,48572.020404379204,48572.020404379204,299.8440780972323,0.07938008720352133,3.6729952742861363,86.0,0.6862441043635674
1306894151.19,8.5337194,3.6580606,16478.2813672,57.8,5.1,69.2,2507211.1694695996,-725560.4890972,-1.0,522.3752340934651,46299.01600938154,46299.01600938154,297.8405995632425,0.07843948574885774,3.661348851739575,89.30000000000001,0.6862297124125613
1306894151.4,8.5342738,3.6582125,16477.5923908,59.1,5.3,70.0,2507353.4595004003,-725486.243688,-1.0,533.6339058060572,48446.26862627214,48446.26862627214,297.3217721820077,0.07642802741042802,3.726292051546034,90.29999999999998,0.6862137128500065
1306894151.61,8.5348267,3.6583575,16476.870606,60.2,5.5,70.8,2507495.7823396,-725414.5901424,-1.0,529.8633617582506,47373.73765088711,47373.73765088711,298.2571174645496,0.07511845310072225,3.7329170049582507,90.5,0.6861996271107239
1306894152.03,8.5359552,3.6586304,16475.5910784,60.9,6.9,72.8,2507786.9568896,-725276.7292455999,-1.0,535.4542228439848,42456.234434102356,42456.234434102356,297.88802135420474,0.07421110457168509,3.6567292952200208,88.1,0.6861838572069618
1306894152.24,8.5365203,3.6587543,16475.2629944,60.4,7.1,73.9,2507933.3479704,-725212.3919732,-1.0,531.5644075354436,40012.639315451306,40012.639315451306,297.15386670786336,0.0714249708314884,3.7000225689989374,89.0,0.686168623173716
1306894152.87,8.5382376,3.6590796,16476.1488212,60.0,7.1,77.1,2508380.7889296,-725035.456272,-1.0,533.0149844174997,42082.2393815462,42082.2393815462,296.7656861628572,0.06960733427740101,3.58170241957021,90.9,0.6861562981518439
1306894153.29,8.5393907,3.6592567,16478.248558799998,60.3,7.1,79.2,2508683.0199104003,-724931.6833028,-1.0,530.8916499456009,44416.95250389304,44416.95250389304,296.6807947164006,0.07000226604415331,3.671655983530452,90.4,0.6861498677056497
1306894153.71,8.5405746,3.6594055,16481.4309736,60.1,7.1,81.2,2508995.1262196,-724837.2279192,-1.0,541.37371617729,50509.16820830059,50509.16820830059,295.53657888216185,0.06870953375574455,3.555166423854063,92.80000000000001,0.6861519346347835
1306894153.92,8.541162,3.6594672,16483.3666692,60.0,7.1,82.3,2509150.34276,-724794.7738496,-1.0,534.3721974734707,59108.430554032995,59108.430554032995,297.2037293375462,0.06563349384838342,3.5791571893965806,92.9,0.6861595899278718
1306894154.13,8.5417544,3.6595216,16485.564832,60.0,7.1,83.2,2509307.4293792,-724754.78041,-1.0,538.1344948230102,62945.688675483456,62945.688675483456,297.36864401154793,0.0675791695998053,3.583469897607605,94.80000000000001,0.6861736756671545
1306894154.34,8.5423405,3.6595678,16487.9598452,60.1,7.1,84.3,2509463.0396204,-724718.0678104,-1.0,530.8694504505514,67259.90258417687,67259.90258417687,299.29856080256377,0.06686874550325672,3.5592082004340195,91.80000000000001,0.686196258781765
1306894154.55,8.542934,3.6596069,16490.5845172,60.1,7.5,85.2,2509620.9464495997,-724683.6189904,-1.0,536.4414677712297,70634.62789720773,70634.62789720773,300.14580934395394,0.06954464459411082,3.4808222743083754,91.9,0.6862265737423949
1306894154.76,8.5435351,3.6596387,16493.4716564,60.1,7.5,86.2,2509781.2811004003,-724651.6308004,-1.0,542.447229655554,74745.91799557328,74745.91799557328,298.21046791409407,0.07049846531988319,3.47826548888416,91.7,0.6862653095254221
1306894155.18,8.544733,3.6596793,16499.7380608,60.1,7.5,88.2,2510101.9832104,-724596.1846044,-1.0,539.8428533985527,76044.8379295588,76044.8379295588,297.81513683362493,0.07171922106033586,3.461391587594302,93.2,0.6863216524825525
1306894155.39,8.5453324,3.6596883,16503.1501344,60.1,7.5,89.1,2510262.9740292,-724572.4969396,-1.0,539.7010968132147,77480.18910826548,77480.18910826548,297.59475544440824,0.07427271620962408,3.423531636484435,90.3,0.6863867224738036
1306894155.6,8.5459414,3.6596898,16506.791866800002,60.1,7.5,90.1,2510426.7863704003,-724551.2699048,-1.0,547.5945477354792,77676.0251589409,77676.0251589409,295.8070865825248,0.07565142092993159,3.4923686756824086,90.6,0.6864582229112489
1306894156.02,8.5471505,3.6596703,16514.5346492,60.1,7.5,92.0,2510753.2299504,-724517.3460192,-1.0,543.9475160742749,75020.01242639005,75020.01242639005,297.6298112691493,0.07566059356945162,3.3853110669545314,87.6,0.6865428904528063
1306894156.44,8.5483674,3.6596207,16522.933599599997,60.1,7.5,93.9,2511083.1840292,-724494.0520552,-1.0,547.9386007876344,75224.0788049921,75224.0788049921,299.10082694590955,0.07836367474660041,3.3925711231028357,88.0,0.6866397299103739
1306894156.65,8.5489734,3.6595849,16527.3299252,60.1,7.5,94.8,2511248.0462392,-724486.5061232001,-1.0,546.6440379282753,78040.72778034477,78040.72778034477,299.26511957986116,0.07901946402384928,3.3791253615225236,86.1,0.686742310837758
1306894157.28,8.5507824,3.6594342,16541.3063036,59.6,7.5,97.6,2511742.0095096,-724480.01006,-1.0,545.250894055373,79815.32011397825,79815.32011397825,300.07143723351203,0.076715589283198,3.4046246988499913,85.0,0.6868723742673294
1306894158.75,8.5550075,3.6588544,16580.709192000002,36.5,6.0,102.3,2512906.2812004,-724547.923448,-1.0,551.100222710396,86569.53704594064,86569.53704594064,298.12421271288196,0.07940767611822529,3.5250997677003015,86.5,0.6870887894029374
1306894158.96,8.5556135,3.6587529,16587.3036804,32.7,5.9,102.7,2513074.0305496,-724564.327648,-1.0,557.1976126537563,93188.25800903153,93188.25800903153,298.67596601843945,0.07925807964413432,3.5155382902660897,85.2,0.6873144674431824
1306894159.17,8.5562111,3.6586499,16594.0294024,29.2,5.7,103.0,2513239.7129695998,-724581.552058,-1.0,550.7594369437264,96278.5207314413,96278.5207314413,299.6766513525315,0.08016699993716853,3.5474174756516867,87.60000000000001,0.6875491021763408
1306894160.43,8.5598573,3.6579811,16637.6973828,12.2,5.7,104.2,2514252.2458104,-724701.5323768,-1.0,561.6140424049339,102176.09170659949,102176.09170659949,299.9562890862785,0.08172178011965281,3.6355626246474384,85.89999999999999,0.6878710072507065
1306894160.64,8.5604556,3.6578672,16645.1120812,10.0,5.7,104.3,2514418.55159,-724722.79222,-1.0,554.1696136044167,106685.20347155193,106685.20347155193,299.8727921982225,0.08108140546901332,3.6647910750616997,88.5,0.6882022517826399
1306894160.85,8.5610778,3.6577479,16652.887672,8.2,5.2,104.3,2514591.6159,-724745.1019319999,-1.0,576.3879264997878,110959.1655674037,110959.1655674037,302.3886170379208,0.08202072256765813,3.5926169395820646,85.00000000000001,0.6885431419838648
1306894161.06,8.5616805,3.6576318,16660.433604,6.4,5.2,104.4,2514759.1355904,-724766.9851348,-1.0,558.3285436346918,109859.29694797088,109859.29694797088,302.759503402545,0.07988160242262872,3.6656185137686164,86.2,0.6888835728675043
1306894162.11,8.5647338,3.6570389,16699.0490908,0.4,5.1,104.4,2515608.4794496,-724879.3539048,-1.0,566.1434057518613,113180.60719944777,113180.60719944777,301.17887614641717,0.07980973290853492,3.7134293959820925,84.00000000000001,0.6892945090004876
1306894162.32,8.5653332,3.6569222,16706.6606396,-0.4,5.1,104.4,2515775.3757804004,-724901.4995748,-1.0,556.4272942091908,114410.9908651264,114410.9908651264,301.386504380932,0.08141522887233364,3.63677847359376,87.0,0.6897129473206977
1306894162.74,8.5665673,3.6566821,16722.3758632,-1.7,5.1,104.4,2516118.6500696,-724947.1360592,-1.0,571.989655456655,116544.2621671203,116544.2621671203,303.12734914005017,0.08341523677642058,3.6185701678145414,86.5,0.6901354429462445
1306894163.37,8.5684217,3.6563223,16745.9979112,-3.0,5.1,104.4,2516634.5621595997,-725015.2134892,-1.0,573.0194426652034,120634.386570212,120634.386570212,303.4477113325111,0.0819463885823855,3.5402327590585867,87.7,0.6905211166120363
1306894164.0,8.5702826,3.6559633,16769.7183844,-3.7,5.1,104.4,2517152.1146695996,-725082.7987932,-1.0,574.7245990897783,124516.30733631481,124516.30733631481,300.55953456105823,0.07967681283174993,3.6238900884690888,89.6,0.6909467509077493
1306894164.22,8.5709327,3.6558385,16778.0189096,-3.9,5.1,104.3,2517332.9545704,-725106.2567992,-1.0,575.0064344651239,124900.47170221484,124900.47170221484,299.6575771402459,0.07707288633222442,3.644227532725628,86.49999999999999,0.6913760597441448
1306894164.43,8.571578,3.6557149,16786.253818,-4.0,5.1,104.3,2517512.38371,-725129.3539128001,-1.0,597.2550542323282,122282.24175792263,122282.24175792263,299.91661643179555,0.0771344668458917,3.6467723302291164,86.89999999999999,0.6917226914151859
1306894164.64,8.5721887,3.6555982,16794.0622172,-4.1,5.1,104.3,2517682.16718,-725151.105882,-1.0,565.6142082237657,114424.71345366065,114424.71345366065,298.84852371122196,0.07488417813892648,3.589810388642883,86.99999999999999,0.6920702417213976
1306894166.53,8.577866,3.654527,16866.5359728,-3.8,5.1,104.3,2519260.25122,-725348.448408,-1.0,583.633807258844,112463.44516841322,112463.44516841322,297.80566254982904,0.07434969861503925,3.7072612871385098,87.2,0.6925687544073119
1306894166.95,8.5791603,3.6542861,16883.0714064,-3.6,5.1,103.9,2519619.9297092,-725392.2476219999,-1.0,598.1551915119213,116159.3887690011,116159.3887690011,295.09399332394383,0.0734056585294762,3.669411151877895,86.70000000000002,0.6930882425962882
1306894167.16,8.5797801,3.6541711,16891.0110392,-3.5,5.1,103.9,2519792.1738092,-725413.0481476,-1.0,573.2331199129878,117451.47487304737,117451.47487304737,295.22640198273524,0.07159549064108771,3.6273960902521245,87.8,0.6935361537948884
1306894167.58,8.5810702,3.6539326,16907.480856,-3.3,5.1,103.9,2520150.3759204,-725456.1255768,-1.0,595.6459810900358,137670.19432791256,137670.19432791256,294.95610607010235,0.06978910304906046,3.617581164462742,87.1,0.6940047342848271
1306894167.79,8.5816971,3.6538171,16915.518914,-3.3,5.1,103.8,2520324.6869496,-725476.8604856,-1.0,579.8930712729189,148437.37505608329,148437.37505608329,293.81588588880896,0.06700005711788065,3.710501629304932,86.9,0.6944554013889391
1306894168.84,8.5848772,3.6532344,16956.1685216,-3.3,5.1,103.8,2521207.8562692,-725581.0271556,-1.0,587.4336914079431,154554.33882014107,154554.33882014107,295.1088618423719,0.06909846729411447,3.710646137116357,85.30000000000001,0.6949457994641797
1306894169.05,8.5855108,3.653119,16964.2721964,-2.8,5.1,103.8,2521383.77491,-725601.5324056,-1.0,585.0135058005933,162682.7062907003,162682.7062907003,295.2813220601718,0.07076634608824194,3.661904301820785,84.9,0.6953997583443197
1306894169.47,8.5867912,3.6528863,16980.6763964,-2.6,5.1,103.6,2521739.3523492,-725642.7725644,-1.0,591.1001971400934,165119.63761673585,165119.63761673585,296.9930887942202,0.07099678155475934,3.557036745988321,87.60000000000001,0.695872625798388
1306894169.68,8.5874231,3.6527717,16988.7472628,-2.6,5.1,103.6,2521914.6476304,-725662.9497304,-1.0,582.8901352998981,154310.0679526709,154310.0679526709,296.48533351839797,0.06807163165511305,3.5683298187717156,88.2,0.6963451104878018
1306894169.89,8.5880486,3.6526586,16996.7525124,-2.5,5.1,103.6,2522088.3353,-725682.8972376001,-1.0,577.6179185797887,154989.9417516628,154989.9417516628,296.8079141405826,0.07040360125244946,3.6847308133053156,88.0,0.6968180544948009
1306894170.1,8.5886767,3.6525451,17004.8233788,-2.4,5.1,103.6,2522262.6463292,-725702.8775532,-1.0,579.6506447559793,151586.7084086102,151586.7084086102,296.3434909512778,0.0701505970387505,3.691118367438136,89.89999999999999,0.6971407250984754
1306894171.15,8.5918199,3.6519799,17045.0792856,-2.1,5.1,103.6,2523135.1201104,-725801.8276876,-1.0,580.179275093366,144664.22451975645,144664.22451975645,298.56849039401345,0.07236096087261724,3.7539689628740747,90.0,0.6975187434711789
1306894171.78,8.5936964,3.6516443,17069.1278428,-1.9,5.2,103.4,2523655.9534604,-725860.2266396,-1.0,577.2196304806818,145953.22048684617,145953.22048684617,300.30733844597256,0.07260015816802534,3.7477299191439037,90.7,0.6979343493329461
1306894173.25,8.5980686,3.6508675,17125.16459,-1.6,5.2,103.4,2524869.2737092,-725994.3801871999,-1.0,576.2211964376081,141651.34860211163,141651.34860211163,299.3216033598941,0.07309687202857668,3.7493138972747513,89.30000000000001,0.6984422780293591
