timestamp,longitude,latitude,altitude,roll,pitch,yaw,u,v,heading,air_speed,engine_0,temperature_in,humidity_in,pressure_in,heart_rate,oxygen_mask
1306893618.24,4.9564642,4.4491639,-3.28084,-1.0,-0.3,-1.0,1520405.9541648,-537590.896468,-1.0,65.3907155960535,10209.65804446213,293.24838218879137,0.07259126356328044,3.5310448892097273,88.60000000000001,0.27162796593865496
1306893621.61,4.9552532,4.4487855,-3.28084,-1.0,-0.4,-1.0,1520095.9147847998,-537755.8242948,-1.0,65.3907155960535,7475.002176713008,293.9346563268752,0.07314550710406711,3.4485248969802633,87.10000000000001,0.27137656611363303
1306893623.08,4.9545765,4.448574,-3.28084,-1.0,-0.5,-1.0,1519922.7520496,-537847.9830904,-1.0,85.26902369522706,4786.527691872601,292.6461298310692,0.07109141337641418,3.4518645671652304,86.9,0.27112539594740387
1306893624.34,4.9539183,4.4483683,-3.28084,-1.0,-0.6,-1.0,1519754.1824904,-537937.6484476001,-1.0,97.5841655559344,3511.598310163382,293.5373870861816,0.07431145571379563,3.3554837154535213,90.50000000000001,0.27087460854582907
1306893625.18,4.953448,4.4482213,-3.28084,-1.0,-0.7,-1.0,1519633.8412792,-538001.6904444,-1.0,104.90352587223389,2796.112625944731,292.86722077629616,0.07162853469674035,3.325156573828305,89.7,0.27062435701477044
1306893626.03,4.9529339,4.4480607,103.7401608,-1.0,-0.8,-1.0,1519502.18117,-538071.70357,-1.0,142.5955274267805,2796.112625944731,292.86722077629616,0.07162853469674035,3.325156573828305,89.7,0.27062435701477044
1306893630.65,4.949627,4.4470271,103.96981960000001,-1.0,0.9,-1.0,1518655.6260248,-538522.0644767999,-1.0,135.73594221829444,3511.5983101633824,293.5373870861816,0.07431145571379565,3.3554837154535213,90.5,0.27087460854582907
1306893631.07,4.949276,4.4469174,104.1994784,-1.0,3.8,-1.0,1518565.6982004,-538569.8663156,-1.0,159.53875510366424,4786.5276918726,292.6461298310692,0.0710914133764142,3.4518645671652304,86.9,0.27112539594740387
1306893631.49,4.9489257,4.4468079,104.3635204,-1.0,5.6,-1.0,1518476.0000347998,-538617.5697292,-1.0,159.13331076631917,7475.002176713007,293.9346563268752,0.07314550710406711,3.448524896980263,87.10000000000001,0.2713765661136331
1306893631.91,4.948562,4.4466942,104.46194559999999,-1.0,6.9,-1.0,1518382.8897956,-538667.1104132,-1.0,165.41961855091506,10209.65804446213,293.24838218879137,0.07259126356328044,3.531044889209727,88.60000000000001,0.27162796593865496
1306893632.33,4.9481915,4.4465784,104.5603708,-1.0,7.7,-1.0,1518288.0735196,-538717.5697324,-1.0,168.5630761304387,12956.451973570056,295.37294958019663,0.07390219341729297,3.5540395568830028,87.10000000000001,0.2718795954224695
1306893632.75,4.9478153,4.4464608,104.6259876,-1.0,8.2,-1.0,1518191.6824404,-538768.7836448,-1.0,171.3977193687882,15631.142241219646,297.0529438003819,0.07702299112546898,3.647502202864624,88.30000000000001,0.27213137801214576
1306893633.17,4.9474334,4.4463415,104.658796,-1.0,8.6,-1.0,1518093.9790252,-538820.8177672,-1.0,173.8971110762253,17365.246677780655,298.99169329317556,0.07905296245774503,3.691439845973799,88.30000000000001,0.27238323715475293
1306893633.59,4.9470386,4.446218,105.01968839999999,-1.0,9.0,-1.0,1517992.8963448,-538874.5907348,-1.0,180.06690503738636,17999.5914730302,299.46954029857795,0.07597261423799348,3.6995018087511147,85.10000000000001,0.2726359383795998
1306893634.01,4.9466486,4.4460961,105.97113199999998,-1.0,9.6,-1.0,1517893.0275752002,-538927.7075344,-1.0,177.83395314897018,18630.05088876251,301.1225277980463,0.07700163784593722,3.775733824651744,86.7,0.2728908596394423
1306893634.43,4.9462387,4.4459679,107.9068276,-1.0,9.9,-1.0,1517788.0406952,-538983.5802396,-1.0,187.28462632655263,18515.569878961014,300.4295871150142,0.07592540887115687,3.8351939625837095,89.2,0.2729005818616645
1306893634.85,4.9458271,4.4458391,110.92520040000001,-1.0,10.1,-1.0,1517682.7585396,-539039.6497952,-1.0,187.893673661689,18604.95302543021,300.298127423624,0.07349424211107677,3.7826550016719525,88.4,0.27291681108301186
1306893639.05,4.9412414,4.4443828,217.2572248,-1.0,10.5,246.9,1516509.3333052,-539672.4582144,-1.0,211.28508237095576,19678.752720639393,299.7746030314063,0.07327268443618133,3.7350113921355548,91.3,0.27318061248283687
1306893639.47,4.9407152,4.4442117,237.2375404,-1.0,10.4,246.9,1516374.72044,-539746.5067732,-1.0,245.65694970213045,20704.20660407873,297.6226057008199,0.07164109728958108,3.8015886102962613,87.9,0.2734906518529156
1306893639.89,4.9401881,4.444039,258.66142560000003,-1.0,10.4,246.9,1516240.0091496,-539821.2115,-1.0,246.6067743531115,25232.977357712316,298.8511594715911,0.07497472354006286,3.7990663558242277,86.4,0.2738504506280688
1306893640.73,4.9390882,4.4436746,307.5131332,0.7,10.4,246.9,1515959.0708204,-539978.4949696,-1.0,258.4535652264151,30475.3446500127,297.5018233754373,0.07186492584894878,3.7732301734099605,89.2,0.27432400705851495
1306893641.15,4.9385182,4.4434837,334.7441052,0.7,10.4,247.0,1515813.4999496,-540060.7784368,-1.0,269.1413870655162,36827.57222032815,296.2632861475171,0.07141750781127026,3.789572911054719,90.4,0.2748609493157328
1306893641.57,4.9379408,4.4432887,363.2546048,1.0,10.2,247.0,1515666.059,-540144.6367072,-1.0,273.32025872818485,44940.78417322528,294.6806038401624,0.06915153620284413,3.7458929977688475,88.60000000000002,0.27546433951695765
1306893641.99,4.9373503,4.4430876,392.74935639999995,1.2,10.0,247.0,1515515.3372104,-540231.0540328,-1.0,280.16001494706074,51299.0052534887,294.8606879504117,0.07104399385359769,3.837394904747579,89.00000000000001,0.27613570872080717
1306893642.41,4.9367445,4.4428797,422.67061720000004,1.5,9.7,247.1,1515360.8424548,-540320.3256892,-1.0,287.7678022216447,55244.77393436569,294.2901204699441,0.07218941424520316,3.761986088116304,88.60000000000001,0.2768746741626269
1306893642.83,4.9361331,4.4426682,451.9029016,1.7,9.2,247.1,1515204.9041296,-540411.0081067999,-1.0,290.6990633868256,59605.22967692457,295.8155888646835,0.0730113581509715,3.782832737835808,86.6,0.2776773316429419
1306893643.25,4.9355038,4.442449,480.4134012,2.0,8.7,247.1,1515044.4382452,-540504.8729392,-1.0,299.3360161439776,62298.847702350904,296.54278483624586,0.07430989381557541,3.887197843065984,88.1,0.27853947075055346
1306893643.67,4.9348542,4.4422212,507.67718160000004,2.4,8.3,247.1,1514878.8542504,-540602.3466956,-1.0,309.03698294152775,64379.990567675,296.1919190419278,0.07741455882571494,3.92565796290976,86.3,0.2792171172947354
1306893644.09,4.9341973,4.4419896,532.7099908,2.8,8.0,247.1,1514711.4329852,-540701.3624468,-1.0,312.3358348095328,69229.61897658191,297.51553222298384,0.07664461797177863,3.8657493089334407,86.1,0.2799065529902735
1306893644.51,4.9335202,4.44175,555.774296,3.2,7.7,247.3,1514538.8936096,-540803.7246548,-1.0,321.7754138718131,73311.22505797344,296.9990929324328,0.07566000601161926,3.8759380659058866,87.5,0.28059981633235576
1306893644.93,4.9328353,4.4415068,576.3451627999999,3.6,7.7,247.3,1514364.38573,-540907.5960492,-1.0,325.29886225162153,78231.43224797705,296.8434250958095,0.07813165256917659,3.8528129320051985,87.80000000000001,0.2812270910480163
1306893645.35,4.9321257,4.4412546,594.9147172,4.1,7.7,247.4,1514183.6442544,-541015.2732180001,-1.0,336.7847374185731,83674.23858476928,295.84085241071915,0.0782809984422355,3.8119430431692267,86.10000000000001,0.28183415578992355
1306893645.77,4.9314042,4.440999,611.9094683999999,4.3,7.8,247.4,1513999.8187892,-541124.4267648,-1.0,342.0822771552862,89285.45615852374,296.2854547668914,0.07792771837390004,3.8268106004548814,86.90000000000002,0.28241435045309066
1306893646.19,4.9306589,4.4407366,628.5433272,4.5,8.2,247.6,1513809.8253447998,-541236.6314928001,-1.0,353.15299797885586,95104.6894876869,295.9930671164148,0.07634824553424233,3.8213054577983483,86.60000000000001,0.28296453636735136
1306893646.61,4.9299001,4.4404716,645.5380784,4.7,8.6,247.7,1513616.35421,-541350.08294,-1.0,359.0888477991914,102075.48416590145,296.91287604562046,0.07425292074859832,3.8432857543190693,88.00000000000001,0.2834845604268439
1306893647.03,4.9291286,4.4402042,663.5170816,4.8,9.0,247.7,1513419.6022352,-541464.6498728,-1.0,364.72498826207334,109148.76855257819,297.1433986647655,0.07540532615113102,3.7550648994557885,90.4,0.28397832683104335
1306893647.46,4.9283256,4.4399283,683.4645888,4.8,9.4,248.0,1513214.7465856,-541583.0881968,-1.0,370.5232290969353,116517.15918153654,295.8386071317607,0.07356881400951518,3.715650311650625,91.50000000000001,0.28445211292028216
1306893647.88,4.9275157,4.4396524,705.0853244,4.8,9.6,248.1,1513008.0536656,-541701.5921376001,-1.0,382.37509433907064,124016.60328335577,297.88433968845743,0.07058269290154634,3.682589318217216,91.10000000000001,0.2849127319054091
1306893648.3,4.9266936,4.4393746,728.5761388,4.8,9.6,248.3,1512798.2111392,-541821.0803304,-1.0,387.8878515734238,131798.52141118856,297.1543661110131,0.07295552841482175,3.687937796459173,93.20000000000002,0.28536975290278443
1306893648.72,4.9258555,4.4390938,753.8714152,5.0,9.6,248.4,1512584.1363292001,-541942.0777096,-1.0,395.34849747183625,139484.5822705999,298.1503987604806,0.07310228444163189,3.591614483981626,92.4,0.28583197949945993
1306893649.14,4.9250137,4.4388134,781.6929384,-2.6,13.0,248.4,1512369.0116504,-542062.9110468,-1.0,397.1551491159431,147309.73440118934,297.42924012337994,0.0704845895609519,3.655290072039306,89.4,0.2863111242938606
1306893649.56,4.9241511,4.438524,815.4527820000001,-26.2,14.2,247.9,1512148.7032444,-542187.51735,-1.0,408.59278234420424,155377.6066253544,297.0821812663045,0.06791795553475805,3.6722388886623083,89.3,0.28682571309526034
1306893649.98,4.9233054,4.438226,853.4777176,-37.9,15.1,246.5,1511933.1848648,-542314.9123671999,-1.0,405.06393886801516,163202.9949203237,297.3354013290299,0.0679042649081837,3.6981165916597156,86.89999999999999,0.28738937232535655
1306893650.4,4.9224625,4.437908,895.2428108,-40.7,15.1,244.9,1511719.0116296,-542449.5252323999,-1.0,410.0695343956901,168241.28621491333,297.2122242296151,0.06758394450342997,3.6236374117993897,90.1,0.2880116711005096
1306893650.82,4.9216425,4.4375771,938.6811324,-47.2,16.2,243.2,1511511.3016492,-542588.3047644,-1.0,405.34035650630125,170704.50609691895,297.3208789284911,0.06700951347341622,3.666890474238449,88.7,0.28869567153795495
1306893656.92,4.9112995,4.4315281,1354.6588359999998,-47.2,16.2,225.3,1508947.71889,-545022.3271519999,-1.0,390.7809564039549,169044.58742979597,297.60209219537626,0.06703993975637147,3.6288652038279055,86.39999999999999,0.29030833557994973
1306893657.13,4.9110009,4.4312844,1358.9895448,-47.2,16.2,224.4,1508875.8356856,-545117.7667876,-1.0,380.54513888520984,161176.28464117128,298.5927551548819,0.06976475377556189,3.5405464805366536,85.60000000000001,0.29188456042684385
1306893657.34,4.9107117,4.4310404,1362.8937444,-47.2,16.2,223.4,1508806.4459196,-545213.0751896,-1.0,375.2991979153179,143364.03061133105,297.2390328759696,0.07335816051599205,3.4963233170006567,85.1,0.2934194466910609
1306893657.55,4.9104279,4.4307929,1366.5026684,-47.2,7.7,222.4,1508738.56534,-545309.5975023999,-1.0,375.5826849376013,126468.700573148,297.9164422920722,0.07413601790140156,3.4672052561059945,83.8,0.2949079418791624
1306893657.76,4.9101576,4.4305488,1369.6850832,-47.2,7.7,221.4,1508674.1952592,-545404.5450119999,-1.0,364.8239345817816,118310.26995133147,296.96794208427815,0.07402373376249011,3.524773479807097,82.6,0.2963448403918483
1306893657.97,4.9098814,4.4302903,1372.7690728,-47.2,7.8,220.4,1508608.6768844,-545504.8730992,-1.0,381.38312902163153,121799.89652264316,298.65896757310514,0.07553445593719013,3.497843395460579,82.6,0.2977240179946479
1306893658.18,4.9096278,4.4300439,1375.4265532,-47.2,7.9,219.3,1508548.8015544,-545600.3127348,-1.0,358.07389933525445,132758.8707853009,298.6969076818876,0.07571306519511951,3.4991068475720057,84.5,0.29903062341896985
1306893658.39,4.9093656,4.4297792,1378.0184167999998,-47.2,7.9,218.2,1508487.1873792,-545702.5765176,-1.0,379.8630995436102,131367.38367059943,298.6127171633904,0.07805976600722181,3.5259948330251363,86.2,0.3002545516779375
1306893658.6,4.9091209,4.429522,1380.2821964,-47.2,8.0,217.1,1508429.9695295999,-545801.7891192,-1.0,364.02922537084953,133686.49799304735,296.6221963521568,0.07753894304830614,3.5949613006091283,85.19999999999999,0.3013863102081212
1306893658.81,4.9088838,4.4292625,1382.3491256,-47.2,8.1,216.0,1508374.8186092,-545901.5922719999,-1.0,362.3596252137514,131915.97548053734,294.8586480406076,0.07774535914410666,3.5732349443698976,84.69999999999999,0.30242153549246065
1306893659.02,4.9086547,4.4290008,1384.2520128,-47.2,8.2,214.8,1508321.89866,-546002.0515928001,-1.0,360.75856943729286,126422.2421343122,293.79913255674717,0.07898961405222196,3.5637384210194463,86.5,0.30249058623611774
1306893659.23,4.9084282,4.4287307,1386.0236664,-47.2,8.3,213.7,1508269.9301544,-546105.4964780001,-1.0,367.93450257210793,128987.99547491802,294.7612331637614,0.07580342851751523,3.6696338555130135,87.50000000000001,0.30255366585116583
1306893659.44,4.9082214,4.4284725,1387.5984696,-47.2,8.3,212.4,1508222.8501004,-546204.1841452,-1.0,347.05325290926584,132334.50275326188,295.94425404162536,0.07439375256491758,3.6570551481769007,89.2,0.3026113102081212
1306893659.65,4.9080145,4.4282022,1389.0748475999999,-60.1,8.4,211.3,1508176.0981304,-546307.268138,-1.0,359.52430521444654,128672.54567585538,296.22894050770776,0.0737693500646107,3.7531398052349085,90.8,0.3026639786245692
1306893659.86,4.9078182,4.4279327,1390.419992,-60.1,8.5,210.0,1508132.1348744,-546409.8928132,-1.0,354.4874551384311,129300.79011423035,297.65888763559644,0.0738393181051082,3.801306421603284,92.30000000000001,0.3027123600768876
1306893660.07,4.9076249,4.4276536,1391.6995196,-60.1,8.6,208.8,1508089.2542956,-546515.8639452,-1.0,363.1527025710084,133366.57805947293,296.7006115322124,0.07343167723256636,3.768931693987821,92.20000000000002,0.3027565311180075
1306893660.28,4.9074442,4.427378,1392.8806220000001,-60.1,8.7,207.5,1508049.58894,-546620.3586992,-1.0,354.86834317415475,133273.29966699387,299.2347909877602,0.0726213586071084,3.7117541089806543,91.5,0.30279725727723755
1306893660.49,4.9072747,4.4271049,1393.9304908,-60.1,8.8,206.3,1508012.8763404,-546723.6395423999,-1.0,347.8539619652712,139555.90377945732,299.31078393470915,0.07373542085114576,3.716273862904816,92.6,0.30283438544871616
1306893660.7,4.9071102,4.4268238,1394.9147428,-60.1,8.9,204.9,1507977.7057356,-546829.7090996,-1.0,354.7892366747536,142753.6967246775,300.83107103717344,0.07563878604332779,3.671935886163294,92.20000000000002,0.3028685280558903
1306893660.91,4.9069598,4.4265508,1395.833378,-60.1,9.0,203.7,1507946.0456296,-546932.596242,-1.0,341.4787476509316,145627.35463376276,301.5514868954277,0.07699613335738448,3.692004283013666,91.80000000000001,0.30289999131048345
1306893661.12,4.9068175,4.4262754,1396.6863964,-60.1,9.2,202.3,1507916.6164948,-547036.0739356,-1.0,341.26757464377476,143023.53907114032,302.45723666793566,0.07602551796102731,3.721501021415828,89.7,0.3029290048712884
1306893661.33,4.9066797,4.4259896,1397.5066064,-60.1,9.3,201.1,1507888.6309296,-547143.3245952,-1.0,351.86442583440856,141020.52259819274,301.5973351863804,0.07787399215500129,3.624934765716092,88.50000000000001,0.30295579839709763
1306893661.54,4.9065549,4.4257111,1398.2611996,-60.1,9.4,199.7,1507863.9262044,-547247.5896903999,-1.0,339.8991614841383,140433.28864115095,300.8225238014683,0.07898571416730364,3.6337642001723225,87.5,0.3029806780996348
1306893661.75,4.9064358,4.4254239,1399.0157928,-60.1,9.5,198.4,1507841.0587496,-547354.9059667999,-1.0,348.2758193811893,139179.83402429154,300.81478621468125,0.07790077788431349,3.5393205017705607,85.89999999999999,0.30300387363769254
1306893661.96,4.9063305,4.4251469,1399.6719608,-60.1,9.6,196.9,1507821.4721348,-547458.18681,-1.0,333.35054349099016,140576.5889377791,299.21726242501245,0.07734627314843079,3.5068766116778063,85.3,0.30302546156420174
1306893662.17,4.9062331,4.4248669,1400.2953204,-60.1,9.7,195.6,1507804.0508744,-547562.4190967999,-1.0,335.18436300877534,144117.088792194,299.0706409968452,0.07986519825303776,3.5425573705803153,88.39999999999999,0.30304551843209326
1306893662.38,4.9061421,4.4245773,1400.9514884,-60.1,9.9,194.2,1507788.6637348,-547669.9978404,-1.0,344.9448276975249,143169.65691885425,297.4564780470449,0.08250492457844469,3.4976036907493877,87.7,0.30306435045309066
1306893662.59,4.9060637,4.4242985,1401.5420396,-60.1,10.0,192.8,1507776.3605848,-547773.3443004,-1.0,330.05625990391724,143208.64359334036,295.85060876391435,0.08171834171303584,3.45396564401163,88.19999999999999,0.30308211073305563
1306893662.8,4.9059946,4.4240197,1402.0997824,-60.1,10.1,191.3,1507766.4196396,-547876.49391,-1.0,328.63962058863,141549.02697911314,294.249495155184,0.08087375805081772,3.4687820840577865,88.00000000000001,0.3030988758249191
1306893663.01,4.9059331,4.4237346,1402.6575252,-60.1,10.2,190.0,1507758.7096656,-547981.7760656,-1.0,334.97343953374065,136940.34372963547,294.326857405691,0.08065142395520052,3.4324669509100105,89.50000000000001,0.30311479883454295
1306893663.22,4.9058809,4.4234473,1403.1824596,-60.1,10.4,188.5,1507753.5915552,-548087.6487724,-1.0,336.43100289135845,137309.4330016557,293.10543728152845,0.07908082590825011,3.458131309726182,88.30000000000001,0.3031299563148579
1306893663.43,4.905839,4.423166,1403.707394,-60.1,10.5,187.1,1507751.0325,-548191.0936576,-1.0,328.3063788251014,138001.53817039405,292.18070083805526,0.08016833550160778,3.534019602926853,87.50000000000001,0.3031444248187949
1306893663.64,4.9058064,4.4228828,1404.19952,-60.1,10.6,185.6,1507750.9340748,-548295.0634772,-1.0,329.9689958390355,134223.14363203183,293.3810762996325,0.07670869629202726,3.516288073821519,89.3,0.3031582808992848
1306893663.85,4.9057837,4.4226097,1404.691646,-60.1,10.7,184.2,1507753.1978544,-548395.1290972,-1.0,317.4418434281722,138015.6154288715,294.34211845046786,0.07532553258175789,3.6072215409033452,89.2,0.30317152455632773
1306893664.06,4.9057698,4.422332,1405.183772,-60.1,10.9,182.6,1507757.8894556002,-548496.6382868,-1.0,322.466497675928,132884.90829065067,294.6997324606852,0.07493287545591114,3.5418267896328133,88.7,0.3031843854487162
1306893664.27,4.905765,4.4220512,1405.6430896,-60.1,10.9,181.2,1507765.1729204,-548599.09892,-1.0,326.1202799369348,126355.4895802574,294.5692258019514,0.07184049788406767,3.493251687119936,87.80000000000001,0.3031968635764502
1306893664.48,4.9057696,4.4217752,1406.1352155999998,-60.1,11.0,179.7,1507774.81859,-548699.6238576,-1.0,320.5778659201645,125077.11273366668,294.8186941103601,0.06903168478406023,3.5143076129476083,89.0,0.3032089589395298
1306893664.69,4.9057834,4.4214972,1406.5945332000001,-60.1,11.1,178.2,1507786.9248896,-548800.6081128,-1.0,323.00000888863536,119704.07915268013,296.8937378195121,0.06776577459770942,3.5466815247351633,85.4,0.3032207480908859
1306893664.9,4.9058067,4.4212172,1407.0538508,-60.1,11.1,176.7,1507801.5902443998,-548902.1829192,-1.0,326.0776953456963,117190.28367347323,297.4359979166485,0.07021489136224926,3.4611267606713785,85.80000000000001,0.3032323075834493
1306893665.11,4.9058381,4.4209483,1407.5131684,-60.1,11.1,175.3,1507818.0928696,-548999.4598252,-1.0,313.31257497806394,119861.11517064343,298.44480479108256,0.06909470601648056,3.489704981845641,84.4,0.30324363741722016
1306893665.32,4.9058809,4.4206643,1407.972486,-60.1,11.1,173.7,1507838.0731852,-549102.0845004,-1.0,332.5153902335313,117745.06416486355,297.84505960392465,0.07009449615578801,3.5530775636081278,86.10000000000001,0.3032548141451291
1306893665.53,4.9059308,4.4203938,1408.4318036,-60.1,11.1,172.3,1507859.4970704,-549199.5582567999,-1.0,317.19140804185054,119328.6074269562,300.22637048814613,0.0668241300721196,3.479972382031882,86.2,0.30326583776717636
1306893665.74,4.9059901,4.4201225,1408.8583128,-60.1,11.1,170.7,1507883.5128192,-549297.09763,-1.0,319.4173487973589,118591.71201589597,299.6670230881497,0.06670876117848008,3.6004389928923706,86.5,0.30327670828336184
1306893665.95,4.9060583,4.4198518,1409.3176304,-60.1,11.0,169.3,1507909.8579644,-549394.3089192,-1.0,320.3853284083786,113103.99181565405,297.69418094436224,0.07003649321369804,3.6165557703474414,85.8,0.3032875022466164
1306893666.16,4.9061377,4.4195752,1409.776948,-60.1,11.0,167.7,1507939.3855243998,-549493.3902872,-1.0,329.16974870539974,111301.61918685517,298.68119998887244,0.068554824364976,3.6677749010795613,86.50000000000001,0.30329821965694015
1306893666.37,4.9062247,4.4193045,1410.2362655999998,-60.1,10.9,166.3,1507970.6519296,-549590.1094504,-1.0,323.6323978115133,110978.84784126503,299.540990295153,0.06869877812969512,3.797718787568029,86.2,0.3033089370672638
1306893666.58,4.9063199,4.4190373,1410.6955832,-60.1,10.8,164.7,1508004.0836892,-549685.3522356,-1.0,321.4603732338338,106429.30334258113,298.36263194113417,0.07066298275638129,3.816184520776749,85.80000000000001,0.30331957792465664
1306893666.79,4.9064261,4.418766,1411.1549008,-60.1,10.8,163.3,1508040.4682047998,-549781.9073567999,-1.0,328.85991678795017,105267.15414911682,297.3910530188948,0.07144788907132946,3.815348702682056,85.9,0.30333021878204947
1306893667.0,4.9065397,4.4185,1411.6142184,-60.1,10.7,161.8,1508078.8212243998,-549876.3627404,-1.0,324.9754998644589,106391.09878963383,297.23940660269807,0.06950107256276966,3.856106158618219,83.8,0.30334085963944235
1306893667.21,4.9066681,4.4182232,1412.0735359999999,-60.1,10.7,160.4,1508121.2424856,-549974.427048,-1.0,341.0110352359304,100673.00693450165,297.2157629531633,0.06897615377599452,3.780358798508681,83.5,0.3033515004968352
1306893667.42,4.9067981,4.4179639,1412.5328536,-60.1,10.7,158.8,1508163.6965552,-550066.0609092,-1.0,322.1442224651193,103299.38375084983,296.92391000525316,0.06737197287082769,3.6857721999954154,83.7,0.30336214135422795
1306893667.63,4.9069369,4.4177058,1412.9921712,-60.1,10.7,157.4,1508208.4144044,-550157.1042192,-1.0,323.70932586268077,99766.79023705314,294.7491767811075,0.06895231520707698,3.7633031282299503,82.9,0.3033727822116208
1306893667.84,4.9070871,4.4174452,1413.4514887999999,-60.1,10.7,155.9,1508256.28186,-550248.7380804,-1.0,330.18753527675847,95458.43008748705,295.8246085286028,0.07127348796250269,3.654911369279132,83.5,0.30338349962194444
1306893668.26,4.9074152,4.4169289,1414.4029324,-60.1,10.7,152.9,1508359.1033856,-550429.7092148,-1.0,332.632891433805,91557.0243695018,295.91377947024347,0.06956772377621943,3.553160921763845,87.10000000000001,0.3033953653262314
1306893668.68,4.907768,4.4164368,1415.3215676,-60.1,10.8,150.0,1508467.7976147998,-550601.23153,-1.0,324.69058815530974,86998.84260390898,294.3269946705974,0.07326334131686124,3.6110763906712755,85.7,0.30340830277155084
1306893669.1,4.9081598,4.4159488,1416.2402028000001,-60.1,10.8,147.0,1508586.7280648,-550770.4572571999,-1.0,331.12896871994957,79814.59041349046,295.8750117161984,0.07247211954478847,3.580638566691041,86.10000000000001,0.3034223119579025
1306893669.52,4.9085768,4.4154823,1417.1916463999999,-60.1,10.8,144.1,1508711.5968352,-550931.2512256,-1.0,326.1708434545245,75897.89575350298,297.316141360037,0.07350000524968832,3.588157778219085,84.60000000000001,0.3034374694382175
1306893669.94,4.9090299,4.4150249,1418.1102816,-60.1,10.8,141.2,1508845.9144247998,-551087.9769524,-1.0,331.08651843419096,71045.967122275,298.070229140207,0.07309163544085176,3.518212866380052,87.8,0.30345369865956484
1306893670.36,4.9095039,4.4145918,1419.0617252,-60.1,10.8,138.2,1508985.0548492,-551235.3522852,-1.0,325.38090436528296,63010.29123117598,297.9736801426426,0.07384126038369508,3.5609586691889077,88.8,0.3034710761748754
1306893670.79,4.9100222,4.4141625,1420.0131688,-60.1,10.8,135.3,1509135.7438304,-551380.3326048,-1.0,328.27098788837486,58454.67048400333,296.5967003089382,0.07375425990915345,3.5876564481936533,89.1,0.3034896019841492
1306893671.21,4.9105563,4.4137616,1420.9646124,-60.1,10.8,132.3,1509289.8448852,-551514.6501944,-1.0,328.92398047295933,50466.56441438214,297.3638899569536,0.07634419795494671,3.563435236209585,89.9,0.3035092760873863
1306893671.63,4.9111181,4.4133788,1421.8832476,-60.1,10.8,129.4,1509450.7044704,-551641.7171276,-1.0,330.2165595618578,43606.69101677278,298.77554965083675,0.0763662758399567,3.507132802686166,90.4,0.30353002193165585
1306893672.05,4.9116937,4.413023,1422.8346912,-60.1,10.8,126.4,1509614.54962,-551758.6462652,-1.0,324.5846462463079,39939.810721434056,296.59725721957824,0.07604757222299624,3.530302160622321,88.0,0.30355191606988857
1306893672.47,4.9123053,4.4126807,1423.7861348000001,-60.1,10.8,123.5,1509787.4170796,-551869.8995496,-1.0,331.9117456300542,39548.010303748335,298.6952337892205,0.07644948822359891,3.5723246455821833,84.19999999999999,0.3035738102081213
1306893672.89,4.9129243,4.412368,1424.70477,-60.1,10.8,120.5,1509961.4000247999,-551970.2276367999,-1.0,324.6112807268882,41539.66967437392,300.22556092899544,0.07491811181636182,3.4823716554426483,84.69999999999999,0.30359570434635397
1306893673.31,4.9135757,4.4120722,1425.6562136,-60.1,10.8,117.4,1510143.4866447998,-552063.6003432,-1.0,331.1611965076695,46479.570820865956,300.00520661293547,0.07576428084114209,3.4262122729685376,86.1,0.3036176750375176
1306893673.73,4.9142223,4.4118094,1426.5748488,-60.1,10.8,114.6,1510323.3094852,-552145.0636004,-1.0,319.83721010640704,52801.26372604461,301.06499617741235,0.07326259903782038,3.4406112021210693,88.40000000000002,0.30363956917575025
1306893674.15,4.9148934,4.4115669,1427.5262924,-60.1,10.8,111.7,1510509.0050292,-552218.5872248,-1.0,323.97004895433287,60457.707972378,300.3548621501634,0.07389815835079641,3.397439274020665,88.70000000000002,0.30366153986691385
1306893674.57,4.9155912,4.4113452,1428.4777359999998,-60.1,10.8,108.7,1510701.1310196,-552283.9415576,-1.0,329.5854190142165,68411.52141964906,302.72469473735975,0.07421123512998758,3.43233263133047,89.39999999999999,0.3036835105580775
1306893674.99,4.916296,4.411151,1429.4291796,-60.1,10.8,105.8,1510894.2740704,-552339.092478,-1.0,326.61843617479315,75783.4177321698,304.03963658398607,0.07693597297599453,3.392758427781018,92.30000000000001,0.30370548124924107
1306893675.41,4.9170008,4.4109853,1430.3478148000002,-60.1,10.8,102.8,1511086.6297196,-552383.9087524,-1.0,321.56730061382467,83253.59688136347,302.86452932964005,0.0762690218595162,3.5214993857499697,89.80000000000001,0.30372737538747385
1306893675.83,4.917717,4.4108448,1431.2992583999999,-60.1,10.8,99.9,1511281.21634,-552419.2433992,-1.0,322.38413122368837,90365.40694319128,301.9666728765136,0.07648258811532528,3.597829108609779,92.60000000000001,0.3037493460786374
1306893676.25,4.9184324,4.4107318,1432.2178936,-60.1,10.8,96.9,1511474.7859,-552444.6042924,-1.0,318.64301900365405,96830.77710682663,301.2867913933858,0.07802896636517605,3.5490046607489862,95.00000000000001,0.30377124021687013
1306893676.67,4.9191731,4.4106426,1433.1693372,-60.1,10.8,94.0,1511674.2937804,-552460.7132168,-1.0,327.0375582818968,103338.25235004321,300.5244182737302,0.07747095573069492,3.59886739628398,96.7,0.30379313435510286
1306893677.09,4.9198988,4.4105823,1434.1207808,-60.0,10.7,91.1,1511869.0116343999,-552466.553112,-1.0,318.7413893356083,108995.05690976344,300.4226240287908,0.0773709922988995,3.657156544729061,97.30000000000001,0.30381510504626646
1306893677.51,4.9206322,4.4105482,1435.0394159999998,-58.4,11.0,88.1,1512064.9433992,-552462.7473376001,-1.0,321.002738440342,113378.04494517646,298.14743660872614,0.07827103500968778,3.6382503492246085,96.30000000000001,0.3038369991844992
1306893677.93,4.9213533,4.4105415,1436.5486024,-54.3,13.7,85.0,1512256.7413056002,-552449.2302768,-1.0,315.3896500834554,117288.05379891394,298.1977424221803,0.0807341105922678,3.6133736539154655,94.00000000000001,0.3038602712754878
1306893678.35,4.9220812,4.4105657,1440.6496524,-48.8,16.4,81.3,1512449.3922304,-552424.2630844,-1.0,319.1004926171206,120193.64287072518,298.384810031613,0.079437924624502,3.7567502976520437,91.50000000000001,0.3038908924478413
1306893678.77,4.9227959,4.4106211,1449.3438784,-42.2,18.0,78.0,1512637.6468296,-552388.2066528001,-1.0,315.5737578872267,121921.41216494667,296.4583264279121,0.08064218553505884,3.745595453537147,93.00000000000001,0.30393958011188327
1306893679.19,4.9234982,4.4107037,1463.746766,-34.6,19.9,75.1,1512821.7675704,-552342.4717432,-1.0,313.31741673876667,123388.88052930018,296.12521999873667,0.07841871676280761,3.8583868757331934,93.39999999999999,0.30401965447758755
1306893679.61,4.9241827,4.4108078,1484.8753755999999,-26.8,22.1,72.7,1513000.4749252,-552289.4205604,-1.0,309.29096875627863,123839.3605809705,296.7762895689833,0.07716613942360323,3.7751202815000426,96.69999999999999,0.30414688544871615
1306893680.25,4.9251987,4.4109957,1531.6601540000001,-15.9,24.6,70.2,1513264.7793956,-552198.3772504,-1.0,306.9208864310013,123052.80982223662,297.66282952097856,0.07837805094356423,3.744535048233786,95.19999999999999,0.3043810608642892
1306893680.67,4.9258638,4.4111331,1572.5066120000001,-9.6,25.3,69.2,1513437.3515796,-552133.547852,-1.0,311.60828014737024,120998.31739210033,300.3262459730418,0.07682605662937199,3.8751064824374253,95.4,0.30470840119674764
1306893681.09,4.9265153,4.4112734,1619.4554324,-4.2,25.5,68.8,1513606.2164144,-552067.9638604,-1.0,297.22682420513286,116574.2834617749,300.6788655245949,0.07834568214329626,3.745523295752342,93.70000000000002,0.305143068738305
1306893681.51,4.9271699,4.4114166,1672.0472975999999,0.1,25.2,68.8,1513775.7702256,-552001.2315748,-1.0,301.3288489330098,111172.22395066645,299.83832357838514,0.0777376509087063,3.780522541278544,95.2,0.30569823059307305
1306893681.94,4.9278312,4.4115612,1729.1011052,3.7,24.8,68.8,1513947.0956903999,-551933.8103128,-1.0,299.12503260766135,103692.66406382284,299.6329290771493,0.0773373750100757,3.828505745466778,93.1,0.3063843745125831
1306893682.36,4.9284757,4.4117009,1787.1063564,6.4,24.3,69.0,1514114.1232548,-551868.6200219999,-1.0,299.4584466147645,96157.99191671303,298.72657637777127,0.07711572865371187,3.806698383684684,92.0,0.30720234257907486
1306893682.79,4.9291456,4.4118441,1848.6221064000001,8.4,23.8,69.2,1514287.7124992,-551801.5596524,-1.0,304.34615245175524,88674.73304618131,299.1442829383172,0.07696410254519925,3.7036995206286285,92.39999999999999,0.30815427827461295
1306893683.21,4.9297928,4.4119801,1908.3990112,9.9,23.3,69.5,1514455.6258904,-551737.6488892001,-1.0,300.9881408312105,82178.11591167984,298.9512871063968,0.0761343855312907,3.710499245091486,90.3,0.30922540688353684
1306893683.63,4.9304436,4.4121144,1968.2415328,11.0,22.9,69.8,1514624.3923,-551674.2302519999,-1.0,302.0063450984767,77610.69946029768,297.30233774759034,0.07933070080078382,3.577832005008116,90.3,0.31040256130173455
1306893684.05,4.9311005,4.4122473,2028.0840543999998,11.9,22.7,70.1,1514794.99598,-551611.2053156,-1.0,304.47589109762185,74738.01518489399,298.38319675490925,0.08137332383719081,3.558200329523393,89.1,0.31167004817837496
1306893684.47,4.9317512,4.4123762,2086.61424,12.5,22.5,70.4,1514963.95924,-551549.8207992,-1.0,300.5928810272765,72715.46461215119,298.75686974124727,0.08168079679247262,3.479793714863259,89.60000000000001,0.3129649410042717
1306893684.89,4.9323906,4.4125001,2143.3399636,12.9,22.5,70.8,1515130.0681692,-551490.4375952,-1.0,294.5206357961989,72093.65915077647,297.15884421427086,0.08353018208201567,3.370964171836,85.90000000000002,0.31429688544871615
1306893685.31,4.9330468,4.4126243,2200.8530888,13.2,22.5,71.1,1515300.6718492,-551430.5622652,-1.0,301.7429747098728,72517.14630608045,295.2696318890209,0.08190036267715212,3.3916803541033094,86.89999999999999,0.3156534799369051
1306893685.74,4.9337061,4.412746,2257.9725132,13.3,22.1,71.5,1515472.0957392,-551371.5727619999,-1.0,295.15679921017784,72104.64637458332,294.3897138516735,0.08383379797457126,3.3967529594407453,85.99999999999999,0.317020638729556
1306893686.16,4.9343644,4.4128647,2314.0092603999997,13.3,19.5,71.8,1515643.3883956,-551313.6987444,-1.0,301.08237883034536,72690.30187089293,296.7410522674482,0.08622109131339785,3.3696475188516493,87.4,0.3183854243813496
1306893686.58,4.9350214,4.4129819,2366.7651676,13.3,15.1,71.8,1515814.4185847999,-551256.3824696,-1.0,298.86838043881414,72593.58457592841,297.73042992287014,0.08596645843285539,3.3658598675736693,90.10000000000001,0.3197379615642017
1306893687.0,4.9356761,4.4130997,2413.4843292,13.5,11.0,71.8,1515984.8254143998,-551198.9021528,-1.0,295.3512452028441,71718.75006844707,296.92146214560836,0.08578510873688462,3.3246014725253725,89.9,0.32105597337522535
1306893687.42,4.9363471,4.4132227,2453.3137268,14.2,7.4,71.5,1516159.4317192,-551139.125248,-1.0,300.11811132735113,71630.20757979492,296.90457987403596,0.08668210309140761,3.258587421847821,90.30000000000001,0.32232744100427174
1306893687.84,4.9370216,4.4133495,2484.3176648,15.3,4.8,71.3,1516334.7270004,-551077.9375819999,-1.0,299.10134793667925,71285.62414627481,298.04091930866565,0.08438409072339638,3.268629020117721,89.5,0.3235316186070714
1306893688.26,4.9376908,4.4134783,2506.4305264,16.7,3.4,71.0,1516508.6115204,-551016.093748,-1.0,295.1830196601629,71130.4084821313,298.7636804550626,0.08391844808581995,3.379685142500521,88.89999999999999,0.3246477603393549
1306893688.68,4.9383697,4.4136112,2521.2271148,18.3,2.8,70.9,1516684.9566704,-550952.5766856,-1.0,298.609143598153,72125.37973026233,297.2756827159977,0.08086494899982982,3.4248399637128872,89.5,0.3256618570147704
1306893689.1,4.9390628,4.4137477,2529.9541492,19.9,2.8,70.9,1516865.0091696,-550887.4192032,-1.0,304.52553102357916,73049.75627184231,298.92258666655607,0.07796319400747068,3.5057368990684123,91.4,0.3265639567523032
1306893689.52,4.9397568,4.4138834,2533.9239656,21.3,3.1,71.1,1517045.2585192,-550822.524188,-1.0,304.43026262841187,73518.81648728639,300.9247650947016,0.07966012410036981,3.5984016225764575,91.79999999999998,0.3273411221066339
1306893689.94,4.9404489,4.414016,2534.6457504,22.3,3.7,71.5,1517225.0813596,-550758.8102751999,-1.0,303.1002991614703,75184.80100314101,302.77209367199725,0.07794830704120005,3.592692189057522,92.6,0.3279866929727757
1306893690.36,4.9411345,4.4141431,2533.3990311999996,22.9,4.2,72.0,1517403.4606303999,-550697.2617167999,-1.0,299.7869979797702,76334.64623302151,301.4049673226116,0.07436228543737874,3.580149939938386,91.60000000000001,0.32849860242159457
1306893690.78,4.941829,4.4142663,2531.1352516,23.2,4.8,72.7,1517584.2349144,-550636.9270692,-1.0,302.91655796895503,78004.15815704537,300.6492306009375,0.07370103399981748,3.688592183020441,89.4,0.32888213260532156
1306893691.2,4.9425145,4.4143816,2528.5761964000003,23.0,5.2,73.4,1517762.8110356,-550579.6436028001,-1.0,298.0699025616731,80175.41524814953,299.47465516826844,0.0765263996755774,3.689619003169263,89.50000000000001,0.32915068028686134
1306893691.62,4.9432225,4.4144937,2526.082758,22.5,5.6,74.2,1517947.5879443998,-550523.0491128,-1.0,307.42528383824504,82258.30015949789,300.3028958833738,0.07553784587181646,3.6674176088673884,89.0,0.32932047468756126
1306893692.04,4.9439149,4.4145962,2524.0814456000003,21.8,5.8,74.9,1518128.4278452,-550470.2603972,-1.0,299.61374288165445,83086.8896081723,300.99831918803585,0.07563677765187403,3.7087308485401422,89.40000000000002,0.3294132568397923
1306893692.46,4.9446282,4.4146949,2522.5722592,20.8,6.0,75.6,1518314.9435992,-550418.4231252,-1.0,308.13142184938084,84303.27550388954,300.1279135593171,0.07624325582397284,3.5836577121474162,89.00000000000003,0.3294509208817871
1306893692.88,4.9453303,4.4147853,2521.653624,19.7,6.1,76.3,1518498.7690643999,-550369.8338848,-1.0,302.6197730378761,84497.08183190237,301.6357606685705,0.07877713844423803,3.6472907064676487,86.5,0.3294519160698885
1306893693.3,4.9460259,4.414869,2521.2599232000002,18.5,6.1,77.0,1518680.9541096,-550323.9021248,-1.0,299.0412467006485,84883.70478028007,301.56322314003097,0.08078065985995225,3.558258681398891,84.60000000000001,0.32943162954320443
1306893693.73,4.946752,4.4149505,2521.32554,17.3,6.1,77.6,1518871.43968,-550278.0031732001,-1.0,304.78714790364035,86198.89068808331,300.17638059568276,0.0802051435710035,3.455627833074756,84.60000000000001,0.32940223321774503
1306893694.15,4.9474763,4.4150264,2521.7192408,16.0,6.1,78.1,1519061.5315496,-550234.2367676,-1.0,310.840339371469,87343.38791626228,298.2484660110205,0.0792341677411513,3.370255571204062,85.9,0.3293720713629769
1306893694.57,4.9481849,4.4150959,2522.3754088,14.8,6.1,78.6,1519247.7192196,-550193.1278424,-1.0,303.77644155777875,88430.73946560462,297.8348445179998,0.08289113853071067,3.36759661927955,86.30000000000001,0.32934634957819997
1306893694.99,4.9488913,4.415161,2523.1956188000004,13.7,6.1,79.0,1519433.4803804,-550153.6593372,-1.0,302.59491012537035,90116.26233040931,297.77673924077374,0.08197257126179788,3.2583818243074547,86.1,0.32932782376892616
1306893695.41,4.9496021,4.4152227,2524.114254,12.6,5.8,79.4,1519620.3898352,-550115.3719344,-1.0,304.0818819612426,91368.45066225964,300.20147982570927,0.08178924482586741,3.330911666260912,86.29999999999998,0.329317412570326
1306893695.83,4.9503257,4.415282,2525.098506,11.6,5.8,79.8,1519810.8754056,-550077.6422744,-1.0,309.64125852983165,91934.05688539406,298.87472934951995,0.08247028564418106,3.4284445756896167,87.8,0.32931511598239943
1306893696.25,4.9510347,4.4153369,2526.0499496,10.6,5.7,80.1,1519997.58801,-550041.84831,-1.0,303.07487010430896,93630.09443945657,297.6363034302677,0.08292374493753277,3.451495464364597,85.2,0.3293197091582525
1306893696.68,4.9517802,4.4153916,2527.0013932,9.7,5.7,80.4,1520194.0447092,-550005.2997523999,-1.0,311.3399566339106,94772.3775859548,298.76290830318095,0.08259382561696213,3.4663323099458614,85.1,0.3293300438039218
1306893697.1,4.9524922,4.4154411,2527.9200284,8.9,5.7,80.7,1520381.7415656,-549971.4086752,-1.0,304.1601370517439,94952.38067780799,297.60822868414635,0.08091476564761106,3.429877501220327,86.0,0.32934466541372054
1306893697.52,4.953215,4.4154889,2528.7730468,8.1,5.7,81.0,1520572.3583696,-549937.8784904,-1.0,308.75582153266475,96134.8557189266,297.1074014053018,0.07846209871120825,3.5215005155253967,89.1,0.32936219603489286
1306893697.94,4.9539263,4.4155338,2529.6260652,7.4,5.7,81.2,1520759.9896092,-549905.69345,-1.0,303.6400874495066,96901.07275987275,298.4166693441155,0.07744274928721674,3.609224947682673,88.89999999999999,0.32938156392640644
1306893698.36,4.954638,4.4155768,2530.4134668,6.7,5.7,81.4,1520947.6864656,-549874.1645776001,-1.0,303.59254872903125,97479.55507743167,300.195812821393,0.07856519752969676,3.646229098912224,85.59999999999998,0.32940185045309056
1306893698.79,4.9553894,4.4156202,2531.2336768,6.1,5.7,81.6,1521146.0788604,-549841.6186448,-1.0,313.4275364316733,98652.12336217285,301.5389222143961,0.07858404790379113,3.742474342663756,85.69999999999999,0.32942251974442915
1306893699.21,4.9561052,4.4156598,2531.98827,5.6,5.7,81.8,1521335.0552444,-549811.2052580001,-1.0,305.39917464621783,98950.41411737406,299.73881736248205,0.08130246900426441,3.847849250859458,86.3,0.3294430359299059
1306893699.63,4.9568246,4.4156982,2532.7756716,5.1,5.7,81.8,1521525.0158804,-549781.185572,-1.0,306.8976608409572,99514.06387062666,297.41554815202795,0.08034919959381208,3.8342240196170225,88.5,0.3294632459036593
1306893700.05,4.957534,4.4157346,2533.4974564,4.6,5.7,82.1,1521712.4502696,-549752.1173296,-1.0,302.6298235423776,99388.687748689,299.17238659600457,0.07973367507567701,3.7525908429773454,85.8,0.3294828434539655
1306893700.47,4.9582625,4.4157708,2534.284858,4.1,5.7,82.1,1521904.8715356002,-549722.6881948,-1.0,310.7341760074905,99795.5991533136,299.91012685083126,0.08016461240634762,3.76698408135356,88.90000000000002,0.3295020582396173
1306893700.89,4.9589774,4.4158052,2535.0394512,3.7,5.7,82.1,1522093.7494943999,-549694.1776952,-1.0,304.8395496425269,99667.46024871027,299.8152026300438,0.07962775354982762,3.7478512667080146,91.20000000000002,0.3295208137076838
1306893701.31,4.9597062,4.4158392,2535.7940444,3.3,5.7,82.1,1522286.4004192,-549665.5687704,-1.0,310.9373692215369,100721.85928516254,300.8746807085687,0.08135647138725609,3.740942792643285,89.70000000000002,0.32953918641109586
1306893701.73,4.9604231,4.4158718,2536.5814459999997,3.0,5.7,82.1,1522475.8689292,-549637.6816304,-1.0,305.66661054756975,100141.77481244637,300.1330546367931,0.08106139190130693,3.7010892562189035,88.0,0.32955740600864625
1306893702.15,4.9611436,4.4159037,2537.3360392,2.7,5.7,82.1,1522666.3544996,-549610.0241492001,-1.0,307.26062511645273,100406.6874170134,299.3891802910744,0.08238619843102502,3.60460135500126,88.79999999999998,0.32957539594740387
1306893702.57,4.9618625,4.4159349,2538.1234408,2.4,5.7,82.1,1522856.4463692,-549582.6291351999,-1.0,306.5757633215101,100811.42640544294,298.4023096078629,0.08372445491628375,3.5993309879247604,88.49999999999999,0.3295933858861615
1306893703.0,4.9626003,4.4159661,2538.9108424,2.1,5.7,82.8,1523051.5251156,-549554.7419952,-1.0,307.27128142404064,100647.5983696253,298.45687948928213,0.08237230348728723,3.612992656537636,90.2,0.32961129927198823
1306893703.42,4.963316,4.4159959,2539.698244,1.9,5.7,82.8,1523240.69835,-549527.9375323999,-1.0,304.98230196076616,101192.40435394159,299.9020924801012,0.08101993663997298,3.525867749754769,92.2,0.3296292892107459
1306893703.84,4.9640489,4.4160259,2540.4856456,1.6,5.7,82.9,1523434.5631856,-549500.673752,-1.0,312.6340107541222,101687.70506976555,302.49546665534353,0.07983502886823883,3.502633647181781,89.00000000000001,0.32964727914950354
1306893704.26,4.9647664,4.4160548,2541.338664,1.4,6.8,82.9,1523624.3597796,-549474.098948,-1.0,305.94514705574954,101462.25248879613,301.58421072735695,0.08037354443506187,3.4730812932006714,92.39999999999999,0.3296655752999848
1306893704.68,4.9654747,4.4160828,2543.5040184,1.2,10.7,83.0,1523811.6629352001,-549448.1146952,-1.0,301.83197438678513,101303.55437493813,302.7726142728659,0.08053430867180227,3.515212950085626,89.50000000000001,0.32968708667356306
1306893705.1,4.9661986,4.4161107,2550.1313152,1.0,16.3,83.1,1524003.1983744,-549421.76955,-1.0,308.8922288900897,101923.96898846645,301.92096190218325,0.07943170219715846,3.5948665033416605,86.9,0.3297223010217696
1306893705.52,4.9669131,4.4161373,2564.6326280000003,0.8,20.4,83.1,1524192.2403752,-549396.178998,-1.0,305.4545135469167,101209.13968988006,300.10923308999,0.07806151184733132,3.5549318583448253,90.80000000000001,0.3297895910480163
1306893705.94,4.9676012,4.4161619,2587.4344659999997,0.5,23.1,83.1,1524374.22857,-549371.8351651999,-1.0,295.2724128128172,101828.58121007454,298.82382472567946,0.07838961823894923,3.5200744462891325,90.60000000000002,0.3299082480908859
1306893706.36,4.9682911,4.416186,2619.1601888,0.2,25.2,83.1,1524556.8401243999,-549347.6553744,-1.0,298.39947786220534,102774.45782860352,299.55314077765973,0.07871108655697638,3.5416102866143655,88.80000000000001,0.3300991711005097
1306893706.78,4.9689868,4.41621,2659.7113712,-0.1,26.2,83.1,1524740.9608652,-549323.4099668,-1.0,303.59196350255155,102105.30027328126,301.0644107860594,0.0775167527548402,3.5603306448472516,91.60000000000002,0.33038287626236446
1306893707.2,4.9696486,4.4162328,2705.1510052,-0.3,25.4,83.1,1524916.0921043998,-549300.2800448,-1.0,291.164955811447,101073.02190352468,299.7073895684497,0.07838588575677873,3.558576485157244,91.1,0.33077076996315186
1306893707.62,4.9703201,4.4162565,2755.6759411999997,-0.5,22.2,83.1,1525093.7495904,-549276.6579967999,-1.0,297.3640345370739,100951.13565540581,298.899952036136,0.07937264058120301,3.6639737019455003,89.4,0.3312747179071589
1306893708.04,4.9710019,4.4162814,2807.6116384,-0.5,17.3,83.1,1525274.1957904,-549252.3469724,-1.0,302.4384289151297,97801.92041982674,298.28791670283044,0.07935681856801641,3.6972125725554488,92.0,0.3318980118704134
1306893708.46,4.9716837,4.4163073,2855.9384116,-0.7,13.0,83.1,1525454.5435652002,-549227.6750556,-1.0,300.76585206373403,94178.53767198608,297.54319888903206,0.07781539153435402,3.7088752518846735,92.1,0.33263207792465666
1306893708.88,4.9723809,4.4163347,2898.6877568,-0.7,9.0,83.1,1525638.99239,-549202.1501204,-1.0,305.1207225192948,91493.54512315484,297.3474984436925,0.07789213578044558,3.6284579728664483,94.1,0.33346083995440295
1306893709.3,4.9730778,4.4163628,2933.07096,-0.7,5.8,83.1,1525823.3427896,-549176.3299096,-1.0,302.21818099285514,87243.55398903151,296.8025652213251,0.07745556855782658,3.622250569886718,95.3,0.3343543657636768
1306893709.73,4.9738026,4.4163926,2959.5473388,-0.7,3.8,83.1,1526014.9438456001,-549149.2629796,-1.0,304.54813292254335,83924.03407539004,296.7225635444315,0.0791554464610656,3.726327553333565,94.5,0.3352758333927232
1306893710.15,4.9745176,4.4164224,2977.1326412,-0.7,2.7,83.1,1526204.0186547998,-549122.4585168,-1.0,306.15486037172275,83161.85182625317,299.45387393591665,0.07859264707726246,3.72195074928491,96.90000000000002,0.3361851291057591
1306893710.57,4.975241,4.4164527,2987.7297544,-0.7,3.6,83.1,1526395.3244352,-549095.2275448,-1.0,308.9781547340278,83200.41967541388,297.2896182102366,0.07864304902000688,3.7748584710612754,96.80000000000001,0.3370451247313058
1306893710.99,4.9759429,4.4164823,2994.1930092,-0.7,7.7,83.1,1526580.8887456001,-549068.7839744,-1.0,299.27638956528807,84003.6755941283,296.1046461456546,0.07752566179742965,3.7533769454096664,96.50000000000001,0.33782558186166456
1306893711.41,4.9766597,4.4165127,3000.7874976,-0.7,7.4,83.1,1526770.4884892,-549041.6514276001,-1.0,305.9167501917297,87505.9596246925,296.42201350653113,0.07513350938839912,3.6209091378922085,94.60000000000001,0.338515400321857
1306893711.83,4.977378,4.4165434,3007.2835608,-0.7,6.7,83.1,1526960.3507,-549014.4204556,-1.0,306.353024161384,89986.58305560389,296.0154903172039,0.07245651752606642,3.6179089853887274,96.30000000000001,0.3391024847488036
1306893712.25,4.9780894,4.4165739,3013.0578391999998,-0.7,6.1,83.1,1527148.4740656,-548987.3535255999,-1.0,303.4814859722315,92389.56727867617,295.8294883020053,0.07137833761527512,3.628692245345702,95.70000000000002,0.339581859201997
1306893712.67,4.9787973,4.4166045,3017.8150572,-0.7,5.7,83.1,1527335.6131792,-548960.4178292,-1.0,301.8236702594986,95073.01784468326,296.8330965122832,0.0719641718658161,3.691386150159403,93.2,0.3399595713629769
1306893713.09,4.979512,4.4166355,3021.5880232,-0.7,5.5,83.1,1527524.5567547998,-548933.1212404,-1.0,304.76468276323334,96191.90374165424,294.53987706136337,0.07210560246182836,3.63773552424823,91.60000000000001,0.340246338642067
1306893713.51,4.9802335,4.4166669,3024.3767372,-0.7,5.3,83.1,1527715.3704092,-548905.5621844,-1.0,307.80128243587393,96576.74406015378,293.5824184398766,0.07347899034714428,3.693512809038612,91.70000000000002,0.3404593854487162
1306893716.03,4.9845086,4.4168547,3029.199572,-0.1,5.6,83.1,1528845.4885556002,-548741.5201844,-1.0,303.7623253225273,96805.98534457058,294.3239532202397,0.07285506522203472,3.686245720200879,92.50000000000001,0.3406219073209821
1306893717.71,4.9873518,4.4169804,3030.6103332000002,-0.0,5.6,83.1,1529597.1289996,-548632.071362,-1.0,303.05038569989506,96436.60473827133,293.19227183289365,0.07490465068937299,3.775685342081759,90.20000000000002,0.3407466885983224
1306893720.23,4.9916345,4.4171701,3034.5801496000004,0.1,5.6,83.1,1530729.21565,-548466.9794932001,-1.0,304.3241594621881,95471.75756502163,294.70957316817686,0.07221470089098482,3.7423631945019307,90.90000000000002,0.3408560061836243
1306893722.75,4.9959056,4.417359,3038.87805,0.1,5.6,83.1,1531858.2511192,-548302.4781756,-1.0,303.4857399153703,95556.05011000061,294.8166428448404,0.07322150987630092,3.768408008135936,90.00000000000003,0.3409602712754879
1306893726.53,5.0023294,4.4176415,3045.111646,0.1,5.6,83.2,1533556.3810947998,-548055.463732,-1.0,304.3108882033968,95434.71367054562,294.4397076487297,0.07380119094314676,3.8860084259880088,89.90000000000003,0.3410636942851116
1306893736.21,5.0187482,4.4183539,3061.0893367999997,0.1,5.6,83.2,1537896.9324148,-547427.0844467999,-1.0,303.7093548347894,95481.10021835765,295.30636056364614,0.07573532439985665,3.830296904589378,89.30000000000001,0.3411892410917608
1306893739.15,5.0237426,4.4185684,3065.9449799999998,0.1,5.6,83.3,1539217.3720896,-547236.566068,-1.0,304.19111807433114,95769.3237943861,294.14878869287116,0.07926432437543995,3.8043437508066296,89.80000000000001,0.34131264441634523
1306893762.28,5.0629573,4.4202353,3104.1339576,0.1,5.6,83.4,1549584.9249147999,-545744.111952,-1.0,303.5597932601345,96168.62206219732,293.7423447367967,0.07758854212389961,3.815283377180865,90.1,0.34151405517750005
1306893767.78,5.072282,4.4206289,3113.189076,0.1,5.6,83.4,1552050.2793244,-545389.5187648,-1.0,303.56672568218454,96255.92998738251,293.6051845252668,0.07752986659592823,3.88945318319905,90.6,0.3417277909605272
1306893774.09,5.0829661,4.421079,3123.6221472,0.1,6.0,83.4,1554874.8529056,-544983.2195392,-1.0,303.1459563992371,96148.56298844027,294.8897657872703,0.07773364514823923,3.8230205341293666,91.5,0.34195936357645024
1306893774.51,5.0836856,4.4211092,3124.8688664,0.1,8.6,83.4,1555065.1416256002,-544955.8245252,-1.0,306.89692463051574,96068.80294543745,296.45932907588127,0.07778624084542339,3.779230640672216,89.10000000000001,0.34218259192290695
1306893774.93,5.0843914,4.4211389,3128.8714912,0.1,13.7,83.4,1555251.7558048,-544929.0200623999,-1.0,300.9236854503222,95675.63448614583,295.7660837061093,0.07879393711689636,3.771190227632298,89.30000000000001,0.34241186795090345
1306893775.35,5.0850949,4.4211682,3139.2389456,0.1,19.0,83.4,1555437.7466244,-544902.3468332001,-1.0,300.2957519636123,95824.20278696624,294.39614912367705,0.07871936806346347,3.869578579178891,89.10000000000001,0.3426560718004222
1306893775.77,5.0857923,4.4211971,3158.2678176,0.1,21.7,83.4,1555622.0642156,-544876.001688,-1.0,298.66551086849535,95930.34088280261,293.79589977449155,0.07938150026175515,3.8890542542093938,90.80000000000001,0.3429346479159078
1306893776.19,5.0864764,4.4212253,3185.7940651999997,0.1,24.2,83.4,1555803.03535,-544850.1814772,-1.0,294.97323807619864,96089.41550922427,295.8034143397862,0.08072338121871353,3.859963099132761,93.60000000000001,0.3432629068835368
1306893776.61,5.087143,4.4212529,3220.96467,0.1,25.3,83.4,1555979.2820748,-544824.9518176,-1.0,289.52555318723205,96605.55863641373,295.64938461140866,0.07856887234717505,3.8276951767116665,93.40000000000002,0.34363594931573277
1306893777.03,5.0878111,4.4212809,3263.2218892,0.1,23.7,83.4,1556155.8240752001,-544799.5909244,-1.0,292.49886558095244,96813.31140237571,297.2190600060427,0.07791751750292317,3.8065031651561374,90.70000000000002,0.34409626208913613
1306893777.45,5.0884812,4.4213098,3309.54735,0.1,19.8,83.4,1556332.9894352,-544773.8363304,-1.0,295.1618916662636,95610.94676505543,296.68513577036407,0.08080535000359874,3.741322045366421,93.00000000000003,0.3445755599893986
1306893777.87,5.0891563,4.4213398,3355.8400024000002,-0.3,14.9,83.4,1556511.4999396,-544747.5896104,-1.0,297.33758015440884,93523.02563291407,296.8298908767179,0.07838234728514477,3.6719952275185754,91.20000000000002,0.3451417454662139
1306893778.29,5.0898273,4.4213706,3397.473862,-0.3,10.6,83.4,1556688.7637248,-544721.0804232,-1.0,293.6109567577946,90377.65297903592,295.3929690563488,0.07961292777593561,3.6767458261213304,90.9,0.3457807327802997
1306893778.71,5.0905225,4.4214035,3433.4974852,-0.2,7.0,83.4,1556872.4907648,-544693.3245168,-1.0,302.1020322660022,86354.88044714784,293.87964108040086,0.07720272264041077,3.585330589561143,90.60000000000001,0.346500866201122
1306893778.92,5.0908685,4.4214202,3448.3596903999996,-0.2,5.6,83.4,1556963.8293504,-544679.3809468,-1.0,298.6474495448684,82323.72301697014,295.77635968339337,0.07767342715956901,3.5572920230211533,89.30000000000001,0.34724633864206694
1306893779.13,5.0912171,4.4214371,3461.2205832,-0.1,4.6,83.4,1557055.9225292,-544665.3061432,-1.0,300.1264374746928,80061.53963073147,295.93042113264966,0.07984646930354002,3.4353990120377422,88.80000000000001,0.347997629105759
1306893779.34,5.0915764,4.4214546,3472.3098223999996,-0.1,3.8,83.4,1557150.8372304,-544650.7720219999,-1.0,308.59151552249494,78855.8714903158,296.19950289809054,0.07985467913020558,3.444777569379327,87.7,0.3487303937601772
1306893779.55,5.0919198,4.4214715,3481.0368568,-0.0,3.2,83.4,1557241.5852648,-544636.8284519999,-1.0,294.1887990431777,77230.94411373296,296.3298128905552,0.07835997770992945,3.469302790872745,84.5,0.34941929358519913
1306893779.76,5.0922686,4.4214887,3488.0906628000002,-0.0,2.8,83.4,1557333.7440604,-544622.6224148,-1.0,298.3530477793708,80096.72735683997,295.95749809492753,0.0796459216138018,3.527205915100698,85.70000000000002,0.3500425875484537
1306893779.97,5.0926194,4.421506,3493.5368571999998,0.1,2.7,83.4,1557426.3293652001,-544608.3179524,-1.0,299.4096178412922,82234.24224173538,296.3161132221051,0.08003702908999724,3.5694945353889915,86.50000000000001,0.3505799891232569
1306893780.18,5.0929671,4.4215233,3497.5394819999997,0.1,2.6,83.4,1557518.1928852,-544594.1119152,-1.0,296.80649428606233,83774.70658662613,298.69009468866625,0.07951187108431465,3.6486880310138163,86.50000000000001,0.3510186374172201
1306893780.4,5.0933316,4.4215414,3500.3938128000004,0.2,2.6,83.4,1557614.4855392,-544579.24971,-1.0,296.8137537693101,87426.40089905904,298.8300306868116,0.07973382994875276,3.756867616752342,86.80000000000001,0.3513559296306934
1306893780.61,5.0936978,4.4215596,3502.0998496,0.2,2.8,83.4,1557711.2703192001,-544564.2890796,-1.0,312.7321944322502,89679.03644558371,299.9290531236322,0.07936278133995416,3.7617022992341176,85.9,0.35160005692728136
1306893780.82,5.0940457,4.4215769,3502.8216344,0.3,3.0,83.4,1557803.1338392,-544550.0830424,-1.0,296.53110068428845,85950.32820129441,298.9672889418922,0.08243535814481884,3.8409385611297875,87.30000000000001,0.3517618132702385
1306893781.03,5.0943903,4.421594,3502.8872512000003,0.3,3.2,83.4,1557894.1771492,-544535.9754304,-1.0,293.83982174929804,87328.60848476224,296.2474677462714,0.08023541374933238,3.858856967105723,89.9,0.3518890442413671
1306893781.25,5.0947549,4.4216121,3502.3295084,0.3,3.5,83.4,1557990.4369947999,-544521.1132252,-1.0,296.58608263469824,88363.6923330674,296.1357572266792,0.07771562728056196,3.837037570755864,89.7,0.3519849650637643
1306893781.46,5.0951195,4.4216302,3501.3780648,0.4,3.8,83.4,1558086.7952656,-544506.25102,-1.0,311.28365335813123,86666.65338634781,295.4690156738847,0.0777710132756179,3.7360372748865136,89.60000000000001,0.3520527909605272
1306893781.67,5.0954691,4.4216475,3500.1641539999996,0.4,4.0,83.4,1558179.0852947999,-544492.0121744,-1.0,297.9349810620316,88095.14079239812,294.85477603215907,0.07823803760201858,3.723334507262645,91.60000000000001,0.35209742131923233
1306893781.88,5.095817,4.4216647,3498.7862012,0.4,4.3,83.4,1558271.04724,-544477.8061372,-1.0,296.8725044775619,90983.13884603414,297.06847402734013,0.07886601482290655,3.6769168623662796,91.4,0.35212237757470044
1306893782.09,5.0961633,4.4216818,3497.3098232,0.4,4.6,83.4,1558362.5170592,-544463.6985252,-1.0,295.2524781402155,89862.76369127641,295.33383325869573,0.07615451844390321,3.7305437217565744,91.60000000000002,0.352131181161752
1306893782.3,5.0965129,4.421699,3495.8334452,0.4,4.8,83.4,1558454.77428,-544449.4924880001,-1.0,297.82825268755573,89678.018722084,295.4897571477989,0.07598927985830604,3.6465232862086543,91.2,0.35212720040934614
1306893782.51,5.0968642,4.4217162,3494.3898756,0.5,5.0,83.4,1558547.6548604,-544435.1880255999,-1.0,299.87448088971576,92265.32065411356,297.260176174314,0.0786579978668685,3.6481147664041482,91.80000000000001,0.35211319122299434
1306893782.72,5.0972139,4.4217333,3493.0447312,0.5,5.2,83.4,1558640.0433148,-544421.0476052,-1.0,298.21727096840664,91254.31548043892,297.85800148936914,0.07512505825103472,3.5658408890819935,90.0,0.35209206261407056
1306893782.93,5.0975736,4.4217509,3491.7980119999997,0.5,5.4,83.4,1558734.9908244,-544406.4478672,-1.0,306.64305009614594,90972.56765531968,298.72576946682284,0.0747752512411094,3.624259417732898,87.8,0.3520663408292936
1306893783.14,5.09792,4.4217677,3490.7481432,0.5,5.5,83.4,1558826.5262604,-544392.4058719999,-1.0,295.4171606352839,89146.79915294393,299.18638604152875,0.07613719235608307,3.5753003792787967,86.8,0.35203801624486675
1306893783.36,5.0982865,4.4217855,3489.7638912,0.5,5.7,83.4,1558923.3110404,-544377.5764752,-1.0,298.19775622728525,89386.16775096377,299.5476686550836,0.0768256750608858,3.6244264407909177,88.39999999999999,0.35200869647233823
1306893783.57,5.0986363,4.4218025,3489.009298,0.5,5.8,83.4,1559015.6994947998,-544363.4688632,-1.0,298.1819011852371,87199.63646848312,301.2063964763692,0.07476045740376193,3.682201309728216,89.4,0.3519798360173951
1306893783.78,5.0990011,4.4218201,3488.4187468,0.5,5.8,83.5,1559112.1889992,-544348.7707,-1.0,311.62878735364416,87998.84935972739,301.64688245630333,0.07313884969666024,3.688598797156039,87.2,0.35195243006813876
1306893783.99,5.0993426,4.4218365,3487.9922376000004,0.5,5.9,83.5,1559202.2808656,-544334.991172,-1.0,290.643687527169,87645.03535417456,298.79065408136887,0.07451172768802287,3.6807959399291263,85.39999999999999,0.3519272441538781
1306893784.63,5.1004172,4.4218881,3487.9922376000004,0.5,6.0,83.5,1559486.3031843998,-544291.7825092,-1.0,300.79786787366254,90943.36401755527,298.8324096334466,0.07576745547117752,3.664498890827276,87.0,0.35190550312150715
1306893784.84,5.100762,4.4219045,3487.5985367999997,0.5,6.0,83.5,1559577.3464944,-544277.9373644,-1.0,293.73502795226204,91255.8189510644,298.840144942993,0.07586090348518497,3.6486503218898805,84.7,0.3518862883358553
1306893785.05,5.1011152,4.4219213,3487.7625787999996,0.5,5.9,83.5,1559670.6207756,-544263.7641356,-1.0,301.05239221210627,93136.32343055189,298.89330706596616,0.0734046647967498,3.585107310308372,86.60000000000001,0.3518708246438168
1306893786.32,5.1032411,4.4220217,3489.9279332,0.5,5.8,83.6,1560232.3662004,-544178.7903796,-1.0,299.75703101526994,96370.5878330756,299.3949145607174,0.07491049453379447,3.610779731869402,89.80000000000001,0.35186355211538284
1306893787.37,5.1050038,4.422104,3492.1589044,0.5,5.7,83.6,1560698.1470552,-544108.6460204,-1.0,300.61644787752283,96453.94877209178,299.9097324260104,0.07245965219016512,3.5491784404357367,91.0,0.3518643941976226
1306893789.06,5.1078311,4.4222344,3495.2428939999995,0.5,5.7,83.7,1561445.25994,-543996.8021848,-1.0,299.53293043881644,95355.1269019187,300.9570783643183,0.07025972440817516,3.538659523886519,89.2,0.3518748819491536
1306893789.27,5.108181,4.4222504,3495.570978,0.4,5.7,83.7,1561537.6483944,-543983.0226568,-1.0,298.0412763494587,93029.78790221862,301.4430987184075,0.07060568009017536,3.527773211393115,90.60000000000001,0.35188843181792
1306893790.53,5.1102984,4.4223466,3497.4738652,0.4,5.7,83.7,1562097.2284648,-543899.7221292,-1.0,300.9017541937779,91189.33214882012,301.015384756699,0.07040489241911314,3.460411480148942,87.4,0.351908182474088
1306893792.46,5.1135252,4.4224913,3500.2297707999996,0.4,5.7,83.8,1562950.0500144,-543773.4097892,-1.0,299.3339073282622,88256.54039734171,299.8928422835814,0.07303270315937807,3.42301712463841,90.30000000000001,0.3519357415292061
1306893792.88,5.1142214,4.4225223,3500.8531304,0.3,5.7,83.8,1563133.9739048,-543746.2116256,-1.0,296.5951971098876,89465.14413993388,300.3880698164298,0.06964996350942204,3.5062477383900235,90.80000000000001,0.3519657502781125
1306893794.36,5.1167001,4.4226318,3503.0184848,0.3,5.7,83.8,1563789.1248444,-543649.787738,-1.0,299.84638864022054,90112.6124302428,299.4410304757154,0.06786249442717868,3.461268758810566,88.6,0.3520008115204572
1306893796.89,5.1209329,4.4228167,3506.7914507999994,0.2,5.7,83.9,1564907.9897096,-543485.8441632,-1.0,299.5261415164555,91674.89919350515,298.44768394297637,0.06512043974654273,3.520515872183069,91.0,0.35204559498502414
1306893800.26,5.1265713,4.4230594,3511.7783276000005,0.2,5.7,83.9,1566398.4097048,-543268.7181719999,-1.0,299.51081581654927,91444.79699820759,298.81147059079814,0.06607377409303754,3.493823057277988,90.20000000000002,0.352101631730431
1306893802.36,5.1300973,4.4232097,3514.8951255999996,0.1,5.7,83.9,1567330.4635404,-543133.3835219999,-1.0,300.57771947476584,91287.13299422098,297.7688307768692,0.06540685387986857,3.5103240149601382,87.30000000000001,0.35215988851083346
