timestamp,longitude,latitude,altitude,roll,pitch,yaw,u,v,heading,air_speed,engine_0,engine_1,temperature_in,humidity_in,pressure_in,heart_rate,oxygen_mask
1306893620.77,4.1750173,6.0305932,-3.28084,-1.0,-0.1,-1.0,1269385.4080744,22358.071581599997,-1.0,88.33717676258054,7241.008994084028,7241.008994084028,300.7560302268272,0.07357186576368498,3.7103161144216164,86.30000000000001,0.31723880983818814
1306893623.5,4.1759972,6.0311472,-3.28084,-1.0,-0.2,-1.0,1269623.2689744,22579.397048,-1.0,88.33717676258054,7359.903122700289,7359.903122700289,301.1063024558066,0.07517438190337461,3.6733152715614548,85.50000000000001,0.31695150668858185
1306893625.18,4.1767354,6.0315645,-3.28084,-1.0,-0.3,-1.0,1269802.37003,22746.0965284,-1.0,106.47938537524396,5534.398633380042,5534.398633380042,301.25018897386326,0.07479103381542603,3.6925627445020712,83.30000000000001,0.31666435664483733
1306893631.49,4.1804544,6.0336669,-3.28084,-1.0,-0.7,-1.0,1270704.6994552,23585.9259516,-1.0,140.36009692729303,3762.4786698094863,3762.4786698094863,300.218390307526,0.0754359247663579,3.6569311782155705,82.9,0.3163773597069545
1306893632.33,4.1810648,6.034012,119.1929172,-1.0,0.4,-1.0,1270852.8621896,23723.7868484,-1.0,198.16543547579727,1936.787753626717,1936.787753626717,299.1690120554259,0.0779075291976158,3.7136838417119313,79.70000000000002,0.31637644107178386
1306893632.75,4.1813781,6.0341891,119.45538439999999,-1.0,3.4,-1.0,1270928.9448692,23794.521758799998,-1.0,175.79702180115996,1936.7877536267165,1936.7877536267165,299.1690120554259,0.0779075291976158,3.7136838417119313,79.70000000000002,0.31637644107178386
1306893633.17,4.1816964,6.034369,119.58661800000002,-1.0,5.4,-1.0,1271006.1430344,23866.4049632,-1.0,178.3944718747574,3762.4786698094863,3762.4786698094863,300.218390307526,0.07543592476635788,3.65693117821557,82.9,0.3163773597069546
1306893633.59,4.1820259,6.0345552,119.7178516,-1.0,6.7,-1.0,1271085.99868,23940.8144144,-1.0,184.34670430259325,5534.398633380041,5534.398633380041,301.25018897386326,0.07479103381542603,3.6925627445020712,83.30000000000001,0.31666435664483733
1306893634.01,4.1823516,6.0347394,119.78346839999999,-1.0,7.6,-1.0,1271165.0341156002,24014.3708472,-1.0,182.4265344185306,7359.903122700289,7359.903122700289,301.1063024558066,0.07517438190337461,3.6733152715614548,85.50000000000001,0.31695150668858185
1306893634.43,4.1826943,6.034933,119.8490852,-1.0,8.1,-1.0,1271248.2034096,24091.7330544,-1.0,191.5455011936899,7241.008994084026,7241.008994084026,300.7560302268272,0.07357186576368496,3.710316114421617,86.30000000000001,0.31723880983818814
1306893634.85,4.1830386,6.0351276,119.8490852,-1.0,8.5,-1.0,1271331.7664043999,24169.4889624,-1.0,192.44934059036524,5423.50150867348,5423.50150867348,299.29445961779845,0.06997245862650028,3.6801785713029527,86.50000000000001,0.31752611298779443
1306893635.27,4.1833909,6.0353268,120.078744,-1.0,8.9,-1.0,1271417.2650948,24249.049332399998,-1.0,196.7449400557753,3542.624743115805,3542.624743115805,298.6301674827699,0.06796204062623162,3.645062221862632,87.60000000000001,0.3178139520079169
1306893635.69,4.1837524,6.0355311,120.8005288,-1.0,9.4,-1.0,1271504.9291396,24330.6438232,-1.0,201.57056474091422,1690.2180145765876,1690.2180145765876,298.77357852268915,0.06760850904481579,3.727594754159896,87.70000000000002,0.3181034751925188
1306893636.11,4.184116,6.0357365,122.2769068,-1.0,9.7,-1.0,1271593.1837356,24412.73044,-1.0,202.82603897116957,223.47967548174816,223.47967548174816,298.5111901324371,0.06841102570172661,3.709283997421212,89.70000000000002,0.3183964432590105
1306893636.53,4.1844868,6.0359459,124.77034520000001,-1.0,9.9,-1.0,1271683.11156,24496.39186,-1.0,206.58136326088604,402.445201040928,402.445201040928,299.8391621967826,0.06692211958055766,3.5830774855502594,91.50000000000001,0.31840945725726066
1306893636.95,4.1848647,6.0361593,128.4120776,-1.0,10.1,-1.0,1271774.8766547998,24581.628083199997,-1.0,210.5464075775354,705.3832244698228,705.3832244698228,302.1835841556835,0.06817068025917941,3.620048753468386,93.20000000000002,0.31843035620739196
1306893637.37,4.1852516,6.0363775,133.366146,-1.0,10.2,-1.0,1271868.6758704,24668.832810400003,-1.0,215.20918509751363,935.7058768527903,935.7058768527903,301.8144280211601,0.07106157493800865,3.594445852239813,93.30000000000001,0.31846250843836305
1306893637.79,4.1856373,6.0365947,139.4685084,-1.0,10.3,-1.0,1271962.2782356,24755.676645199997,-1.0,214.65095989092373,1100.639806996698,1100.639806996698,299.7166156107272,0.07111964845279861,3.671760652116849,95.4,0.31850859330275505
1306893639.47,4.1872661,6.037508,177.6902944,-1.0,10.3,-1.0,1272357.7506892,25120.7685204,-1.0,226.10209374108226,1770.8185367843544,1770.8185367843544,298.80329374613876,0.06937493163257306,3.6962574293280475,94.0,0.3186437092257646
1306893641.15,4.1889912,6.0384637,236.08924639999998,-0.3,10.3,51.4,1272776.7467656,25503.3144644,-1.0,238.5511072062801,2077.598056980299,2077.598056980299,296.7247902997774,0.06990233721458418,3.570096717652212,91.8,0.3189149362598853
1306893641.57,4.1894384,6.0387091,253.5433152,-0.3,10.0,51.4,1272885.4409947998,25601.6084308,-1.0,246.62658543625543,2689.114156366087,2689.114156366087,298.1084200293647,0.07203681675832428,3.501051097945555,93.9,0.3192268894532362
1306893642.41,4.1903576,6.0392095,291.7322928,-0.6,10.0,51.4,1273108.9318156,25802.231796800002,-1.0,252.7592992849886,3131.0517287204184,3131.0517287204184,296.5995059758147,0.07417237798167191,3.484741854320716,91.5,0.31962741438761944
1306893642.83,4.1908229,6.039461,312.1391176,-0.7,10.0,51.4,1273222.1207956,25903.1176268,-1.0,255.36378553514845,3468.949393872547,3468.949393872547,295.35012551815373,0.07357202653663007,3.386684736519976,90.69999999999999,0.3200738710805328
1306893643.25,4.1912982,6.0397166,333.5958112,-0.7,10.0,51.3,1273337.7704056,26005.7094936,-1.0,260.36219806967256,3820.876073651075,3820.876073651075,293.8478546398216,0.07560748599510105,3.4240203863613408,91.1,0.3205669485083543
1306893643.67,4.191785,6.0399772,355.9055232,-1.0,9.6,51.3,1273456.3071547998,26110.3026728,-1.0,266.149717669745,4020.6407388977577,4020.6407388977577,292.27599796728447,0.07434216403289279,3.506056547121389,91.0,0.32110626390642955
1306893644.09,4.1922733,6.0402372,378.0183848,-1.2,9.3,51.3,1273575.2376048,26214.7646184,-1.0,266.4336725747084,4290.634125974189,4290.634125974189,291.0487890707213,0.07272115779160399,3.455114601428001,91.4,0.32168867860459227
1306893644.51,4.1927729,6.0405019,399.9015876,-1.4,9.0,51.2,1273696.9239604,26321.129451200002,-1.0,271.72720895104493,4924.253102345361,4924.253102345361,289.5375274997815,0.07059380804743932,3.427658598567832,91.60000000000001,0.322310594615091
1306893644.93,4.1932746,6.0407665,420.7021132,-1.6,8.7,51.2,1273819.1352504,26427.5270924,-1.0,272.16719965442206,5472.177575261232,5472.177575261232,291.3884330515006,0.0708164997630656,3.3752867070943013,91.10000000000001,0.3229668063386255
1306893645.35,4.1937906,6.0410376,440.58400359999996,-1.8,8.4,51.2,1273944.8570392,26536.582214000002,-1.0,279.0609862495024,6240.384373129785,6240.384373129785,293.81854601680203,0.07364433839584988,3.3607754861152728,89.70000000000002,0.3235802249737961
1306893645.77,4.1943116,6.0413104,458.85828240000006,-2.1,8.2,51.2,1274071.8583556002,26646.326312,-1.0,281.0529253561582,6998.852244453159,6998.852244453159,293.9245126700933,0.07581155072948788,3.4557897047552237,93.10000000000002,0.324100019374496
1306893646.19,4.1948464,6.0415897,475.6561832,-2.4,8.0,51.2,1274202.2717456,26758.7278904,-1.0,287.78416702749934,7464.41624606475,7464.41624606475,293.3126669074081,0.07545615139688787,3.4468915794181703,92.10000000000001,0.3246182827165783
1306893646.61,4.1953877,6.0418719,490.5511968,-2.7,7.8,51.0,1274334.2271304,26872.3105712,-1.0,290.64223605088057,7610.621213409919,7610.621213409919,293.51806511538814,0.07311627645265316,3.5198274394409648,94.2,0.32508219347773315
1306893647.03,4.1959356,6.0421572,503.47770640000005,-3.0,7.7,51.0,1274467.8229352,26987.1727796,-1.0,293.75587819600867,7804.054469226038,7804.054469226038,295.6098386339529,0.07492198409521272,3.5129423509506563,94.00000000000001,0.32552865017064647
1306893647.46,4.1965031,6.0424528,514.7966044,-3.3,7.8,51.0,1274606.1431496,27106.2016548,-1.0,296.885926197591,7990.772291529351,7990.772291529351,297.05948441648155,0.0742807034778897,3.5883526970068194,93.80000000000001,0.3259514520079169
1306893647.88,4.1970728,6.0427499,524.7375496,-3.6,8.0,50.8,1274745.0539152,27225.7882728,-1.0,304.97705603698785,8243.521701594955,8243.521701594955,298.3670210672826,0.07503111880947311,3.6272732709373092,92.20000000000002,0.32634539339024404
1306893648.3,4.1976481,6.0430506,533.9239016,-3.9,8.3,50.7,1274885.3098252001,27346.818460399998,-1.0,308.0995636482574,8551.400510057963,8551.400510057963,297.02942670441377,0.07646873794166589,3.725006674716327,89.5,0.3267091729178031
1306893648.72,4.1982314,6.0433564,543.0446368,-4.2,8.6,50.6,1275027.4030056,27469.817151999996,-1.0,312.44133487235933,9039.54668154456,9039.54668154456,299.8655370815079,0.07533446847141846,3.7725886579436168,87.3,0.32704317335524846
1306893649.14,4.1988151,6.0436635,552.3950308,-4.4,8.9,50.6,1275169.6274196,27593.340778,-1.0,313.1840640279583,9678.197031809228,9678.197031809228,297.44882054549424,0.0778751153666296,3.7793793164568825,86.4,0.32735045681981534
1306893649.56,4.1994174,6.0439816,562.6312516,-4.4,9.2,50.3,1275316.3465844,27721.2279212,-1.0,323.4042780177974,10286.938054832588,10286.938054832588,295.18108732467084,0.07789006980869835,3.8333889687288596,89.0,0.3276352337227025
1306893649.98,4.2000197,6.0443008,573.6876824000001,-4.4,9.4,50.2,1275462.9345156,27849.541573600003,-1.0,323.778026027724,10815.553835123337,10815.553835123337,296.06272391007417,0.07786460137262904,3.7618869621655158,89.50000000000001,0.32790316898079525
1306893650.4,4.2006361,6.0446289,585.958024,-4.4,9.4,50.0,1275613.0329456,27981.332916399995,-1.0,331.89100161001153,11772.352405953283,11772.352405953283,297.39737380243133,0.07643656104216859,3.803387264716196,88.70000000000002,0.32816053993442607
1306893650.82,4.2012537,6.0449586,599.2782344,-4.4,9.4,50.0,1275763.4594596,28113.7804272,-1.0,333.10418606930835,12389.423366631701,12389.423366631701,299.24400185422354,0.0768047555969204,3.723505337555855,87.20000000000002,0.32841423634737443
1306893656.92,4.2109859,6.0501151,940.7152532,50.6,23.5,57.8,1278133.243,30186.615139199996,-1.0,360.95372116273506,13092.568228324773,13092.568228324773,296.994919315186,0.07475567153127308,3.805750706317692,88.60000000000001,0.3294344572572607
1306893657.13,4.211358,6.0502554,964.6653852,52.6,24.2,59.4,1278225.4017956,30245.145324799996,-1.0,369.0891414937578,14602.88813787107,14602.88813787107,297.88498272348903,0.073147472440898,3.6970651640065046,89.0,0.3304841510455372
1306893657.34,4.2117294,6.0503854,989.2060683999999,53.8,24.7,61.1,1278317.6918247999,30299.9025444,-1.0,363.44711914910005,16460.135592828887,16460.135592828887,298.557750101578,0.07447708277582449,3.6285873191718276,91.7,0.3315679108880568
1306893657.55,4.2121049,6.0505071,1014.5341532000001,54.7,25.1,62.6,1278411.29419,30351.739816399997,-1.0,362.8718012766836,25704.221162959173,25704.221162959173,300.20803847409775,0.0748600633290003,3.6440407512394777,94.70000000000002,0.3326893347725713
1306893657.76,4.2124736,6.0506172,1039.862238,55.7,25.6,64.4,1278503.4529856,30399.2135712,-1.0,352.19351465991866,37793.67223801266,37793.67223801266,299.25089708483733,0.07515274698278077,3.6679814066187983,95.2,0.3338485758049422
1306893657.97,4.2128618,6.0507236,1066.929168,56.9,26.0,66.0,1278600.7627,30445.7358824,-1.0,366.5882191961348,51253.841579715976,51253.841579715976,300.4561677883136,0.0723807221333281,3.71268123449651,96.60000000000001,0.3350491554199903
1306893658.18,4.2132298,6.0508153,1092.8806124,58.0,26.4,67.8,1278693.2495796,30486.483915200002,-1.0,344.14190891432696,56143.21695800115,56143.21695800115,302.6991273053823,0.07098091967007453,3.703342985254282,95.70000000000002,0.3362864038889317
1306893658.39,4.2136222,6.0509037,1120.8661776,58.8,26.8,69.4,1278792.1669056,30526.510163199997,-1.0,363.35204919274736,52711.72110112049,52711.72110112049,303.7917707362582,0.06844330689563652,3.7501246129693913,91.9,0.33756315367020906
1306893658.6,4.2140008,6.0509797,1148.0315328000002,59.5,27.0,71.2,1278887.8362,30561.713576399998,-1.0,347.5149007307469,47526.080093208024,47526.080093208024,301.3744222169833,0.0686795516371232,3.78702127831431,93.80000000000001,0.33887465848210757
1306893658.81,4.2143796,6.051047,1175.4265467999999,59.9,27.2,72.8,1278983.80077,30593.8001916,-1.0,345.15916254057544,42636.038608773866,42636.038608773866,299.7328733470801,0.06863836057587838,3.8672342495397296,95.30000000000001,0.34021900450135517
1306893659.02,4.2147582,6.0511055,1202.9199859999999,60.3,27.5,74.6,1279079.9621903999,30622.671583600004,-1.0,342.5910943000622,41032.46676387621,41032.46676387621,300.1531036641677,0.07145234094787539,3.8585534201841827,95.90000000000002,0.34083081552497724
1306893659.23,4.2151455,6.0511567,1231.1680184,60.7,27.7,76.2,1279178.6170492,30649.0495372,-1.0,348.4248085864124,40215.376384282434,40215.376384282434,300.6209201038099,0.0728012384742186,3.8701105296096854,96.10000000000001,0.341452654982545
1306893659.44,4.215512,6.051197,1258.0052896,61.1,27.9,78.0,1279272.1209892,30671.031165200002,-1.0,328.0239955432087,39298.391386735144,39298.391386735144,300.99361614194777,0.07175416323645217,3.925375177778148,96.10000000000001,0.34207985314527467
1306893659.65,4.2158918,6.0512306,1285.8924296,61.4,28.1,79.6,1279369.29947,30690.8474388,-1.0,338.51622736506386,43714.12407122742,43714.12407122742,300.17968471730507,0.06842055985076777,3.7865806532130657,96.40000000000002,0.34271302243661333
1306893659.86,4.2162664,6.0512556,1313.4514855999998,61.7,28.3,81.4,1279465.3624652,30707.4156808,-1.0,332.7218338167307,44532.08191295454,44532.08191295454,299.6851161614436,0.0693630610567741,3.6976217713243265,95.20000000000002,0.34335139732725195
1306893660.07,4.2166499,6.0512729,1341.7323264,61.8,28.5,83.0,1279563.9845156001,30721.359250800004,-1.0,339.7795035688599,42389.32697901946,42389.32697901946,300.39883616352165,0.07289805309791346,3.689774203900775,94.90000000000002,0.3439926046763333
1306893660.28,4.217024,6.0512816,1369.4226159999998,62.0,28.7,84.8,1279660.3755947999,30731.9891724,-1.0,330.83962451088985,44518.02081367872,44518.02081367872,297.87821662994486,0.07164006518570094,3.73260261287336,96.10000000000002,0.34463786933075147
1306893660.49,4.2173902,6.0512824,1396.5551628,62.2,28.9,86.4,1279754.9950204,30739.5679128,-1.0,323.7256151111719,40997.12284501178,40997.12284501178,296.91451053098365,0.07339002753071423,3.7606036064683446,97.40000000000003,0.3452811436089667
1306893660.7,4.2177624,6.0512753,1424.1798356,62.3,29.1,88.2,1279851.2876743998,30744.357939199996,-1.0,328.59827265751784,40802.31864529095,40802.31864529095,297.2339170453046,0.07595422750628142,3.770257177800063,98.00000000000001,0.34592548962821434
1306893660.91,4.2181193,6.0512609,1450.7546396,62.4,29.3,89.9,1279943.9714044,30746.228018,-1.0,315.8740266640223,41249.01676825657,41249.01676825657,297.299428514292,0.07824229828155144,3.7161098600322395,98.9,0.34656792182418983
1306893661.12,4.2184749,6.051239,1477.2966351999999,62.5,29.5,91.7,1280036.4254756002,30745.3421912,-1.0,314.86696470863234,45654.696163975095,45654.696163975095,296.70047167052684,0.07886338973361055,3.6462788110724116,99.1,0.34720813398516964
1306893661.33,4.218839,6.0512089,1504.5276072,62.6,29.7,93.3,1280131.27456,30741.602033600004,-1.0,322.95421936273385,48265.90943299293,48265.90943299293,295.48807205796317,0.07868768070860857,3.6689714200732166,95.4,0.3478459730052922
1306893661.54,4.2191894,6.0511722,1530.839944,62.6,29.8,95.1,1280222.8428044,30735.237204,-1.0,312.13339777442314,49667.04049879355,49667.04049879355,293.916466890374,0.0774701812671906,3.690207078507976,92.79999999999998,0.34848258717852054
1306893661.75,4.2195463,6.0511272,1557.7428320000001,62.5,29.8,96.7,1280316.3467444,30725.952426800002,-1.0,319.22629508129586,50418.17043010944,50418.17043010944,294.4518505003236,0.07856134213242011,3.8330588075874346,90.19999999999999,0.34911690476382234
1306893661.96,4.2198863,6.0510769,1583.497426,62.3,29.8,98.5,1280405.6512092,30714.40387,-1.0,305.75904950193564,48975.98199371166,48975.98199371166,293.85897664726247,0.08025584735938356,3.963348426010726,91.89999999999999,0.3497470119379256
1306893662.17,4.2202262,6.0510195,1609.3176368,62.0,29.8,100.1,1280495.0540992,30700.2306412,-1.0,303.0181725422646,45617.572250709505,45617.572250709505,293.0148363583161,0.08005844216278007,3.906361593568343,92.40000000000002,0.35037137764221266
1306893662.38,4.2205737,6.0509531,1635.8924408,61.7,29.8,101.9,1280586.6879604,30682.9734228,-1.0,312.44227091508475,45938.84379623505,45938.84379623505,294.60047525089925,0.08331307942990024,3.878378562983896,89.4,0.35099314054684955
1306893662.59,4.2209047,6.0508828,1661.3189508,61.4,29.7,103.4,1280674.1551547998,30663.944550800003,-1.0,300.01506401070753,45223.62874155173,45223.62874155173,295.85893438812894,0.08184368951285982,3.791176793675106,91.4,0.35161092269908045
1306893662.8,4.221232,6.0508063,1686.6470356,61.1,29.7,105.1,1280760.9005644,30642.586282400003,-1.0,299.6097728794223,45110.679037613576,45110.679037613576,295.5656391147791,0.08216812742989378,3.755357794020964,91.4,0.3522233461461496
1306893663.01,4.2215635,6.0507217,1712.4672464,60.8,29.7,106.7,1280848.8598848,30618.3736832,-1.0,306.19833428517813,46633.50879404512,46633.50879404512,294.6152823187859,0.08082936144511928,3.72142466986375,88.30000000000001,0.3528340088758084
1306893663.22,4.221894,6.05063,1738.4186908,60.4,29.6,108.3,1280936.8192052,30591.503603600002,-1.0,308.8716446004201,44218.648649321876,44218.648649321876,294.6558090746571,0.0808034041059319,3.7476852849554643,89.10000000000001,0.35344329365271127
1306893663.43,4.2222144,6.050534,1763.779584,60.1,29.6,109.9,1281022.3178956,30562.9274872,-1.0,302.8821757106298,41926.300452781834,41926.300452781834,295.7824985758864,0.0818760360775705,3.716252788204198,91.90000000000002,0.3540482149125538
1306893663.64,4.2225338,6.0504311,1789.3045192,59.7,29.5,111.5,1281107.7509692,30531.7923156,-1.0,305.706287095287,42794.931132160615,42794.931132160615,295.4464953218138,0.08203492758072249,3.630711254083377,94.50000000000001,0.35465129890205516
1306893663.85,4.2228387,6.0503262,1813.9108191999999,59.4,29.5,113.0,1281189.4438852002,30499.640083600003,-1.0,295.32309038570236,38847.74321308507,38847.74321308507,296.1748730529098,0.08052377185047836,3.626730670506209,95.30000000000001,0.3552490241863946
1306893664.06,4.2231453,6.0502138,1838.9436283999999,59.1,29.5,114.6,1281271.7929692,30464.7975628,-1.0,300.99665961554916,41016.29645915416,41016.29645915416,296.6250107585314,0.07840489054890065,3.5931079298229163,94.69999999999999,0.3558450653062546
1306893664.27,4.2234521,6.0500943,1864.2717132,58.8,29.4,116.0,1281354.4045203999,30427.3631784,-1.0,305.4799174049688,43371.399465851224,43371.399465851224,297.0212708198076,0.07653080437212818,3.627661549571388,93.6,0.35643995813215135
1306893664.48,4.2237501,6.0499712,1889.2060972000002,58.5,29.4,117.6,1281434.8835256002,30388.419607599997,-1.0,301.32426962334307,42164.94004466097,42164.94004466097,297.4785152209163,0.07311271447382857,3.6198725885469965,95.4,0.3570310233115039
1306893664.69,4.2240464,6.0498417,1914.3373316,58.2,29.4,119.0,1281515.0672552001,30347.1466404,-1.0,304.1414728897628,43477.09041199899,43477.09041199899,295.8818852799675,0.0721586522001012,3.610273936879039,95.9,0.3576213995144786
1306893664.9,4.2243409,6.0497057,1939.6654164000001,57.9,29.4,120.6,1281594.9557092001,30303.445851599998,-1.0,307.2794218513169,43034.00827225923,43034.00827225923,296.66383343771594,0.06833784751913251,3.5757365331302626,94.30000000000003,0.3582117757174532
1306893665.11,4.2246197,6.04957,1964.0092491999999,57.7,29.4,122.0,1281670.80873,30259.5482124,-1.0,295.94215633535947,40279.66251707963,40279.66251707963,298.47641407320526,0.0694702478348557,3.667482582538433,94.4,0.35879870703853806
1306893665.32,4.2249099,6.0494213,1989.7966516,57.5,29.3,123.5,1281749.9753992,30211.123014,-1.0,313.5561393274558,40266.93780292835,40266.93780292835,299.3014500880845,0.06724295583848137,3.7463998881272373,91.2,0.35938525559496853
1306893665.53,4.2251819,6.0492746,2014.3701432,57.3,29.3,124.9,1281824.3848504,30163.1243248,-1.0,299.4059071912544,39281.11794950272,39281.11794950272,298.31934107056657,0.0649143174598922,3.769068177438605,91.1,0.35996996688105776
1306893665.74,4.2254503,6.0491227,2039.0748684,57.1,29.3,126.5,1281898.0069,30113.0915148,-1.0,301.1896034267686,39213.19280657876,39213.19280657876,298.71452565818186,0.06520461658207644,3.792310728449687,89.10000000000001,0.36055276434387495
1306893665.95,4.2257138,6.0489662,2063.7795935999998,56.9,29.3,127.8,1281970.4806556,30061.3198596,-1.0,301.5569610662638,41111.32073903473,41111.32073903473,299.4189564779328,0.06533994751459932,3.684903186075443,90.80000000000001,0.3611357914654847
1306893666.16,4.2259783,6.0488015,2089.07487,56.7,29.3,129.3,1282043.4793456001,30006.5298316,-1.0,309.1766489299295,41033.55428196457,41033.55428196457,298.5945555086846,0.06449839436393223,3.6386072559044607,91.5,0.36171943101054155
1306893666.37,4.2262325,6.0486354,2113.9436372,56.6,29.3,130.7,1282113.8205552,29951.0836356,-1.0,303.6754629690948,40447.88836592028,40447.88836592028,296.9302219646114,0.06471485672637292,3.5780866402993547,91.7,0.36230199881456604
1306893666.58,4.226479,6.0484667,2138.5499372,56.5,29.3,132.2,1282182.2260692,29894.554762400003,-1.0,301.062536222544,41282.6373741375,41282.6373741375,297.1690209102544,0.06831395205042529,3.491569763653315,91.5,0.36288380108928175
1306893666.79,4.2267248,6.0482907,2163.6811716,56.3,29.2,133.6,1282250.6972,29835.269983600003,-1.0,307.4382880062568,40699.41832000797,40699.41832000797,296.3133968115752,0.06948672202726901,3.6151033893367948,90.39999999999999,0.36346560336399736
1306893667.0,4.2269615,6.0481131,2188.484322,56.2,29.2,135.0,1282316.8389344,29775.26342,-1.0,303.3963401841554,39912.281597901194,39912.281597901194,296.4435113777942,0.07239212856032266,3.7061809199694884,92.0,0.3640461807918189
1306893667.21,4.2272036,6.0479228,2214.4685748,56.1,29.2,136.4,1282384.8179392,29710.7621056,-1.0,318.3843950880976,40787.716741551856,40787.716741551856,295.0036625735503,0.07253059083646476,3.7023700578026704,93.69999999999999,0.3646305858661846
1306893667.42,4.2274265,6.0477392,2239.0748748,56.1,29.2,137.8,1282447.5476,29648.262103600002,-1.0,301.2588680826729,40141.01223042462,40141.01223042462,294.5100838091074,0.07394132662637837,3.625670066368598,94.2,0.36521223503503847
1306893667.63,4.2276447,6.047551,2263.8124084,56.0,29.2,139.2,1282509.1617752002,29584.0560648,-1.0,302.92395509944885,40428.208475377505,40428.208475377505,295.63919054924,0.07461530868233397,3.6178141135345125,93.60000000000001,0.36579426696854683
1306893667.84,4.2278611,6.0473557,2289.042068,55.9,29.2,140.6,1282570.5791,29517.1597372,-1.0,309.2473119200791,40612.99273754536,40612.99273754536,294.78826790700384,0.07427905285028402,3.66023021600319,93.60000000000001,0.3663775237489493
1306893668.26,4.2282778,6.0469515,2339.9607048000003,55.8,29.2,143.4,1282689.6079752,29378.183354799996,-1.0,311.84401514767865,40933.696664438554,40933.696664438554,294.88415584537665,0.07656771214756745,3.7690821634995326,90.9,0.3670219463211277
1306893668.68,4.2286596,6.0465438,2389.7966644,55.8,29.2,146.2,1282799.7129656,29237.2384684,-1.0,305.2801690466446,40698.55295274442,40698.55295274442,296.8176704293585,0.07848590244745794,3.834337166044305,90.50000000000001,0.3677236304856072
1306893669.1,4.2290222,6.0461161,2440.6824927999996,55.6,29.2,148.9,1282905.4216304,29088.583608,-1.0,311.6469532057552,40382.332864494136,40382.332864494136,299.3978797073571,0.07681248113438997,3.8252320926051326,89.80000000000001,0.36848602112427725
1306893669.52,4.2293529,6.0456833,2490.9121532,55.5,28.8,151.6,1283003.1250456,28937.468117599998,-1.0,307.8562625175693,40565.53311959511,40565.53311959511,299.63493490316324,0.07393778672735979,3.844862661256321,87.60000000000001,0.36930819960196765
1306893669.94,4.2296621,6.0452338,2541.7651732,55.4,26.3,154.1,1283095.6119252,28779.8237556,-1.0,312.8645678040109,40457.13470613776,40457.13470613776,302.2802316342599,0.07635616253553074,3.766699868546712,88.5,0.3701903955774707
1306893670.36,4.2299461,6.0447821,2590.879348,55.2,21.8,155.8,1283181.7339752,28620.834249199997,-1.0,309.3135204725193,40465.78724932285,40465.78724932285,301.9383258551863,0.07428090139716419,3.654216079880103,88.80000000000001,0.37112931727475845
1306893670.79,4.2302287,6.0443059,2639.2389296,54.9,16.3,156.5,1283268.1841092,28452.920858,-1.0,314.43635812571034,41106.5858130636,41106.5858130636,302.8870393287267,0.07224629309884552,3.5906053585391438,88.8,0.3721204480709089
1306893671.21,4.230505,6.0438315,2682.3491672,54.7,12.3,156.5,1283352.9610148,28285.5652096,-1.0,317.8777132210107,41076.80304642249,41076.80304642249,304.52953714850804,0.07072279240792506,3.661907096774794,91.50000000000001,0.3731547547200778
1306893671.63,4.2307883,6.0433477,2720.4069111999997,54.7,10.0,156.4,1283439.7064244,28114.8959128,-1.0,322.28687808522614,40739.67301942351,40739.67301942351,303.34303895896244,0.06880850964821957,3.754259796388781,91.30000000000001,0.3742201418591855
1306893672.05,4.2310735,6.0428652,2752.3294843999997,55.1,8.7,156.2,1283527.0423852,27944.6859336,-1.0,320.2740455744278,40698.55320161611,40698.55320161611,303.4749277981323,0.07015414341505813,3.6501609310548706,93.50000000000001,0.3753011457961933
1306893672.47,4.2313708,6.0423639,2779.5604564,55.6,8.3,156.2,1283617.98727,27767.9470828,-1.0,331.11090139387704,40057.57944920046,40057.57944920046,303.07201041817484,0.06888360478737399,3.5277753562107947,93.30000000000003,0.3763268785171032
1306893672.89,4.2316632,6.0418663,2801.3124256,56.2,8.3,156.6,1283707.4885852002,27592.4221428,-1.0,327.2627097499374,40171.334804549886,40171.334804549886,302.7274637834058,0.066647499456806,3.397465935360049,94.10000000000001,0.3772870819291767
1306893673.31,4.2319585,6.0413509,2819.1601952,56.9,8.6,157.3,1283798.3350447998,27410.499564799997,-1.0,336.9153563872312,39968.18075035177,39968.18075035177,301.9114274088043,0.06905215551503624,3.438616398318535,95.40000000000002,0.3781701965398504
1306893673.73,4.2322358,6.0408459,2832.9069148,57.5,9.0,158.3,1283884.2602444,27231.9890604,-1.0,328.0431780432477,40324.90587255049,40324.90587255049,300.6499180466675,0.06882063995911429,3.529472474604658,97.80000000000003,0.37896818429138146
1306893674.15,4.2325039,6.0403272,2843.8977288,58.0,9.5,159.7,1283968.1185148,27048.2948288,-1.0,334.09912835483175,40556.716816329084,40556.716816329084,298.73995020679024,0.0677639856528444,3.6217577526899842,97.30000000000001,0.37967316023188885
1306893674.57,4.2327583,6.0397931,2852.5919548,58.4,10.0,161.4,1284048.8927956,26858.695085199997,-1.0,340.8433368516483,40880.97064909623,40880.97064909623,299.2004287521774,0.06764494101818981,3.638525402631717,94.80000000000001,0.3802838229615477
1306893674.99,4.2329883,6.0392572,2859.25206,58.7,10.4,163.3,1284123.3350552002,26667.979855999998,-1.0,338.7258332392024,42522.53147253648,42522.53147253648,298.0241752442365,0.07031797913815799,3.7284927854665755,96.4,0.3807971869160533
1306893675.41,4.2331899,6.0387236,2864.3045536,58.7,10.8,165.5,1284190.49385,26477.527094,-1.0,334.3585444639604,44151.123988502986,44151.123988502986,297.1126761572363,0.07259977118411035,3.724087866143987,96.1,0.38122174947073406
1306893675.83,4.2333647,6.0381824,2868.27437,58.7,11.1,167.8,1284250.9925396,26283.793492,-1.0,336.19782011480555,45872.86030617744,45872.86030617744,295.8416931936003,0.0738016543241894,3.64108882692605,96.5,0.3815667735302266
1306893676.25,4.2335083,6.0376423,2871.2927428,58.7,11.4,170.2,1284303.2891292,26089.7974228,-1.0,333.10595042495635,47938.85367277641,47938.85367277641,297.76591528999404,0.07399739103011671,3.6687759338891515,93.30000000000003,0.3818443544576106
1306893676.67,4.2336236,6.0370832,2873.7533728,58.7,11.7,172.8,1284348.79438,25888.3538468,-1.0,342.42251719169906,48912.59236525757,48912.59236525757,296.3032538326448,0.07299393266643081,3.7535668627523777,96.00000000000003,0.3820641379221775
1306893677.09,4.233703,6.0365349,2875.65626,58.7,11.9,175.4,1284384.7851948,25690.125494,-1.0,334.4549679543071,49736.20328109792,49736.20328109792,294.48691045968945,0.07307776033608254,3.856749477811535,94.60000000000001,0.3822376068635599
1306893677.51,4.2337489,6.0359801,2877.2310632,58.9,11.9,178.1,1284412.2458256,25488.8131516,-1.0,337.4549332202612,50816.71164167925,50816.71164167925,294.9450539202066,0.07136574501606958,3.862096959715214,94.0,0.3823731055512239
1306893677.93,4.23376,6.0354328,2878.5433992,58.9,11.9,180.8,1284430.5201043999,25289.6005468,-1.0,332.59412960737745,51106.92071131684,51106.92071131684,293.5327245986562,0.07466644751860672,3.7468259069236773,94.19999999999999,0.3824795906780831
1306893678.35,4.2337359,6.0348757,2879.7245016,58.8,11.9,183.6,1284439.9361152002,25086.057233199997,-1.0,338.82755111456436,51021.05304835239,51021.05304835239,292.6353368015093,0.0736504368221599,3.678481135352381,91.1,0.38256318647860804
1306893678.77,4.2336759,6.0343216,2880.8071788,58.8,12.3,186.4,1284440.1329656001,24882.9076204,-1.0,338.02732213612626,51365.319105411305,51365.319105411305,294.39853414141527,0.07346303454826857,3.766379608544958,93.6,0.38262902199916793
1306893679.19,4.2335801,6.0337703,2881.8570476,58.8,12.3,189.2,1284430.81538,24680.0860916,-1.0,338.0241723237895,50709.70608088816,50709.70608088816,296.87541833592934,0.07008653181506967,3.647621299347167,94.1,0.38268176696854683
1306893679.61,4.2334495,6.0332267,2882.8412996,58.8,12.3,192.0,1284412.4754843998,24479.3643004,-1.0,335.7843416927256,49779.908215509124,49779.908215509124,296.7498499449179,0.06728561400384138,3.5615656811017744,92.0,0.38272501937449604
1306893680.25,4.233184,6.0324115,2884.350486,58.8,12.3,196.3,1284366.7405748,24176.9364692,-1.0,334.61352546124647,48718.6973264103,48718.6973264103,296.4971802442478,0.06919781402251114,3.5470672860494448,90.2,0.38276253031062907
1306893680.67,4.2329625,6.0318762,2885.3675464000003,58.8,12.3,199.1,1284324.6145892001,23977.428588799998,-1.0,339.92895574692153,46561.522186531576,46561.522186531576,294.2476258707968,0.07036639346310708,3.598968370390483,92.9,0.3827953715179781
1306893681.09,4.2327091,6.0313553,2886.3846068,58.8,12.3,201.9,1284273.7615692,23782.5138844,-1.0,336.0235593337497,45363.38342878231,45363.38342878231,293.4618617404343,0.07324102840899373,3.5241069342348244,90.70000000000002,0.38282484439636827
1306893681.51,4.2324189,6.0308386,2887.467284,58.9,12.3,204.8,1284213.3613047998,23588.3865816,-1.0,339.13515302743133,42239.988224290384,42239.988224290384,294.9854071716193,0.07391102514677753,3.4505519540577003,88.90000000000002,0.3828524034514864
1306893681.94,4.2320906,6.0303261,2888.5499612,58.9,12.3,207.7,1284142.92167,23395.046680400003,-1.0,335.4304619550844,40145.54479015008,40145.54479015008,293.2625012522002,0.0754809149070616,3.3765178884548526,86.4,0.38287881421264125
1306893682.36,4.2317372,6.0298371,2889.6654467999997,58.9,12.2,210.5,1284065.4282292,23209.7776456,-1.0,335.206814785709,37142.92068741868,37142.92068741868,295.9608411490609,0.07180549285521563,3.404085912312741,85.39999999999999,0.3829047656562108
1306893682.79,4.2313354,6.0293406,2890.8465492,59.2,12.2,213.4,1283975.5004047998,23020.801261599998,-1.0,341.0607380419344,34482.927389017816,34482.927389017816,298.27099541272986,0.07387033472338927,3.345528031457694,87.6,0.3829307170997804
1306893683.21,4.2309137,6.028873,2892.0276516,59.4,12.2,216.2,1283879.63426,22841.9954816,-1.0,338.57605110016806,32517.742369482938,32517.742369482938,295.39124331288576,0.07508497846325746,3.2720383142744778,84.59999999999998,0.3829568982021425
1306893683.63,4.2304571,6.0284159,2893.2415624,59.4,12.0,219.0,1283774.5489548,22666.2736912,-1.0,341.58148274391215,30686.67621990601,30686.67621990601,295.41907339697025,0.07859243098917024,3.323608875394838,81.7,0.3829834620691592
1306893684.05,4.2299631,6.0279683,2894.4882816,59.8,12.0,221.9,1283659.4242792,22493.3078064,-1.0,346.46066767996797,29439.40070682207,29439.40070682207,296.57901481592427,0.08147718138174759,3.302025337086595,83.30000000000001,0.38301063835962296
1306893684.47,4.2294417,6.0275399,2895.7678092,59.8,11.7,224.7,1283536.78648,22326.7395596,-1.0,344.890797784642,29687.79529162716,29687.79529162716,296.7597629278616,0.07950916979370862,3.4096245766444424,85.39999999999999,0.38303727877957044
1306893684.89,4.2288986,6.0271339,2897.0473368,59.8,11.7,227.5,1283407.8166596,22167.9469036,-1.0,341.1156015095725,30355.165484567224,30355.165484567224,297.6355152254888,0.07873837536122755,3.3223571370432734,83.20000000000002,0.38306453162296494
1306893685.31,4.2283108,6.0267341,2898.3596727999998,60.0,11.4,230.3,1283267.1342404,22010.4665836,-1.0,351.7301592342729,30572.26822096222,30572.26822096222,299.81062157062047,0.07862984717964934,3.357092125482131,84.70000000000002,0.3830924734427375
1306893685.74,4.2276903,6.0263505,2899.7048172,60.0,11.2,233.2,1283117.5607448,21858.3340328,-1.0,347.0934658213653,32749.648171843946,32749.648171843946,299.460777205367,0.07766159141549708,3.4652126059327006,88.10000000000002,0.38312102768595707
1306893686.16,4.2270425,6.025987,2901.08277,60.0,11.0,235.9,1282960.3757004,21712.8943956,-1.0,356.3146347447922,34137.23644128987,34137.23644128987,299.9202810272924,0.07873694837473817,3.5715029031465386,88.9,0.3831502709055546
1306893686.58,4.2263721,6.0256459,2902.4279143999997,60.0,10.8,238.6,1282796.6617844,21575.1975408,-1.0,355.7897527242648,36800.939453828316,36800.939453828316,298.36162835332146,0.08195590938093142,3.5615073484261077,89.5,0.3831800499956684
1306893687.0,4.2256841,6.0253291,2903.7730588,60.0,10.8,241.3,1282627.7969496,21446.03087,-1.0,353.4746314514876,40501.9235322744,40501.9235322744,296.515892263484,0.07915370437979721,3.58218094196489,90.0,0.3832102118504366
1306893687.42,4.2249617,6.025029,2905.1510116,60.0,10.5,244.0,1282449.4832956002,21322.244776800002,-1.0,360.5385373959591,43571.357986072835,43571.357986072835,297.89159554457217,0.07791005086278845,3.6233559195777776,90.9,0.38324083302279
1306893687.84,4.2242195,6.0247525,2906.4961559999997,60.0,10.3,246.7,1282265.46098,21206.6607836,-1.0,360.72703606373705,47331.892267335475,47331.892267335475,296.04575144128927,0.07492856050096634,3.665951670163393,90.0,0.383271760406867
1306893688.26,4.2234683,6.0245028,2907.8741088,60.0,10.1,249.3,1282078.3546747998,21100.689651599998,-1.0,356.80997043949145,51006.451236977555,51006.451236977555,295.8461421025984,0.07340319813071741,3.771299738123783,88.80000000000001,0.38330299400266754
1306893688.68,4.2226916,6.0242741,2909.2520616,60.1,9.9,251.9,1281883.9649047998,21001.8707508,-1.0,361.50312284257706,53338.029158553254,53338.029158553254,297.76709063020377,0.07245988016277577,3.73379487469305,87.60000000000001,0.38333445725726073
1306893689.1,4.2218827,6.0240658,2910.6628228,60.1,9.8,254.5,1281680.7496752,20909.810380400002,-1.0,369.4222429846307,56132.878339089955,56132.878339089955,298.1780374130537,0.07230635210989146,3.7801885493446585,89.60000000000001,0.3833662267235775
1306893689.52,4.2210559,6.0238824,2912.073584,60.1,9.6,257.0,1281472.2194848,20826.5098528,-1.0,371.5246092260642,59939.24578868708,59939.24578868708,296.5905317103993,0.06960763456119821,3.8598361159917287,90.60000000000001,0.3833982258486867
1306893689.94,4.2202167,6.0237252,2913.4843452,60.1,9.4,259.6,1281259.7850948,20752.4941024,-1.0,371.9115691412781,62915.472825034536,62915.472825034536,295.611949030017,0.07121021462739996,3.7726241993788086,90.4,0.38343037807965785
1306893690.36,4.219373,6.0235952,2914.8951064000003,60.1,9.4,262.1,1281045.2837756001,20688.255255199998,-1.0,369.9314728721599,66925.2419272775,66925.2419272775,296.24289642581095,0.07154948668618344,3.6593677693900197,89.30000000000001,0.3834626068635599
1306893690.78,4.2185081,6.0234898,2916.338676,60.1,9.1,264.6,1280824.7785192,20632.612208799997,-1.0,375.32568080927535,70439.37251895998,70439.37251895998,297.57975390324043,0.06891666601861189,3.747273286675051,87.4,0.3834950653062546
1306893691.2,4.2176461,6.0234118,2917.7822456,60.1,8.9,267.1,1280604.1420292,20587.0413412,-1.0,371.5759863952222,72768.27312418129,72768.27312418129,297.38970010940574,0.07163501402851492,3.725984424251075,85.80000000000001,0.38352775340774187
1306893691.62,4.2167489,6.0233586,2919.2586235999997,60.1,8.8,269.5,1280373.7614443998,20549.7709988,-1.0,384.38317578038186,73393.53145617952,73393.53145617952,298.50542586069855,0.07495528625713246,3.6749297018247518,85.00000000000001,0.3835606711680218
1306893692.04,4.2158664,6.0233334,2920.7021932000002,60.1,8.6,271.9,1280146.3336156001,20522.9993444,-1.0,376.9557755366729,75460.52405796744,75460.52405796744,300.3393214987047,0.07655050588104001,3.619328016286296,85.4,0.38359381858709457
1306893692.46,4.2149533,6.023335,2922.2113796000003,60.1,8.6,274.3,1279910.2443692,20505.414042,-1.0,389.1990653224537,75648.40286081117,75648.40286081117,301.2526629665164,0.07644057851384826,3.5380019706308565,84.90000000000002,0.38362727221789056
1306893692.88,4.2140517,6.0233639,2923.6877575999997,60.1,8.3,276.7,1279676.3532856,20497.966535199997,-1.0,384.42718995036245,77703.89926938765,77703.89926938765,300.44008623825795,0.07789398494532315,3.5437320152697502,87.00000000000003,0.3836609555074794
1306893693.3,4.2131571,6.0234191,2925.1641356,60.1,8.3,279.1,1279443.6433044,20500.32874,-1.0,381.99897982241106,79578.77830223928,79578.77830223928,298.8654266195197,0.07655707579094619,3.53745019904809,86.50000000000001,0.38369479190293
1306893693.73,4.212223,6.023505,2926.7389388,60.1,8.0,281.4,1279199.7128504,20512.9927824,-1.0,391.16085179472765,79473.37067155293,79473.37067155293,298.644049084332,0.0793377752730078,3.4516623202942527,84.60000000000001,0.38372901106303503
1306893694.15,4.2112922,6.0236191,2928.313742,60.1,8.0,283.7,1278956.0120552,20536.089895999998,-1.0,400.8888554321336,79800.47287843823,79800.47287843823,300.55013596715366,0.08113243358185804,3.515263999692669,81.7,0.3837636129877944
1306893694.57,4.2103837,6.0237583,2929.8557367999997,60.1,7.7,286.0,1278717.23252,20568.734254000003,-1.0,394.37989975061345,80473.04360341823,80473.04360341823,300.9319178209685,0.07831312697629667,3.5559846877077965,83.10000000000001,0.38379852112427726
1306893694.99,4.2094815,6.0239241,2931.3977316,60.1,7.6,288.3,1278479.37162,20611.1883236,-1.0,395.03059596106135,79169.18655366216,79169.18655366216,300.18845033104844,0.08033892336668165,3.485504069899817,82.9,0.38383365891955296
1306893695.41,4.2085781,6.0241174,2933.0053432,47.1,6.6,290.4,1278240.4936596,20663.6817636,-1.0,399.482420825882,78303.67859751158,78303.67859751158,301.7700724181314,0.07659671652804462,3.601793057134254,84.5,0.3838691794794829
1306893695.83,4.2076599,6.024334,2935.4331648,4.3,4.7,291.2,1277997.08814,20724.3773036,-1.0,409.43822679941144,79137.8855961186,79137.8855961186,301.48642370708126,0.07431525927444528,3.5630174617700168,85.8,0.3839069200744085
1306893696.25,4.2067531,6.0245511,2938.7468132,-16.9,4.7,291.0,1277756.6681847998,20785.4665444,-1.0,404.8719281355397,77015.92447100532,77015.92447100532,301.0310193422255,0.07387607947187226,3.6108908492571796,89.0,0.3839490241863946
1306893696.68,4.2057872,6.0247775,2942.7166296,-23.7,4.7,290.5,1277500.6642396,20848.7867564,-1.0,420.400752945277,75980.24123626348,75980.24123626348,299.8278409918715,0.07245702892881313,3.6336074782998633,89.7,0.3839968697681968
1306893697.1,4.2048518,6.0249896,2946.6864459999997,-36.0,4.9,289.8,1277252.9608196,20907.480984,-1.0,415.5844417411601,78975.2525307002,78975.2525307002,298.4904419748933,0.0742628212346442,3.6517620995297464,89.20000000000002,0.38405053337274625
1306893697.52,4.2038874,6.0251967,2950.787496,-44.3,5.3,288.8,1276997.8755096,20963.7801984,-1.0,426.5359164514773,81042.5425688465,81042.5425688465,298.96921542809304,0.07695205671815478,3.7297483641522104,90.5,0.3841103212117664
1306893697.94,4.2029225,6.0253889,2954.888546,-47.4,5.3,287.5,1276743.0854752,21014.633218400002,-1.0,424.4280228271271,85717.18382574285,85717.18382574285,299.8212225342388,0.0771359228378013,3.6822419920048532,89.5,0.38417600362646454
1306893698.36,4.2019409,6.0255676,2958.9567876,-51.1,5.7,286.1,1276484.3256243998,21060.2697028,-1.0,429.3924722340369,92137.20706359041,92137.20706359041,300.233453674645,0.0738757332828273,3.591123145241431,93.0,0.38424750406390984
1306893698.79,4.2008868,6.0257391,2963.1890712,-54.2,5.9,284.6,1276207.0946443998,21101.8379456,-1.0,447.56312007458496,96922.87706439331,96922.87706439331,299.29791509965855,0.0728363213630491,3.681911152046608,93.9,0.3843252818416877
1306893699.21,4.1998657,6.0258835,2967.191696,-55.6,5.9,282.9,1275939.18125,21134.187028,-1.0,441.39437063756094,103769.90340811106,103769.90340811106,298.13878683009847,0.07109610872726052,3.6607858749700135,94.5,0.3844088010892817
1306893699.63,4.198823,6.0260086,2971.128704,-56.8,5.9,281.2,1275666.1497452,21159.055795199998,-1.0,448.62565580101017,108776.89082703326,108776.89082703326,297.2457726409343,0.07129100812412097,3.5379487085387265,93.0,0.3844977555949685
1306893700.05,4.1977795,6.026111,2974.90167,-57.9,5.9,279.4,1275393.5447496,21175.6568456,-1.0,447.16813951370034,114982.9407789295,114982.9407789295,297.3222626005585,0.07168639582326125,3.597555898404844,94.1,0.38458984877082153
1306893700.47,4.1966928,6.0261933,2978.6746359999997,-58.5,5.9,277.6,1275110.4738744,21184.055795999997,-1.0,463.7955395608272,119174.63007300872,119174.63007300872,295.4748371233684,0.07240677034633229,3.5536618247730014,92.10000000000001,0.3846830136877069
1306893700.89,4.1956123,6.0262506,2982.28356,-58.9,5.9,275.8,1274829.5355452,21183.5308616,-1.0,460.38760433247916,124925.39561075745,124925.39561075745,294.7283278252654,0.0728380861334068,3.497427392806528,92.80000000000001,0.3847753365223525
1306893701.31,4.1944975,6.0262846,2985.8268672,-59.3,5.6,273.9,1274540.4279244,21173.7867668,-1.0,474.1675487440411,126063.44739371899,126063.44739371899,295.20609824786857,0.0697146786148271,3.403662913209289,90.40000000000002,0.3848666641688967
1306893701.73,4.1933886,6.0262931,2989.173324,-59.5,5.5,272.1,1274253.6497,21154.889128400002,-1.0,471.3796177684044,131690.58023468326,131690.58023468326,296.8634606294158,0.0692395004605799,3.3128087444913845,89.10000000000002,0.38495623109803057
1306893702.15,4.1922631,6.0262764,2992.454164,-59.5,5.5,270.2,1273963.1969348,21126.4442456,-1.0,478.83506476541623,134853.68994195331,134853.68994195331,296.26960014208964,0.06907115624822492,3.439148106836699,88.50000000000001,0.38504388420389235
1306893702.57,4.19113,6.026234,2995.6037703999996,-59.8,5.5,268.4,1273671.4974504,21088.5177352,-1.0,482.82693426428017,136871.92601660852,136871.92601660852,294.29372446723016,0.07068613499672059,3.4408115455799364,88.10000000000002,0.38512939382768935
1306893703.0,4.1899577,6.0261634,2998.7205684,-59.9,5.5,266.5,1273370.4803804,21039.534794,-1.0,489.1157182006511,140234.01079837923,140234.01079837923,295.2124741160945,0.07087887989236086,3.367942351991839,87.70000000000003,0.38521230065183637
1306893703.42,4.1888128,6.0260684,3001.6733243999997,-59.9,5.5,264.7,1273077.2717096,20982.2185192,-1.0,490.7635388375362,141023.81821547914,141023.81821547914,297.09466973301744,0.07073367487080662,3.413030618589218,89.90000000000002,0.38529275778219507
1306893703.84,4.187635,6.0259438,3004.5932719999996,-60.0,5.5,262.8,1272776.2546396,20913.4521128,-1.0,507.2405071145063,140665.9844268923,140665.9844268923,298.8130706348613,0.07376665412742285,3.4721893246586424,90.7,0.3853708417716964
1306893704.26,4.1864802,6.0257952,3007.3491776,-60.0,5.5,261.0,1272481.9961,20836.4179896,-1.0,499.992490443756,142338.2507399011,142338.2507399011,297.076563338587,0.07432635320765947,3.4952151571521135,89.39999999999999,0.38544655262034033
1306893704.68,4.1853439,6.0256229,3009.9738496,-60.0,5.5,259.2,1272193.0853296,20751.0833412,-1.0,495.45121063000363,143225.95499577778,143225.95499577778,298.0353532486921,0.07379068301712781,3.564775742670242,90.29999999999998,0.3855195841164033
1306893705.1,4.1841844,6.0254199,3012.5985216,-60.0,5.0,257.4,1271899.1220656,20654.1345192,-1.0,509.1081401744325,139481.67744839654,139481.67744839654,297.51668948317695,0.07642208288757434,3.565015047251637,91.9,0.3855903190245397
1306893705.52,4.1830358,6.0251911,3015.1247684,-60.0,5.0,255.5,1271608.5708752,20547.999345199998,-1.0,508.9679470591136,139507.72216297186,139507.72216297186,298.25635631888696,0.07862681655196663,3.6569785997363753,93.70000000000002,0.3856586807918188
1306893705.94,4.1819235,6.0249426,3017.55259,-60.0,5.0,253.7,1271328.0590552,20435.4009164,-1.0,497.69393558697004,134150.8038635379,134150.8038635379,298.3928913415979,0.07588747702077661,3.647091068775053,94.3,0.3857248990770332
1306893706.36,4.1808028,6.0246645,3019.9147948,-60.0,5.0,251.9,1271046.1036656,20311.844482,-1.0,506.92227629392056,124861.87154551291,124861.87154551291,297.8740648249766,0.0729402600923303,3.6261338299777153,96.30000000000001,0.38578897388018285
1306893706.78,4.17967,6.0243544,3022.309808,-60.0,5.0,250.1,1270762.01573,20176.4114068,-1.0,518.2697489338467,120140.42974354626,120140.42974354626,300.0709912816743,0.07319877521878576,3.6611250892831646,95.5,0.3858512879659221
1306893707.2,4.1785947,6.0240319,3024.5407792,-60.0,5.0,248.2,1270493.0852752002,20037.5990664,-1.0,498.83519719777206,116916.77756720633,116916.77756720633,300.6031028973954,0.07360420696093722,3.634946088583812,95.80000000000003,0.3859115351225275
1306893707.62,4.1775149,6.0236795,3026.7717503999997,-60.0,5.0,246.4,1270223.8595448,19887.7631036,-1.0,507.87722618359385,106939.1867770764,106939.1867770764,298.3304607635901,0.0753256048793153,3.6069787500570167,93.60000000000002,0.38597009811465355
1306893708.04,4.17644,6.0232991,3028.9699132,-60.0,5.0,244.5,1269956.6679352,19727.854962,-1.0,513.3476402045069,104513.52400260446,104513.52400260446,297.8415361526865,0.07534992945973819,3.624067183846035,93.00000000000001,0.3860269769423001
1306893708.46,4.175394,6.022899,3031.1024592,-60.0,5.0,242.7,1269697.38315,19561.352332000002,-1.0,508.22769263017676,102414.93403874103,102414.93403874103,299.41280452352396,0.07604000354698277,3.577147819197458,92.7,0.3860824012642599
1306893708.88,4.1743553,6.0224713,3033.2350051999997,-60.0,5.0,240.9,1269440.8542704,19384.9087568,-1.0,513.5769428839264,94471.24379522487,94471.24379522487,299.10908148882226,0.07765136299264146,3.4793588950815515,93.60000000000001,0.38613667729225637
1306893709.3,4.1733471,6.0220254,3035.3347427999997,-60.0,5.0,239.0,1269192.7571496,19202.461244399998,-1.0,508.20448849345945,91983.58745269806,91983.58745269806,301.07832717104037,0.0771286009248336,3.55010848347395,90.70000000000002,0.3861897284733587
1306893709.73,4.1723275,6.021542,3037.4672888,-60.0,5.0,237.2,1268942.6915248,19006.102970400003,-1.0,512.5354579896838,91175.09790001123,91175.09790001123,302.4198407812965,0.07569618855826377,3.5174515179036474,88.60000000000002,0.3862418610192904
1306893710.15,4.1713478,6.0210445,3039.5014096,-60.0,5.0,235.3,1268703.28863,18805.446796,-1.0,515.6084986348438,87098.48327743563,87098.48327743563,302.1886145373342,0.07742866622741505,3.525119872659618,89.60000000000001,0.38629307493005155
1306893710.57,4.1703809,6.0205198,3041.5683388,-60.0,5.0,233.5,1268467.9867852002,18595.1121436,-1.0,520.9678953253896,85886.43510430366,85886.43510430366,303.109406622995,0.07828891283670739,3.426865720667874,90.9,0.3863435998644348
1306893710.99,4.1694656,6.01999,3043.5696512,-60.0,5.0,231.6,1268246.1363843998,18383.8916644,-1.0,505.9892432704043,88511.97904514283,88511.97904514283,301.5290137048521,0.0795734115505008,3.4439565440008604,88.30000000000001,0.3863932061636474
1306893711.41,4.1685538,6.0194276,3045.5709635999997,-60.0,5.0,229.8,1268026.0904456,18160.925778,-1.0,517.351134639946,86543.08691055143,86543.08691055143,300.76164241529125,0.08140187516382939,3.4239830774363176,89.60000000000001,0.3864422765923438
1306893711.83,4.1676646,6.0188432,3047.572276,-60.0,5.0,227.9,1267812.54057,17930.3483428,-1.0,519.0779631263246,88858.05908059854,88858.05908059854,300.3669690061827,0.08195276002451629,3.4847597550692626,89.5,0.3864908111505241
1306893712.25,4.1668093,6.0182444,3049.54078,-60.0,5.0,226.1,1267608.2098547998,17695.21054,-1.0,514.6666040810593,92052.10130567163,92052.10130567163,300.4278073378689,0.07914860203740695,3.492016813278048,88.7,0.3865388098381881
1306893712.67,4.1659841,6.0176294,3051.509284,-60.0,5.0,224.2,1267411.9828144,17454.7577764,-1.0,512.8551120927071,93269.58440236415,93269.58440236415,299.0287273373539,0.07930118158073281,3.4836474648446294,87.2,0.38658642576119767
1306893713.09,4.1651782,6.0169898,3053.477788,-60.0,5.0,222.4,1267221.4644356,17205.7420204,-1.0,518.0722162449878,96817.2605135116,96817.2605135116,298.8396440999276,0.07898895891264135,3.4577441651637644,87.30000000000001,0.38663365891955287
1306893713.51,4.1643932,6.0163257,3055.4462919999996,-60.0,5.0,220.5,1267037.0484192001,16948.2288888,-1.0,523.3122143718294,101618.468014359,101618.468014359,298.97508721830445,0.07851860379364937,3.4795979479622563,88.9,0.3866805858661846
1306893713.93,4.1636569,6.0156617,3057.3491792,-60.0,5.0,218.7,1266865.19802,16691.6672008,-1.0,510.46225737309715,106446.3311918784,106446.3311918784,297.63260639837574,0.07814994489154731,3.465474531352649,91.5,0.38672697694230007
1306893714.35,4.1629342,6.0149665,3059.3176832,-59.3,4.9,216.8,1266697.6783296,16424.0162736,-1.0,521.7818697592379,110017.41131225656,110017.41131225656,298.4159422854433,0.07674656084506111,3.4954829821997864,90.40000000000002,0.38677321491255384
1306893714.77,4.1622425,6.0142573,3061.187762,-56.0,4.4,215.2,1266538.6560147998,16151.903404,-1.0,520.8579611369789,117479.65420310092,117479.65420310092,299.73576376189556,0.07804054122717811,3.5255996931483553,87.8,0.3868189935652222
1306893715.19,4.1615907,6.0135505,3062.8937988000002,-51.2,3.9,213.8,1266389.7714956,15881.430954399999,-1.0,510.42895828449423,122675.54079091961,122675.54079091961,298.6165568709937,0.0750416854502632,3.5264232827175603,90.9,0.38686408324151267
1306893715.61,4.1609389,6.0128092,3064.4357935999997,-46.5,3.5,212.6,1266241.9368452001,15598.3928876,-1.0,527.6044825073827,125084.56812327093,125084.56812327093,297.1989089124082,0.07477012148499042,3.521963838173502,91.10000000000001,0.38690810117677077
1306893716.03,4.1603182,6.0120732,3065.7153212,-41.5,3.2,211.6,1266102.0090192,15317.913875999999,-1.0,518.0653120880505,131708.83313231767,131708.83313231767,297.3951677338543,0.07459571931321812,3.566270996728326,91.20000000000002,0.38695043494754944
1306893716.45,4.159719,6.0113375,3066.76519,-36.6,3.0,210.7,1265967.4945792,15037.959798799999,-1.0,513.4316028448698,135303.70142947606,135303.70142947606,297.8598210789302,0.07414885759688554,3.5244094634700467,94.00000000000001,0.3869906252362634
1306893716.87,4.1591275,6.010589,3067.6838252,-32.0,2.8,210.0,1265835.4407692,14753.478162399999,-1.0,518.36781910346,134424.62458086165,134424.62458086165,299.16290550707714,0.07305933365924822,3.5302490813324034,96.30000000000001,0.38702836583118894
1306893717.29,4.1585449,6.0098321,3068.4712268,-27.7,2.7,209.4,1265705.8475892,14466.142195199998,-1.0,520.9142994043129,136173.85071718926,136173.85071718926,301.2756986861178,0.07064892340974752,3.645279779144249,96.30000000000001,0.3870633505206027
1306893717.71,4.1579737,6.009073,3069.1930116,-23.8,2.7,208.9,1265579.3055904,14178.2156768,-1.0,519.7705485034724,137360.68876782095,137360.68876782095,301.53150108402315,0.06806013330372494,3.6369988219926888,94.40000000000002,0.387095426198643
1306893718.13,4.1574083,6.008307,3069.9804132,-20.1,2.6,208.5,1265454.43682,13887.8941452,-1.0,522.2490134471032,134134.74807670517,134134.74807670517,300.27319882137556,0.07099089514078126,3.601157641509688,91.70000000000002,0.38712489907703324
1306893718.55,4.1568488,6.0075364,3070.8006232000002,-16.8,2.6,208.1,1265331.2084696,13595.997810400002,-1.0,523.5532326405372,136102.88654865944,136102.88654865944,298.9143190512153,0.07071420068347509,3.578846436068832,91.0,0.3871516926028425
1306893718.97,4.1563058,6.0067781,3071.68645,-13.8,2.6,207.8,1265211.8515104,13308.9243104,-1.0,513.8996320392756,138736.51854044053,138736.51854044053,298.04861990884996,0.0720774805574766,3.5714850410647485,92.69999999999999,0.3871761895407253
1306893719.39,4.1557534,6.0059979,3072.7363188,-11.1,2.6,207.6,1265090.6900892,13013.648710399999,-1.0,527.3223551169805,135898.01682293435,135898.01682293435,298.45042089647217,0.07191131825417549,3.5546157180743987,93.30000000000001,0.38719915541999034
1306893719.81,4.1552126,6.0052272,3073.8846128,-8.7,2.6,207.4,1264972.3501904,12722.113268,-1.0,519.9678492616072,139128.85790818965,139128.85790818965,300.8838822099374,0.07326469928484904,3.5982454272880244,90.2,0.3872212026640849
1306893720.23,4.1546788,6.0044609,3075.1641403999997,-6.5,2.6,207.2,1264855.5850948,12432.316670799999,-1.0,516.3908924719611,138830.28546444522,138830.28546444522,301.08415078626257,0.07146785076404498,3.5314098585157145,90.3,0.3872432499081793
1306893720.65,4.1541447,6.0036902,3076.5420932,-4.6,2.6,207.1,1264738.9184243998,12140.879653599999,-1.0,518.8014166681105,135605.08926378505,135605.08926378505,300.9902658564773,0.07488961519604814,3.6084401111993363,89.4,0.3872660626815827
1306893721.07,4.1536121,6.0029188,3078.0512796000003,-2.9,2.6,207.0,1264622.6454548,11849.245786,-1.0,518.8611643005511,135341.19993190482,135341.19993190482,299.327314155566,0.07335710672890529,3.6383019848070357,89.80000000000003,0.38729025340774187
1306893721.49,4.1530742,6.0021379,3079.6916996,-1.3,2.6,207.0,1264505.2569996,11554.035802800001,-1.0,524.924691770049,134661.82153661305,134661.82153661305,296.43600865380887,0.0756946748437209,3.5370352291119205,89.30000000000001,0.387316434510104
1306893721.91,4.1525406,6.0013624,3081.3977364,0.0,2.6,207.0,1264388.8856048,11260.8927488,-1.0,521.1967793250487,133613.29107380324,133613.29107380324,294.0928341494494,0.07810589065561578,3.5715916777236214,91.5,0.38734491220039274
1306893722.33,4.1520158,6.0005999,3083.1365816,1.3,2.6,207.0,1264274.3514804,10972.6381464,-1.0,512.7211920421103,134686.70664302958,134686.70664302958,294.0922186411634,0.07762495523363537,3.5842050465079494,93.40000000000002,0.38737560992567716
1306893722.75,4.1514843,5.9998283,3084.9738519999996,2.3,2.6,207.0,1264158.3081696,10680.9714704,-1.0,518.7745957541459,134604.00366350438,134604.00366350438,292.7072611762238,0.07714229110710492,3.592834908625541,93.30000000000003,0.3874086807918189
1306893723.17,4.1509431,5.9990442,3086.8767392,3.2,2.6,207.0,1264040.1979296,10384.514768,-1.0,527.241330552697,133145.44360708335,133145.44360708335,292.3691596635256,0.07373365114181887,3.6722241201027845,93.50000000000001,0.38744412479881796
1306893723.59,4.1504085,5.9982716,3088.7796264000003,4.0,2.6,207.2,1263923.4000256,10092.3887744,-1.0,519.9233226456116,135229.0718490728,135229.0718490728,292.73461823819656,0.07634203801967471,3.7101184819393684,91.70000000000002,0.3874815591820201
1306893724.01,4.149875,5.9975032,3090.715322,4.7,2.6,207.2,1263806.7333552002,9801.837583999999,-1.0,517.4722017931991,133693.34501767773,133693.34501767773,291.0831467753149,0.07494707928927297,3.6798405206123537,92.4,0.38752083083556343
1306893724.43,4.149336,5.99673,3092.683826,5.3,2.6,207.2,1263688.8199656,9509.416314799999,-1.0,521.0456264795346,133325.0900789357,133325.0900789357,291.3506335991077,0.07648059259115678,3.60633043485631,95.4,0.3875617101006552
1306893724.85,4.1487991,5.9959629,3094.6195216,5.8,2.6,207.2,1263571.3330852,9219.2916336,-1.0,517.3306417885966,134911.10972412766,134911.10972412766,290.13866566539633,0.0752411452543479,3.5672190782465347,94.89999999999999,0.38760389076557217
1306893725.27,4.1482576,5.995193,3096.620834,6.3,2.6,207.6,1263452.5994856001,8927.98585,-1.0,519.87092890402,132504.1682429566,132504.1682429566,291.1224788953241,0.07818301942291167,3.52083966357496,92.99999999999999,0.3876472197244524
1306893725.69,4.1477101,5.9944183,3098.6221464,6.6,2.6,207.7,1263332.55355,8634.9084128,-1.0,523.340457886671,131423.9654623284,131423.9654623284,292.172121242366,0.0768151860439305,3.511341574864083,91.8,0.3876913907655721
1306893726.11,4.1471706,5.9936592,3100.5906504,6.9,2.6,207.8,1263214.1480343998,8347.605254,-1.0,513.6593517005608,132507.0532653251,132507.0532653251,293.62421767383455,0.07679916785013975,3.4427731259150613,89.1,0.387736174230139
1306893726.53,4.1466171,5.9928845,3102.5919627999997,7.1,2.6,207.8,1263092.4288704,8054.363774799999,-1.0,524.6255141554637,129376.9082981587,129376.9082981587,294.92421782195447,0.07533048273588001,3.440904784477783,88.2,0.3877815701181531
1306893726.95,4.1460624,5.9921126,3104.5932752,7.3,2.6,208.1,1262970.4472392001,7762.106547599999,-1.0,523.3154606253485,129775.17638806548,129775.17638806548,294.95393817434524,0.07659248853946025,3.4430117837629557,87.8,0.38782734877082153
1306893727.37,4.1455131,5.9913525,3106.5617792,7.5,2.6,208.2,1262849.44986,7474.2784544,-1.0,516.0679102450587,132378.06411478017,132378.06411478017,295.6017400624886,0.07640950136653074,3.394011440047452,85.9,0.3878732805293517
1306893727.79,4.1449573,5.990588,3108.5630916,7.5,2.6,208.2,1262726.9432944,7184.678707599999,-1.0,519.6714842965556,130672.00475434845,130672.00475434845,296.4522922191738,0.07733812777125035,3.3583908792616146,84.4,0.3879194419466745
1306893728.22,4.1443908,5.9898135,3110.564404,7.5,2.6,208.5,1262601.9432904,6891.2731864,-1.0,514.9010471181755,130360.09831479144,130360.09831479144,297.8630533314578,0.07745007666791186,3.332691473650264,83.80000000000001,0.38796575646985915
1306893729.07,4.1432513,5.9882694,3114.5670288,7.5,2.6,208.8,1262350.0403952,6306.102564,-1.0,520.2443350805157,129493.94851818409,129493.94851818409,298.40512522159594,0.07854665270669003,3.351364436592744,81.1,0.38801681727475845
1306893729.49,4.1426783,5.9874998,3116.5683412,7.5,2.6,208.9,1262223.2359292,6014.3374628,-1.0,525.6578295176491,126137.25391937835,126137.25391937835,298.20372160375376,0.07982510651682746,3.2887501812162716,80.3,0.3880680311855197
1306893729.91,4.1421161,5.9867493,3118.5040368,7.5,2.6,209.1,1262098.5640092,5729.7574012000005,-1.0,513.5835014679706,126141.62228737403,126141.62228737403,298.3411258001219,0.07703883610338154,3.3121031864438777,79.8,0.38811909199041905
1306893730.33,4.1415352,5.9859782,3120.5053492,7.5,2.6,209.2,1261969.6598056,5437.2705152,-1.0,528.100976501243,125262.95794238649,125262.95794238649,299.0107210559845,0.07525764263454303,3.3985713597394653,81.2,0.38817015279531847
1306893731.17,4.1403875,5.9844677,3124.4423572,7.5,2.6,209.5,1261714.8041544,4864.2061924,-1.0,518.2924140501743,125794.63673661955,125794.63673661955,299.83994063601267,0.07632425018632322,3.4147628436024906,83.5,0.3882258067760709
1306893731.59,4.1398142,5.9837194,3126.3780527999998,7.0,2.6,209.6,1261587.14667,4580.1838736,-1.0,514.7267294824624,128212.00615981614,128212.00615981614,298.43893806296,0.07597783310555373,3.44017594977183,83.6,0.38828130765096147
1306893732.01,4.1392288,5.9829594,3128.3793652,6.9,2.6,209.6,1261456.8317052,4291.6996124,-1.0,523.1042379462557,127811.62027252204,127811.62027252204,300.2012332060938,0.07749308905857125,3.432229951541229,85.8,0.3883368085258521
1306893732.43,4.1386494,5.9822111,3130.3150608,6.7,2.6,209.9,1261327.7634596,4007.5788684,-1.0,515.816804085989,128930.42176548723,128930.42176548723,299.35819598251067,0.0788563130580319,3.5054876331470988,88.40000000000002,0.38839223284781194
